,管轄署,種別,日時,場所,状況,住所,address,count,color,都道府県コード,都道府県名,都道府県名カナ,都道府県名ローマ字,市区町村コード,市区町村名,市区町村名カナ,市区町村名ローマ字,大字町丁目コード,大字町丁目名,緯度,経度
0,松山東署管内,声かけ,令和2年10月1日(木)午後10時05分ころ,松山市宮西一丁目路上,紺色半ズボン)が赤信号を無視して道路を横断して来て、「何しよんぞ、チビ。」と声を掛けてきたもの。,松山市宮西一丁目,松山市宮西一丁目,0,green,38.0,愛媛県,エヒメケン,EHIME KEN,38201.0,松山市,マツヤマシ,MATSUYAMA SHI,382010326001.0,宮西一丁目,33.845813,132.752728
1,松山南署管内,つきまとい,令和2年9月30日(水)午後7時30分ころ,伊予郡砥部町高尾田路上,半ズボン、半キャップ型ヘルメット・黒縁で四角の眼鏡着用、黒色様のオートバイ利用)に、先回りされたり、後方をつきまとわれたりしたもの。,伊予郡砥部町高尾田,伊予郡砥部町高尾田,0,blue,38.0,愛媛県,エヒメケン,EHIME KEN,38402.0,伊予郡砥部町,イヨグントベチョウ,IYO GUN TOBE CHO,384020020000.0,高尾田,33.779877,132.795277
2,松山西署管内,つきまとい,令和2年9月28日(月)午後3時15分ころ,松山市西垣生町公園内,黒色長ズボン、黒色キャップ帽着用(目が隠れる位深く着用)、眼鏡・マスクなし)に見られた。その後、女児小学生らが自転車で公園を離れると、男も黒色軽快兼用自転車で後方をつきまとってきたもの。,松山市西垣生町,松山市西垣生町,0,blue,38.0,愛媛県,エヒメケン,EHIME KEN,38201.0,松山市,マツヤマシ,MATSUYAMA SHI,382010233000.0,西垣生町,33.813675,132.701207
3,伊予署管内,ちかん,令和2年9月28日(月)午前8時10分ころ,伊予郡松前町大字上高柳路上,女子高校生が自転車で走行中、自転車(黒色ママチャリ)に乗った男(40〜50歳位、小肥、白髪混じり短髪、眼鏡着用、口の周りに無精ひげあり、マスクなし)に後方をつきまとわれた後、身体を触られたもの。,伊予郡松前町大字上高柳,伊予郡松前町大字上高柳,0,gray,38.0,愛媛県,エヒメケン,EHIME KEN,38401.0,伊予郡松前町,イヨグンマサキチョウ,IYO GUN MASAKI CHO,384010003000.0,大字上高柳,33.798934,132.731295
4,松山東署管内,写真撮影,令和2年9月26日(土)午後1時20分ころ,松山市新石手路上,白色ワイシャツ)につきまとわれ、車内からスマートフォンを向けられたもの。,松山市新石手,松山市新石手,0,lightred,38.0,愛媛県,エヒメケン,EHIME KEN,38201.0,松山市,マツヤマシ,MATSUYAMA SHI,382010151000.0,新石手,33.845483,132.799744
5,愛南署管内,声かけ,令和2年9月24日(木)午後3時10分ころ,南宇和郡愛南町城辺甲共同住宅敷地内,黒色ズボン、眼鏡なし、自転車利用(前かごあり、青色タイヤホイール))に「お菓子あげるけん。そこは僕のおうちじゃないよ。」等と声をかけられたもの。,南宇和郡愛南町城辺甲共同,南宇和郡愛南町城辺甲共同,0,green,,,,,,,,,,,,
6,西条西署管内,声かけ,令和2年9月24日(木)午前7時45分ころ,西条市三津屋駐輪場,灰色様半ズボン、眼鏡着用)に「今日テストなの。」「普通科。」「どこの学校。」などと15分にわたって質問されたもの。,西条市三津屋,西条市三津屋,0,green,38.0,愛媛県,エヒメケン,EHIME KEN,38206.0,西条市,サイジョウシ,SAIJO SHI,382060149000.0,三津屋,33.934752,133.086945
7,松山南署管内,身体露出,令和2年9月23日(水)午後9時30分ころ,松山市古川西一丁目店舗駐車場,灰色短パン、眼鏡着用)を勤務中の女性が目撃したもの。,松山市古川西一丁目,松山市古川西一丁目,0,orange,38.0,愛媛県,エヒメケン,EHIME KEN,38201.0,松山市,マツヤマシ,MATSUYAMA SHI,382010274001.0,古川西一丁目,33.810567999999996,132.75696499999998
8,松山西署管内,声かけ,令和2年9月23日(水)午後5時10分ころ,松山市南斎院町路上,黒色長ズボン)の横を通り過ぎた際、男に「家どこ。」と声をかけられたもの。,松山市南斎院町,松山市南斎院町,0,green,38.0,愛媛県,エヒメケン,EHIME KEN,38201.0,松山市,マツヤマシ,MATSUYAMA SHI,382010316000.0,南斎院町,33.83303,132.731679
9,西条署管内,つきまとい,令和2年9月22日(火)午後7時30分ころ,西条市大町路上,黒色七分丈ズボン、黒縁眼鏡着用)に凝視され、移動先にもつきまとい、付近をうろつかれたもの。,西条市大町,西条市大町,0,blue,38.0,愛媛県,エヒメケン,EHIME KEN,38206.0,西条市,サイジョウシ,SAIJO SHI,382060018000.0,大町,33.911623999999996,133.189252
10,松山東署管内,声かけ,令和2年9月22日(火)午後6時50分ころ,松山市湊町四丁目路上,青色ジーパン、黒色靴・マスク着用、黒色リュック所持)に、「今からお茶どうですか。」「ライン交換しませんか。」などと声をかけられながら、つきまとわれたもの。,松山市湊町四丁目,松山市湊町四丁目,0,green,38.0,愛媛県,エヒメケン,EHIME KEN,38201.0,松山市,マツヤマシ,MATSUYAMA SHI,382010310004.0,湊町四丁目,33.835795000000005,132.76589199999998
11,松山東署管内,写真撮影,令和2年9月22日(火)午前11時15分ころ,松山市宮田町店内,青色様半袖、オレンジ色軽四自動車利用)にスマートフォン(灰色)を向けられ、容姿を撮影されたもの。,松山市宮田町店内,松山市宮田町店内,0,lightred,,,,,,,,,,,,
12,宇和島署管内,声かけ,令和2年9月20日(日)午後5時30分ころ,宇和島市伊吹町甲路上,男児小学生が歩いていたところ、後方から近づいてきた車(紺色)に乗った男(60歳位、白髪混じりの髪、黒色様ジャージ様の上衣、マスク着用)に「おうちはどこ、どこまで帰るの、乗せてあげようか。」と声をかけられたもの。,宇和島市伊吹町甲,宇和島市伊吹町,0,green,38.0,愛媛県,エヒメケン,EHIME KEN,38203.0,宇和島市,ウワジマシ,UWAJIMA SHI,382030005000.0,伊吹町,33.234583,132.57928700000002
13,大洲署管内,声かけ,令和2年9月19日(土)午後2時ころ,大洲市東大洲店舗駐車場,黒色短パン、黒色マスク着用)に「○○にはどうやって行くの。」「どこの高校、かわいいね。」等と声をかけられたもの。,大洲市東大洲,大洲市東大洲,0,green,38.0,愛媛県,エヒメケン,EHIME KEN,38207.0,大洲市,オオズシ,OZU SHI,382070061000.0,東大洲,33.527646000000004,132.571139
14,松山南署管内,つきまとい,令和2年9月19日(土)午前1時ころ,松山市古川北一丁目路上,女性が自転車を押して歩いていたところ、車(黄色)に乗った男(30〜40歳位、眼鏡なし)に少し距離を空けて追従され、移動先にある駐車場に駐車して先回りされたもの。,松山市古川北一丁目,松山市古川北一丁目,0,blue,38.0,愛媛県,エヒメケン,EHIME KEN,38201.0,松山市,マツヤマシ,MATSUYAMA SHI,382010273001.0,古川北一丁目,33.814687,132.76428700000002
15,四国中央署管内,のぞき・盗撮,令和2年9月17日(木)午後8時30分ころ,四国中央市土居町津根一般住宅,女性が自宅浴室で入浴中、普段開けない窓が開いていたことから一度窓を閉め、気にしていると、再度窓が開いておりその窓越しに何者かの指が見えたもの。,四国中央市土居町津根,四国中央市土居町津根,0,pink,38.0,愛媛県,エヒメケン,EHIME KEN,38213.0,四国中央市,シコクチュウオウシ,SHIKOKUCHUO SHI,382130030000.0,土居町津根,33.967002,133.45345
16,新居浜署管内,身体露出,令和2年9月17日(木)午後7時25分ころ,新居浜市庄内町二丁目路上,黒色短パン、帽子・眼鏡・マスクなし)が聞き取れない言葉を発しながら近づいてきたもの。男は「ごめんごめん」と言いながら立ち去った。,新居浜市庄内町二丁目,新居浜市庄内町二丁目,0,orange,38.0,愛媛県,エヒメケン,EHIME KEN,38205.0,新居浜市,ニイハマシ,NIIHAMA SHI,382050046002.0,庄内町二丁目,33.958362,133.295128
17,松山東署管内,つきまとい,令和2年9月17日(木)午後4時40分ころ,松山市平和通六丁目路上,黒色ジーパン、目が細い)に凝視された。その後、男は女子中学生を追い抜き、女子中学生の進行方向で待ち伏せたもの。,松山市平和通六丁目,松山市平和通六丁目,0,blue,38.0,愛媛県,エヒメケン,EHIME KEN,38201.0,松山市,マツヤマシ,MATSUYAMA SHI,382010279006.0,平和通六丁目,33.84763,132.75656999999998
18,新居浜署管内,暴行,令和2年9月17日(木)午後4時30分ころ,新居浜市垣生六丁目路上,灰色半袖シャツ、青色ポーチ様所持、帽子・眼鏡・マスクなし)に腕を掴まれ、暴言を吐かれたもの。,新居浜市垣生六丁目,新居浜市垣生六丁目,0,red,38.0,愛媛県,エヒメケン,EHIME KEN,38205.0,新居浜市,ニイハマシ,NIIHAMA SHI,382050086006.0,垣生六丁目,33.987893,133.318059
19,今治署管内,のぞき・盗撮,令和2年9月16日(水)午後10時30分ころ,今治市宮下町一丁目路上,地味な印象の服装、小さめの肩掛けバッグ、スマートフォン所持)が立っていたのを目撃している。,今治市宮下町一丁目,今治市宮下町一丁目,0,pink,38.0,愛媛県,エヒメケン,EHIME KEN,38202.0,今治市,イマバリシ,IMABARI SHI,382020200001.0,宮下町一丁目,34.068459000000004,132.98826
20,松山東署管内,声かけ,令和2年9月16日(水)午後4時45分ころ,松山市鴨川一丁目路上,黒色短パン、色黒、眼鏡なし)に下品な言葉をかけられたもの。,松山市鴨川一丁目,松山市鴨川一丁目,0,green,38.0,愛媛県,エヒメケン,EHIME KEN,38201.0,松山市,マツヤマシ,MATSUYAMA SHI,382010082001.0,鴨川一丁目,33.87323,132.753266
21,松山東署管内,写真撮影等,令和2年9月16日(水)午後3時30分ころ,松山市木屋町一丁目路上,女子中学生2名が歩いていたところ、路上に立つ男(50歳位、小肥、身長160〜170センチ位、禿げている)にニヤニヤしながら女子中学生らの歩みに合わせてガラケーを向けられたもの。,松山市木屋町一丁目,松山市木屋町一丁目,0,写真撮影等,38.0,愛媛県,エヒメケン,EHIME KEN,38201.0,松山市,マツヤマシ,MATSUYAMA SHI,382010103001.0,木屋町一丁目,33.848553,132.760285
22,松山東署管内,声かけ,令和2年9月15日(火)午後8時30分ころ,松山市北立花町路上,ボクサーパンツ、マスク・眼鏡・髭なし)が下半身を触りながら下品な言葉をかけてきたもの。,松山市北立花町,松山市北立花町,0,green,38.0,愛媛県,エヒメケン,EHIME KEN,38201.0,松山市,マツヤマシ,MATSUYAMA SHI,382010096000.0,北立花町,33.834261,132.77277
23,西条西署管内,声かけ,令和2年9月15日(火)午後3時ころ,西条市丹原町池田路上,七部丈ズボン、麦わら帽子・サングラス着用)に「お菓子あげるけんおいで。」と声をかけられたもの。,西条市丹原町池田,西条市丹原町池田,0,green,38.0,愛媛県,エヒメケン,EHIME KEN,38206.0,西条市,サイジョウシ,SAIJO SHI,382060065000.0,丹原町池田,33.912892,133.059078
24,松山西署管内,写真撮影,令和2年9月14日(月)午後6時45分ころ,松山市太山寺町路上,ハーフパンツ)の横を通り過ぎようとしたところ、男の顔付近で赤色の光が点灯したのを目撃した。女子高校生はその様子から撮影されているのではないかと感じたもの。,松山市太山寺町,松山市太山寺町,0,lightred,38.0,愛媛県,エヒメケン,EHIME KEN,38201.0,松山市,マツヤマシ,MATSUYAMA SHI,382010163000.0,太山寺町,33.887046000000005,132.724298
25,松山南署管内,不審者,令和2年9月14日(月)午前7時45分ころ,松山市北井門四丁目路上,灰色半ズボン、青色キャップ帽、白色マスク着用)に進路を阻む様に走行され、接触しそうになったもの。数日前には、すれ違う際に顔を覗き込むように見られている。,松山市北井門四丁目,松山市北井門四丁目,0,purple,38.0,愛媛県,エヒメケン,EHIME KEN,38201.0,松山市,マツヤマシ,MATSUYAMA SHI,382010092004.0,北井門四丁目,33.803351,132.775012
26,松山東署管内,つきまとい,令和2年9月11日(木)午前6時15分ころ,松山市土居田町路上,女性が歩いていたところ、車(白色、普通車、コンパクトカー型)に乗った男(50〜60歳位、中肉、短髪、茶色チェック柄のシャツ、眼鏡・マスクなし)にジロジロと見られた上、後をつけられたもの。,松山市土居田町,松山市土居田町,0,blue,38.0,愛媛県,エヒメケン,EHIME KEN,38201.0,松山市,マツヤマシ,MATSUYAMA SHI,382010195000.0,土居田町,33.823276,132.746488
27,四国中央署管内,声かけ,令和2年9月10日(木)午後5時ころ,四国中央市三島中央二丁目路上,ジーパン、帽子・眼鏡・髭なし)に「○○小学校の人、一緒に歌おう。」等と声をかけられ、後方をつきまとわれたもの。,四国中央市三島中央二丁目,四国中央市三島中央二丁目,0,green,38.0,愛媛県,エヒメケン,EHIME KEN,38213.0,四国中央市,シコクチュウオウシ,SHIKOKUCHUO SHI,382130050002.0,三島中央二丁目,33.982222,133.5449
28,松山東署管内,つきまとい,令和2年9月10日(木)午後4時30分ころ,松山市平和通六丁目路上から同市宮西一丁目路上までの間,長ズボン、眉毛が濃い、目がギョロっとしている)の前を通り過ぎた際、スマートフォンを向けられて写真を撮られ、後方をつきまとわれたもの。,松山市平和通六丁目,松山市平和通六丁目,1,blue,38.0,愛媛県,エヒメケン,EHIME KEN,38201.0,松山市,マツヤマシ,MATSUYAMA SHI,382010279006.0,平和通六丁目,33.84763,132.75656999999998
29,松山西署管内,声かけ,令和2年9月10日(木)午後3時ころ,松山市空港通三丁目路上,女児小学生が歩いていたところ、近づいてきた男(50歳位)に「○○小学校の子?」と声をかけられたもの。,松山市空港通三丁目,松山市空港通三丁目,0,green,38.0,愛媛県,エヒメケン,EHIME KEN,38201.0,松山市,マツヤマシ,MATSUYAMA SHI,382010106003.0,空港通三丁目,33.827892,132.73816200000002
30,松山東署管内,声かけ,令和2年9月9日(水)午後5時30分ころ,松山市道後樋又路上,黒色様長ズボン)にすれ違いざま、「JCやJCや」と声をかけられた上、しばらくの間、周りを徘徊されたもの。,松山市道後樋又,松山市道後樋又,0,green,38.0,愛媛県,エヒメケン,EHIME KEN,38201.0,松山市,マツヤマシ,MATSUYAMA SHI,382010205000.0,道後樋又,33.852406,132.772246
31,松山東署管内,声かけ,令和2年9月9日(水)午後4時15分ころ,松山市枝松五丁目路上,濃いピンク色ビキニパンツ)に呼び止められ、「お茶でも飲んでいかない。」と声をかけられたもの。,松山市枝松五丁目,松山市枝松五丁目,0,green,38.0,愛媛県,エヒメケン,EHIME KEN,38201.0,松山市,マツヤマシ,MATSUYAMA SHI,382010048005.0,枝松五丁目,33.828291,132.784873
32,新居浜署管内,つきまとい,令和2年9月9日(水)午前8時ころ,新居浜市徳常町路上,黒色半ズボン、青色キャップ帽、眼鏡着用、マスクなし、大きめの白猫を肩に乗せていた)に近づかれたもの。,新居浜市徳常町,新居浜市徳常町,0,blue,38.0,愛媛県,エヒメケン,EHIME KEN,38205.0,新居浜市,ニイハマシ,NIIHAMA SHI,382050067000.0,徳常町,33.964347,133.280812
33,松山東署管内,つきまとい,令和2年9月8日(火)午後4時ころ,松山市和泉北二丁目路上から同市土居田町路上までの間,灰色半ズボン、色黒、マスク・眼鏡・帽子なし)に追い越しざまじっと見る行為を繰り返されたもの。,松山市和泉北二丁目,松山市和泉北二丁目,0,blue,38.0,愛媛県,エヒメケン,EHIME KEN,38201.0,松山市,マツヤマシ,MATSUYAMA SHI,382010027002.0,和泉北二丁目,33.823321,132.75603700000002
34,新居浜署管内,声かけ,令和2年9月8日(火)午前8時ころ,新居浜市徳常町から同市本郷三丁目まで走行中のバス車内,黒色長ズボン、がっちりした体型、キャップ帽着用、大きめの白猫が入った猫用ゲージ所持)に「久しぶりにバス乗った。」などと声をかけられたもの。その後、女子中学生がバスを降りると、男も同じバス停で降り、「一緒に行きたい。」と言って、女子中学生の後方をつきまとった。,新居浜市徳常町から同市本郷三丁目まで走行中のバス車内,新居浜市徳常町から同市本郷三丁目まで走行中のバス車内,0,green,,,,,,,,,,,,
35,松山西署管内,つきまとい,令和2年9月5日(土)午後10時ころ,松山市久保田町アパート駐輪場,灰色短パン、リュックサック様所持、マスク・髭なし)が立っていたもの。女性が声を上げると、男はその場を離れるも、離れた場所から女性を凝視していた。,松山市久保田町,松山市久保田町,0,blue,38.0,愛媛県,エヒメケン,EHIME KEN,38201.0,松山市,マツヤマシ,MATSUYAMA SHI,382010110000.0,久保田町,33.822324,132.720433
36,宇和島署管内,つきまとい,令和2年9月4日(金)午後4時30分ころ,宇和島市津島町高田から同市祝森甲までの間,女性2名が自転車で走行中、路肩に停まっていた車(白色、小型の箱型)の横を通り過ぎた際、車に乗った男(30歳位、やせ型、黒色短髪、白色様の上衣、黒縁眼鏡着用、スマートフォン所持)に車内から携帯電話を向けられ、その後、何度も男に追い越されては携帯電話を向けられる行為を繰り返しながら、つきまとわれたもの。,宇和島市津島町高田から同市祝森甲までの間,宇和島市津島町高田から同市祝森甲までの間,0,blue,,,,,,,,,,,,
37,松山東署管内,容姿撮影,令和2年9月4日(金)午前10時ころ,松山市湊町三丁目路上,灰色長ズボン、白色帽子・白色マスク・白色スニーカー着用、黒色ショルダーバッグ所持)を通行人が目撃したもの。通行人が男に「お前何をしていた。スマホ見せてみい。撮っていただろう。」と声かけをしたところ、男は「そんなことしていない。」と申し立て、走り去った。,松山市湊町三丁目,松山市湊町三丁目,0,容姿撮影,38.0,愛媛県,エヒメケン,EHIME KEN,38201.0,松山市,マツヤマシ,MATSUYAMA SHI,382010310003.0,湊町三丁目,33.835677000000004,132.769073
38,今治署管内,声かけ,令和2年9月3日(木)午後6時ころ,今治市上徳路上,黒色様ジャージ長ズボン、銀縁眼鏡着用)に「名前教えて、どこ帰るん。」と声をかけられ、後方をつきまとわれたもの。,今治市上徳,今治市上徳,0,green,38.0,愛媛県,エヒメケン,EHIME KEN,38202.0,今治市,イマバリシ,IMABARI SHI,382020049000.0,上徳,34.036732,133.014342
39,八幡浜署管内,声かけ,令和2年9月3日(木)午後5時10分ころ,八幡浜市船場通路上,女児小学生が歩いていたところ、自転車(黒色様、前かご付き、ママチャリ)を押していた男(50〜70歳位、小肥、身長160〜165センチ位、黒色の坊主、上下黒色様の服、眼鏡着用、腹が出ている、耳・顎・鼻下にかけて無精髭が生えている)に「ゲーム機を買ってあげるよ。」などと声をかけられながら、つきまとわれたもの。,八幡浜市船場通,八幡浜市船場通,0,green,,,,,,,,,,,,
40,松山西署管内,つきまとい,令和2年9月2日(水)午後6時ころ,松山市東垣生町路上から伊予郡松前町大字北川原路上までの間,暗色のTシャツ、黒縁眼鏡着用)に追い越しざま凝視され、引き返しては追い越す行為を繰り返してつきまとわれたもの。,松山市東垣生町,松山市東垣生町,0,blue,38.0,愛媛県,エヒメケン,EHIME KEN,38201.0,松山市,マツヤマシ,MATSUYAMA SHI,382010255000.0,東垣生町,33.813134999999996,132.714338
41,四国中央署管内,つきまとい,令和2年9月1日(火)午後4時30分ころ,四国中央市妻鳥町路上,50歳位、小肥、黒色短髪、濃い青色半袖Tシャツ、太い眉毛、眼鏡・マスク・帽子なし)の一人が降車して、男児小学生に「この家に行くん。」と声をかけてきたもの。男児小学生が足早に立ち去ったところ、男らに車で自宅まで後をつけられ、自宅のインターフォンを押された。,四国中央市妻鳥町,四国中央市妻鳥町,0,blue,38.0,愛媛県,エヒメケン,EHIME KEN,38213.0,四国中央市,シコクチュウオウシ,SHIKOKUCHUO SHI,382130053000.0,妻鳥町,33.991779,133.572307
42,宇和島署管内,声かけ,令和2年8月31日(月)午後5時10分ころ,宇和島市和霊町路上,ズボン、眼鏡・帽子・マスク・髭なし)に「可愛いね。」「何年生。家はどこ。」と声をかけられたもの。,宇和島市和霊町,宇和島市和霊町,0,green,38.0,愛媛県,エヒメケン,EHIME KEN,38203.0,宇和島市,ウワジマシ,UWAJIMA SHI,382030161000.0,和霊町,33.232284,132.566536
43,松山東署管内,つきまとい,令和2年8月29日(土)午前11時ころ,松山市辻町路上,女性がベビーカーを押して歩いていたところ、銀色軽快兼用自転車に乗った男(30歳位、身長170センチ位、中肉、パーマの黒髪)に後をつきまとわれたもの。その後、女性が近くの店舗で買い物した際も、店内で男につきまとわれた。,松山市辻町,松山市辻町,0,blue,38.0,愛媛県,エヒメケン,EHIME KEN,38201.0,松山市,マツヤマシ,MATSUYAMA SHI,382010189000.0,辻町,33.84332,132.748952
44,松山西署管内,つきまとい,令和2年8月28日(金)午後9時ころ,松山市太山寺町から同市安城寺町までの路上,半ズボン)がすれ違いざまに反転し、走って後を追いかけてきたもの。,松山市太山寺町から同市安城寺町までの,松山市太山寺町から同市安城寺町まで,0,blue,,,,,,,,,,,,
45,伊予署管内,暴行,令和2年8月28日(金)午後4時30分ころ,伊予郡松前町大字出作路上,男児小学生が自転車で走行中、後方から自転車で近づいてきた男(10〜30歳位、黒色短髪)に肩を押され転倒したもの。,伊予郡松前町大字出作,伊予郡松前町大字出作,0,red,38.0,愛媛県,エヒメケン,EHIME KEN,38401.0,伊予郡松前町,イヨグンマサキチョウ,IYO GUN MASAKI CHO,384010007000.0,大字出作,33.789567,132.75181899999998
46,松山東署管内,つきまとい,令和2年8月27日(木)午後5時30分ころ,松山市土居田町路上,紺色長ズボン、無地の灰色帽子着用、大きめのリュックサック所持)に後方をつきまとわれたもの。女児中学生が自宅付近まで帰ると、再度、男と出会ったもの。,松山市土居田町,松山市土居田町,1,blue,38.0,愛媛県,エヒメケン,EHIME KEN,38201.0,松山市,マツヤマシ,MATSUYAMA SHI,382010195000.0,土居田町,33.823276,132.746488
47,松山西署管内,声かけ,令和2年8月27日(木)午後4時5分ころ,松山市西垣生町路上,女子中学生が道端で立ち話をしていたところ、バイク(スクーター型)に乗った男(50〜60歳位、フルフェイス型ヘルメット着用)に「お金使って遊べよ。」と声をかけられたのを、通行人が目撃したもの。,松山市西垣生町,松山市西垣生町,1,green,38.0,愛媛県,エヒメケン,EHIME KEN,38201.0,松山市,マツヤマシ,MATSUYAMA SHI,382010233000.0,西垣生町,33.813675,132.701207
48,松山南署管内,つきまとい,令和2年8月26日(水)午後6時30分ころ,松山市井門町路上,水色作業着様、半キャップ型ヘルメット着用)に後方を追従されているのを通行人が目撃したもの。,松山市井門町,松山市井門町,0,blue,38.0,愛媛県,エヒメケン,EHIME KEN,38201.0,松山市,マツヤマシ,MATSUYAMA SHI,382010029000.0,井門町,33.796879,132.77721499999998
49,松山東署管内,声かけ,令和2年8月26日(水)午後4時ころ,松山市吉藤四丁目路上,ズボン、眼鏡・髭なし)に呼び止められ、「パンツがずっと見えてますよ。」と声を掛けられたもの。,松山市吉藤四丁目,松山市吉藤四丁目,0,green,38.0,愛媛県,エヒメケン,EHIME KEN,38201.0,松山市,マツヤマシ,MATSUYAMA SHI,382010358004.0,吉藤四丁目,33.874108,132.75611999999998
50,今治署管内,声かけ,令和2年8月26日(水)午後3時ころ,今治市蒼社町路上,女子高校生が移動中、車(白色、ワンボックスタイプ)に乗った男(20〜30歳位)、後部座席に同乗していた男性(黒髪短髪、白色シャツ着用)らに後部座席の窓から「わーっ。」と大声をかけられたもの。,今治市蒼社町,今治市蒼社町,0,green,,,,,,,,,,,,
51,西条西署管内,身体露出,令和2年8月26日(水)午後1時30分ころ,西条市丹原町池田路上,薄茶色七部丈ズボン、眼鏡着用、マスク・帽子なし、色黒)がすれ違い様にズボンのファスナーを下ろしたもの。,西条市丹原町池田,西条市丹原町池田,1,orange,38.0,愛媛県,エヒメケン,EHIME KEN,38206.0,西条市,サイジョウシ,SAIJO SHI,382060065000.0,丹原町池田,33.912892,133.059078
52,松山東署管内,身体露出,令和2年8月26日(水)午後0時40分ころ,松山市高砂町四丁目路上,作業服様長ズボン、眼鏡着用)が繰り返し自転車(前かごなし、少し壊れており、カチャカチャと音が鳴っていた)で目の前を走行したもの。その際、男は女児小学生らの前で止まり、女児小学生を見ながら笑みを浮かべた。,松山市高砂町四丁目,松山市高砂町四丁目,0,orange,38.0,愛媛県,エヒメケン,EHIME KEN,38201.0,松山市,マツヤマシ,MATSUYAMA SHI,382010167004.0,高砂町四丁目,33.855057,132.76226200000002
53,今治署管内,声かけ,令和2年8月25日(火)午後8時50分ころ,今治市高部路上,女子高校生が自転車で走行中、後方から自転車で近づいてきた男(20歳位、黒色丸刈り)に呼び止められ、「胸を触らせてください。」と声を掛けられたもの。,今治市高部,今治市高部,0,green,38.0,愛媛県,エヒメケン,EHIME KEN,38202.0,今治市,イマバリシ,IMABARI SHI,382020110000.0,高部,34.095634999999994,132.96906299999998
54,松山東署管内,不審者,令和2年8月25日(水)午後5時ころ,松山市道後一万路上,住民が玄関先に出たところ、バイク(黒色様スクーター型、長方形ナンバー)に乗った男(50〜60歳位、身長160〜165センチ位、中肉、上下ベージュ色様の明るい色の服、ベージュ色様ナップサック所持、半キャップ型ヘルメット、軍手、青色レンズのサングラス着用、顔に白色タオルを巻いている)が降車して近隣の家の様子を一軒ずつ覗きながら徘徊するのを目撃したもの。,松山市道後一万,松山市道後一万,0,purple,38.0,愛媛県,エヒメケン,EHIME KEN,38201.0,松山市,マツヤマシ,MATSUYAMA SHI,382010198000.0,道後一万,33.848157,132.777269
55,八幡浜署管内,身体露出,令和2年8月25日(火)午後4時50分ころ,八幡浜市松柏丙路上,女子高校生2名が歩いていたところ、突然目の前に現れた男(50〜70歳位、身長165センチ位、やせ型、黒色短髪、眼鏡着用)がズボンを下ろし、下半身を露出したのを目撃したもの。,八幡浜市松柏丙,八幡浜市松柏,0,orange,38.0,愛媛県,エヒメケン,EHIME KEN,38204.0,八幡浜市,ヤワタハマシ,YAWATAHAMA SHI,382040034000.0,松柏,33.461662,132.439298
56,四国中央署管内,写真撮影,令和2年8月25日(火)午後4時40分ころ,四国中央市金生町山田井路上,黒色様のボーダー柄、携帯電話機所持)に車のサイドミラーに映った姿を携帯電話機で撮影されたもの。その後、女が車で女児小学生らを追い抜き、もう一度同じように女児小学生の姿を撮影した。,四国中央市金生町山田井,四国中央市金生町山田井,0,lightred,38.0,愛媛県,エヒメケン,EHIME KEN,38213.0,四国中央市,シコクチュウオウシ,SHIKOKUCHUO SHI,382130014000.0,金生町山田井,34.016639,133.616508
57,松山南署管内,不審者,令和2年8月25日(火)午前7時25分ころ,東温市田窪路上,灰色短パン、髪が立っている、髭あり)とすれ違ったもの。,東温市田窪,東温市田窪,0,purple,38.0,愛媛県,エヒメケン,EHIME KEN,38215.0,東温市,トウオンシ,TOON SHI,382150011000.0,田窪,33.79037,132.860296
58,愛南署管内,声かけ,令和2年8月24日(月)午前7時30分ころ,南宇和郡愛南町を走行中のバス車内,黒色ズボン、マスクを顎に掛けていた)に「(体操服を持っているのを見て)走るの?」などと声を掛けられたもの。その後、女児小学生の様子を窺う様子であった。,南宇和郡愛南町を走行中のバス車内,南宇和郡愛南町を走行中のバス車内,0,green,,,,,,,,,,,,
59,松山南署管内,不審者,令和2年8月21日(金)午前8時40分ころ,松山市北久米路上,黒色様ズボン、白髪混じりのポニーテールで肩くらいまでの長さ、緑色リュックサック所持、眼鏡なし、猫背)が徘徊しているのを住民が目撃したもの。,松山市北久米,松山市北久米,0,purple,,,,,,,,,,,,
60,四国中央署管内,のぞき・盗撮,令和2年8月19日(水)午前0時25分ころ,四国中央市妻鳥町一般住宅,女性が自宅浴室で入浴後、浴室の高窓を開けたところ、屋外に男(白色マスク着用、眼鏡なし)が立っており、入浴中の浴室を窓越しに覗かれていたもの。,四国中央市妻鳥町,四国中央市妻鳥町,1,pink,38.0,愛媛県,エヒメケン,EHIME KEN,38213.0,四国中央市,シコクチュウオウシ,SHIKOKUCHUO SHI,382130053000.0,妻鳥町,33.991779,133.572307
61,伊予署管内,身体露出,令和2年8月18日(火)午後9時15分ころ,伊予市尾崎公園内,高齢男性(小肥)が上半身裸で公園のベンチに座っているのを通行中の女性が目撃したもの。1週間程前にも、同じ男性が上半身裸でベンチに座っているのが目撃されている。,伊予市尾崎,伊予市尾崎,0,orange,38.0,愛媛県,エヒメケン,EHIME KEN,38210.0,伊予市,イヨシ,IYO SHI,382100006000.0,尾崎,33.74953,132.693569
62,松山東署管内,ちかん,令和2年8月13日(木)午後4時30分ころ,松山市永代町路上,赤色短パン)に胸を触られそうになったもの。,松山市永代町,松山市永代町,0,gray,38.0,愛媛県,エヒメケン,EHIME KEN,38201.0,松山市,マツヤマシ,MATSUYAMA SHI,382010047000.0,永代町,33.834486,132.761566
63,愛南署管内,不審者,令和2年8月7日(金)午後4時30分ころ,南宇和郡愛南町御荘平城路上,ベージュ色七分丈ズボン、ハット帽・サンダル着用、スーパーの買物袋2個所持、髭・眼鏡・マスクなし)がニヤニヤしながら、乱暴な言葉を一人でつぶやいているのを目撃したもの。,南宇和郡愛南町御荘平城,南宇和郡愛南町御荘平城,0,purple,38.0,愛媛県,エヒメケン,EHIME KEN,38506.0,南宇和郡愛南町,ミナミウワグンアイナンチョウ,MINAMIUWA GUN AINAN CHO,385060051000.0,御荘平城,32.961863,132.56274
64,松山東署管内,ちかん,令和2年8月7日(金)午前11時10分ころ,松山市桑原七丁目路上,黒色長ズボン、黄緑色キャップ帽着用、弁当様入りレジ袋所持、眼鏡なし)が女性の前を一旦通り過ぎた後反転し、女性の胸を触ったもの。,松山市桑原七丁目,松山市桑原七丁目,0,gray,38.0,愛媛県,エヒメケン,EHIME KEN,38201.0,松山市,マツヤマシ,MATSUYAMA SHI,382010115007.0,桑原七丁目,33.829267,132.792256
65,松山西署管内,声かけ,令和2年8月5日(水)午後8時20分ころ,松山市北斎院町路上,長ズボン、ロードバイク用ヘルメット着用)に、人気がなくなったところで近づいて来られ、卑猥な言葉をかけられた上、Tシャツを捲り、お腹を見せられたもの。,松山市北斎院町,松山市北斎院町,0,green,38.0,愛媛県,エヒメケン,EHIME KEN,38201.0,松山市,マツヤマシ,MATSUYAMA SHI,382010095000.0,北斎院町,33.839402,132.723636
66,松山東署管内,ちかん,令和2年8月5日(水)午前10時30分ころ,松山市三番町一丁目路上,黒色様スラックス、スマートフォン(黒色手帳型カバー、内側青色)所持、眼鏡・髭・マスクなし、酒臭あり、垂れ目)に呼び止められ、服のデザインについて聞かれた上、胸に触れたり、下品な言葉をかけられたもの。,松山市三番町一丁目,松山市三番町一丁目,0,gray,38.0,愛媛県,エヒメケン,EHIME KEN,38201.0,松山市,マツヤマシ,MATSUYAMA SHI,382010135001.0,三番町一丁目,33.838004,132.773579
67,松山西署管内,声かけ,令和2年8月4日(火)午後7時50分ころ,松山市北斎院町路上,女性が散歩中、男(15歳位、自転車利用)から「下半身を触って欲しい。」と声を掛けられたもの。,松山市北斎院町,松山市北斎院町,1,green,38.0,愛媛県,エヒメケン,EHIME KEN,38201.0,松山市,マツヤマシ,MATSUYAMA SHI,382010095000.0,北斎院町,33.839402,132.723636
68,四国中央署管内,声かけ,令和2年8月4日(火)午後4時ころ,四国中央市寒川町路上,濃緑色七分丈ズボン、眼鏡なし、携行品なし)に呼び止められ、「キミ、いくつ。」「年いくつ。」としつこく声をかけられたもの。,四国中央市寒川町,四国中央市寒川町,0,green,38.0,愛媛県,エヒメケン,EHIME KEN,38213.0,四国中央市,シコクチュウオウシ,SHIKOKUCHUO SHI,382130016000.0,寒川町,33.952462,133.50771699999999
69,松山東署管内,暴行,令和2年8月3日(月)午後3時ころ,松山市余戸中六丁目路上,黒色長ズボン、黒色ニット帽・黒色サングラス・白色マスク着用、携行品なし)が道を譲る仕草をしたことから自転車を進めたところ、男とぶつかりそうになり、立腹した男に自転車ごと押し倒されたもの。,松山市余戸中六丁目,松山市余戸中六丁目,0,red,38.0,愛媛県,エヒメケン,EHIME KEN,38201.0,松山市,マツヤマシ,MATSUYAMA SHI,382010351006.0,余戸中六丁目,33.81758,132.73367199999998
70,大洲署管内,つきまとい,令和2年8月2日(日)午後7時ころ,大洲市阿蔵路上,女子高校生がランニング中、黒色軽四自動車に乗った男(20〜30歳位、短髪)に横に停車された後、一度追い抜かれるも再び停車して待ち伏せされるように、つきまとわれたもの。,大洲市阿蔵,大洲市阿蔵,0,blue,38.0,愛媛県,エヒメケン,EHIME KEN,38207.0,大洲市,オオズシ,OZU SHI,382070001000.0,阿蔵,33.512059,132.532018
71,松山東署管内,つきまとい,令和2年8月2日(日)午後5時30分ころ,松山市湊町四丁目路上,紺色ジーパン、マスク着用、帽子・眼鏡なし、上部が黒色で下部が青色のリュックサック所持)に後方をつきまとわれ、移動先の店舗内でも付近を徘徊されたり、離れた場所から監視するように見られたもの。,松山市湊町四丁目,松山市湊町四丁目,1,blue,38.0,愛媛県,エヒメケン,EHIME KEN,38201.0,松山市,マツヤマシ,MATSUYAMA SHI,382010310004.0,湊町四丁目,33.835795000000005,132.76589199999998
72,松山南署管内,不審者,令和2年8月2日(日)午後5時ころ,松山市北梅本町路上,黄土色短パン)がニヤニヤしながら見つめているのを付近住民が目撃したもの。,松山市北梅本町,松山市北梅本町,0,purple,38.0,愛媛県,エヒメケン,EHIME KEN,38201.0,松山市,マツヤマシ,MATSUYAMA SHI,382010093000.0,北梅本町,33.824484999999996,132.860568
73,新居浜署管内,写真撮影,令和2年8月2日(日)午前11時50分ころ,新居浜市萩生路上,青緑色半袖チェック柄シャツ)にスマートフォンを向けられたもの。,新居浜市萩生,新居浜市萩生,0,lightred,38.0,愛媛県,エヒメケン,EHIME KEN,38205.0,新居浜市,ニイハマシ,NIIHAMA SHI,382050083000.0,萩生,33.911838,133.268311
74,松山東署管内,写真撮影,令和2年8月2日(日)午前9時40分ころ,松山市湊町四丁目店舗から同市湊町三丁目店舗までの間,黒色短パン、黒色靴・黒色マスク着用、スマートフォン・ウエストポーチ所持)に後をつけられたことから店外へ出たところ、その後も男に後をつけられたり、スマートフォンを向けられたりしたもの。,松山市湊町四丁目,松山市湊町四丁目,2,lightred,38.0,愛媛県,エヒメケン,EHIME KEN,38201.0,松山市,マツヤマシ,MATSUYAMA SHI,382010310004.0,湊町四丁目,33.835795000000005,132.76589199999998
75,松山東署管内,身体露出,令和2年8月1日(土)午後0時20分ころ,松山市小栗六丁目路上,黒色様長ズボン、切れ長の目、色黒)が女性の面前で止まり、自転車に跨ったままの状態で、ズボンとパンツを下ろし、下半身を露出した上、下品な言葉をかけてきたもの。,松山市小栗六丁目,松山市小栗六丁目,0,orange,38.0,愛媛県,エヒメケン,EHIME KEN,38201.0,松山市,マツヤマシ,MATSUYAMA SHI,382010060006.0,小栗六丁目,33.827071000000004,132.755874
76,伊予署管内,声かけ,令和2年7月31日(金)午後3時ころ,伊予市大平路上,女子小学生が遊んでいたところ、ワンボックスタイプの白色軽四自動車に乗った男(40〜50歳位、白髪混じり短髪、眼鏡あり)に「お菓子食べない。」「車に乗っていかない。」と声をかけられたもの。,伊予市大平,伊予市大平,0,green,38.0,愛媛県,エヒメケン,EHIME KEN,38210.0,伊予市,イヨシ,IYO SHI,382100005000.0,大平,33.71682,132.705197
77,松山西署管内,つきまとい,令和2年7月31日(金)午前7時40分ころ,松山市空港通三丁目から同市山西町までの路上,緑色ズボン、縁の太い黒色眼鏡着用、携行品なし)にぴったりと後をつけられたもの。,松山市空港通三丁目から同市山西町までの,松山市空港通三丁目から同市山西町まで,0,blue,,,,,,,,,,,,
78,西条署管内,のぞき・盗撮,令和2年7月30日(木)午後7時50分ころ,西条市喜多川一般住宅敷地内,半ズボン)が窓越しに、家の中を覗いているのを目撃したもの。,西条市喜多川,西条市喜多川,0,pink,38.0,愛媛県,エヒメケン,EHIME KEN,38206.0,西条市,サイジョウシ,SAIJO SHI,382060025000.0,喜多川,33.922610999999996,133.17011399999998
79,松山南署管内,つきまとい,令和2年7月30日(木)午後6時25分ころ,松山市森松町路上,女子高校生が自転車で走行中、バイク(黒色スクーター型)に乗った人物に後をつきまとわれたもの。,松山市森松町,松山市森松町,0,blue,38.0,愛媛県,エヒメケン,EHIME KEN,38201.0,松山市,マツヤマシ,MATSUYAMA SHI,382010337000.0,森松町,33.789207,132.791713
80,松山南署管内,つきまとい,令和2年7月30日(木)午後6時ころ,松山市南高井町路上,青色スウェットパンツ、携帯電話機所持、半キャップ型ヘルメット着用、不潔な印象)に後をつきまとわれたもの。,松山市南高井町,松山市南高井町,0,blue,38.0,愛媛県,エヒメケン,EHIME KEN,38201.0,松山市,マツヤマシ,MATSUYAMA SHI,382010317000.0,南高井町,33.788893,132.81303400000002
81,新居浜署管内,写真撮影,令和2年7月30日(木)午前7時15分ころ,新居浜市庄内町三丁目路上,女子中学生が自転車で走行中、空き地に立った男(中肉、上下黒色の服、黒色ニット帽様・黒色サングラス・黒色靴・マスク着用)にスマートフォンを向けられたもの。男の傍に軽快兼用自転車が停まっていた。,新居浜市庄内町三丁目,新居浜市庄内町三丁目,0,lightred,38.0,愛媛県,エヒメケン,EHIME KEN,38205.0,新居浜市,ニイハマシ,NIIHAMA SHI,382050046003.0,庄内町三丁目,33.955969,133.296355
82,松山東署管内,つきまとい,令和2年7月30日(木)午前1時40分ころ,松山市樽味四丁目路上,長ズボン、半キャップ型ヘルメット着用)に歩行速度に合わせて後方をつきまとわれ、その後、男がバイクを降車して自身のベルトを外し、ズボンを下ろすような素振りをしながら、走ってつきまとってきたもの。,松山市樽味四丁目,松山市樽味四丁目,0,blue,38.0,愛媛県,エヒメケン,EHIME KEN,38201.0,松山市,マツヤマシ,MATSUYAMA SHI,382010184004.0,樽味四丁目,33.83876,132.788625
83,松山東署管内,つきまとい,令和2年7月29日(水)午後6時30分ころ,松山市勝山町二丁目路上から同市此花町までの路上,半ズボン、マスク・スリッパ着用、スマートフォン所持)に買い物を終えるまで待ち伏せされたり、後方をつきまとわれたりしたもの。,松山市勝山町二丁目,松山市勝山町二丁目,0,blue,38.0,愛媛県,エヒメケン,EHIME KEN,38201.0,松山市,マツヤマシ,MATSUYAMA SHI,382010073002.0,勝山町二丁目,33.844402,132.77543500000002
84,松山南署管内,つきまとい,令和2年7月28日(火)午後6時45分ころ,松山市井門町路上から同市森松町までの路上,青色様ズボン、眼鏡着用)に先回りされたり、後を追従されるなどして、つきまとわれたもの。,松山市井門町,松山市井門町,1,blue,38.0,愛媛県,エヒメケン,EHIME KEN,38201.0,松山市,マツヤマシ,MATSUYAMA SHI,382010029000.0,井門町,33.796879,132.77721499999998
85,松山南署管内,声かけ,令和2年7月28日(火)午後6時40分ころ,松山市古川西二丁目路上,黒色作業着様長ズボン、眼鏡・マスクなし)に「飴ちゃんあげるけんおいで。」などと声をかけられ、腕を掴まれた。その後、男が自身のズボンのポケットから飴を出し、「毒入ってないけん。」などと言いながら飴を握らされたもの。,松山市古川西二丁目,松山市古川西二丁目,0,green,38.0,愛媛県,エヒメケン,EHIME KEN,38201.0,松山市,マツヤマシ,MATSUYAMA SHI,382010274002.0,古川西二丁目,33.808664,132.757795
86,新居浜署管内,写真撮影,令和2年7月28日(火)午後1時10分ころ,新居浜市久保田町一丁目路上,黒色長ズボン、シャツをズボンの中に入れている、ベルト・白色マスク・黒色革靴着用、黒色スマートフォン・ベージュ色の小さな手提げ袋所持)が立ち、スマートフォンで容姿を撮影されたもの。,新居浜市久保田町一丁目,新居浜市久保田町一丁目,0,lightred,38.0,愛媛県,エヒメケン,EHIME KEN,38205.0,新居浜市,ニイハマシ,NIIHAMA SHI,382050026001.0,久保田町一丁目,33.956818,133.28341
87,新居浜署管内,写真撮影,令和2年7月27日(月)午後3時45分ころ,新居浜市多喜浜六丁目路上,女児小学生2名が歩いていたところ、道路向かいに停車する車(白色、普通乗用車、虹色ナンバープレート)に乗った男(白髪混じりの短髪、帽子・眼鏡・マスクなし)に窓越しに一眼レフ様のカメラを向けられたもの。,新居浜市多喜浜六丁目,新居浜市多喜浜六丁目,0,lightred,38.0,愛媛県,エヒメケン,EHIME KEN,38205.0,新居浜市,ニイハマシ,NIIHAMA SHI,382050059006.0,多喜浜六丁目,33.979602,133.343692
88,松山南署管内,身体露出,令和2年7月27日(月)午前7時30分ころ,東温市田窪路上,黒と青が混ざったような色のズボン、無精ひげあり、眼鏡・マスクなし、白色レジ袋2個所持)が上衣をたくし上げ、上半身を露出したもの。男は、笑顔で付近を徘徊していたが、声かけや身体接触はなし。,東温市田窪,東温市田窪,1,orange,38.0,愛媛県,エヒメケン,EHIME KEN,38215.0,東温市,トウオンシ,TOON SHI,382150011000.0,田窪,33.79037,132.860296
89,松山南署管内,つきまとい,令和2年7月26日(日)午後9時40分ころ,松山市久米窪田町路上,紫色作業着様、髭あり)を追い抜いたところ、後をつきまとわれたもの。その後、男子中学生が信号待ちのため停車したところ、男に鼻で笑われた上、睨みつけられたもの。,松山市久米窪田町,松山市久米窪田町,0,blue,38.0,愛媛県,エヒメケン,EHIME KEN,38201.0,松山市,マツヤマシ,MATSUYAMA SHI,382010114000.0,久米窪田町,33.804652000000004,132.811203
90,松山南署管内,不審者,令和2年7月26日(日)午前8時30分ころ,東温市牛渕店舗駐車場内,迷彩柄短パン、灰色サンダル着用、黄色のプラスチック製バッド所持)を目撃したもの。,東温市牛渕,東温市牛渕,0,purple,38.0,愛媛県,エヒメケン,EHIME KEN,38215.0,東温市,トウオンシ,TOON SHI,382150003000.0,牛渕,33.790706,132.848621
91,四国中央署管内,つきまとい,令和2年7月25日(土)午後5時ころ,四国中央市川之江町路上,黒色長ズボン、半キャップ型ヘルメット(縦に白黒の縞模様入り)着用、黒色ボディバッグ所持)に追い抜かれた後、速度を合わせる様に前方を走られたもの。その後、男は、路上に停車して女性を凝視したもの。,四国中央市川之江町,四国中央市川之江町,0,blue,38.0,愛媛県,エヒメケン,EHIME KEN,38213.0,四国中央市,シコクチュウオウシ,SHIKOKUCHUO SHI,382130008000.0,川之江町,34.014303999999996,133.57968200000002
92,愛南署管内,声かけ,令和2年7月22日(水)午後5時05分ころ,南宇和郡愛南町一本松路上,黒色長ズボン)に「どこまで帰るの。家はどこ。」などと声をかけられたもの。,南宇和郡愛南町一本松,南宇和郡愛南町一本松,0,green,38.0,愛媛県,エヒメケン,EHIME KEN,38506.0,南宇和郡愛南町,ミナミウワグンアイナンチョウ,MINAMIUWA GUN AINAN CHO,385060005000.0,一本松,32.961864,132.64876999999998
93,八幡浜署管内,不審者,令和2年7月19日(日)午後4時10分ころ,八幡浜市栗野浦共同住宅敷地内,黒色短パン、頭に黒色タオルを巻いている、黒色サングラス・黒色マスク着用、茶色の軽四自動車利用)を目撃したもの。以前にも同様の男を別の住民が共同住宅内で目撃している。,八幡浜市栗野浦共同,八幡浜市栗野浦共同,0,purple,,,,,,,,,,,,
94,松山東署管内,声かけ,令和2年7月17日(金)午後7時ころ,松山市大街道二丁目路上,青色ジーパン、サンダル履き、緑色リュックサック所持)に「喫茶店に行かない。」と声をかけられたもの。女性が断ると、男は付近の女性に対し、手当たり次第に声をかけていた。,松山市大街道二丁目,松山市大街道二丁目,0,green,38.0,愛媛県,エヒメケン,EHIME KEN,38201.0,松山市,マツヤマシ,MATSUYAMA SHI,382010052002.0,大街道二丁目,33.839723,132.770173
95,松山東署管内,のぞき・盗撮,令和2年7月17日(金)午前6時45分ころ,松山市三町一丁目アパート,白色Tシャツ、眼鏡・マスクなし)が立っており、家の中の様子を覗き見ていたもの。,松山市三町一丁目,松山市三町一丁目,0,pink,38.0,愛媛県,エヒメケン,EHIME KEN,38201.0,松山市,マツヤマシ,MATSUYAMA SHI,382010134001.0,三町一丁目,33.828109999999995,132.795003
96,四国中央署管内,不審者,令和2年7月16日(木)午後9時45分ころ,四国中央市金田町金川の橋上,赤色と青色のチェック柄長袖)がアンテナ付きのリモコン様のものを持ち、橋の欄干に指で何かを書いているのを散歩中の男性が目撃したもの。付近でラジコン等動いておらず不審であったもの。,四国中央市金田町金川の橋上,四国中央市金田町金川の橋上,0,purple,,,,,,,,,,,,
97,松山東署管内,声かけ,令和2年7月16日(木)午後3時30分ころ,松山市空港通二丁目付近路上,女児小学生が歩いていたところ、後方から近づいてきた車(白色)に乗った男(40〜50歳位、中肉、黒色短髪、眼鏡・マスク着用)に「何年生。」と声をかけられたもの。,松山市空港通二丁目,松山市空港通二丁目,0,green,38.0,愛媛県,エヒメケン,EHIME KEN,38201.0,松山市,マツヤマシ,MATSUYAMA SHI,382010106002.0,空港通二丁目,33.828423,132.742354
98,西条西署管内,声かけ,令和2年7月15日(水)午後6時10分ころ,西条市三津屋南路上,長ズボン、キャップ帽・眼鏡着用、リュックサック所持)に「どこに行くのですか。」「高校生ですか。」「一緒に遊びませんか。」などと声をかけられたもの。,西条市三津屋南,西条市三津屋南,0,green,38.0,愛媛県,エヒメケン,EHIME KEN,38206.0,西条市,サイジョウシ,SAIJO SHI,382060151000.0,三津屋南,33.9311,133.089322
99,松山東署管内,つきまとい,令和2年7月15日(水)午前8時50分ころ,松山市新石手路上から同市石手白石路上までの間,茶色のハーフパンツ(チノパン様)、ベージュ色キャップ帽・眼鏡・白色と黒色のサンダル・白色マスク着用)につきまとわれたもの。,松山市新石手,松山市新石手,1,blue,38.0,愛媛県,エヒメケン,EHIME KEN,38201.0,松山市,マツヤマシ,MATSUYAMA SHI,382010151000.0,新石手,33.845483,132.799744
100,松山東署管内,声かけ,令和2年7月14日(火)午後1時ころ,松山市湊町五丁目路上,半ズボン、黒縁眼鏡着用、紺色エナメルバッグ所持)に「何で学校早く終わったの。」「一緒に行こう。」等と声をかけられ、同じ電車に乗られたもの。,松山市湊町五丁目,松山市湊町五丁目,0,green,38.0,愛媛県,エヒメケン,EHIME KEN,38201.0,松山市,マツヤマシ,MATSUYAMA SHI,382010310005.0,湊町五丁目,33.835933000000004,132.762679
101,四国中央署管内,つきまとい,令和2年7月10日(金)午後6時30分ころ,四国中央市三島宮川四丁目路上,女性が散歩中、移動の先々に車(後部のスペアタイヤカバーが白地に黒字で「4駆」と記載)に乗った男(65歳位、白色短髪、白色様の上衣)が現れ、つきまとわれたもの。,四国中央市三島宮川四丁目,四国中央市三島宮川四丁目,0,blue,38.0,愛媛県,エヒメケン,EHIME KEN,38213.0,四国中央市,シコクチュウオウシ,SHIKOKUCHUO SHI,382130051004.0,三島宮川四丁目,33.981173999999996,133.549809
102,伊予署管内,声かけ,令和2年7月10日(金)午後4時30分ころ,伊予郡松前町大字西古泉路上,白色Tシャツ、口の周りに髭あり、黒色傘所持、灰色自転車利用)に、追い越しざまに暴言を吐かれたもの。,伊予郡松前町大字西古泉,伊予郡松前町大字西古泉,0,green,38.0,愛媛県,エヒメケン,EHIME KEN,38401.0,伊予郡松前町,イヨグンマサキチョウ,IYO GUN MASAKI CHO,384010015000.0,大字西古泉,33.794521,132.713929
103,松山東署管内,のぞき・盗撮,令和2年7月7日(火)午後9時05分ころ,松山市祇園町アパート,女性が在宅中、ベランダに侵入してきた大柄な男に網戸越しに室内をのぞき見られたもの。,松山市祇園町,松山市祇園町,0,pink,38.0,愛媛県,エヒメケン,EHIME KEN,38201.0,松山市,マツヤマシ,MATSUYAMA SHI,382010089000.0,祇園町,33.830628999999995,132.774078
104,松山東署管内,ちかん,令和2年7月6日(月)午後6時ころ,松山市岩崎町二丁目路上,ジーパン)に追い越しざま身体を触られたもの。,松山市岩崎町二丁目,松山市岩崎町二丁目,0,gray,38.0,愛媛県,エヒメケン,EHIME KEN,38201.0,松山市,マツヤマシ,MATSUYAMA SHI,382010037002.0,岩崎町二丁目,33.846113,132.784088
105,四国中央署管内,身体露出,令和2年7月6日(月)午後1時50分ころ,四国中央市中之庄町施設駐車場,ミニスカート)が箱バンタイプの普通車に乗って現れ、降車後、女性が見える位置で下半身を触っていたもの。,四国中央市中之庄町,四国中央市中之庄町,0,orange,38.0,愛媛県,エヒメケン,EHIME KEN,38213.0,四国中央市,シコクチュウオウシ,SHIKOKUCHUO SHI,382130046000.0,中之庄町,33.963258,133.536488
106,西条西署管内,声かけ,令和2年7月4日(土)午前10時30分ころ,西条市小松町北川路上,ハーフパンツ(膝丈)、サンダル着用)に道を尋ねられ、付近に駐車中の車(白色、ワンボックスカー型)の傍まで誘われた。すると、男は自身のズボンに手を入れながら「歳はいくつ。」「学生なの。」と被害者に声をかけてきたことから、被害者はその場から逃げ出したもの。,西条市小松町北川,西条市小松町北川,0,green,38.0,愛媛県,エヒメケン,EHIME KEN,38206.0,西条市,サイジョウシ,SAIJO SHI,382060035000.0,小松町北川,33.900683,133.090509
107,松山南署管内,つきまとい,令和2年7月3日(金)午後5時30分ころ,松山市南高井町路上,女子高校生が自転車で移動中、信号待ちで停車したところ、隣に停車した男(40歳位、中肉、上下紫色合羽、ジェット型ヘルメット(シールドなし)着用、眼鏡・マスクなし、顎ひげあり、黒色様のオートバイ利用)に顔を覗き込むように見られ、付近を何度も走行されたもの。,松山市南高井町,松山市南高井町,1,blue,38.0,愛媛県,エヒメケン,EHIME KEN,38201.0,松山市,マツヤマシ,MATSUYAMA SHI,382010317000.0,南高井町,33.788893,132.81303400000002
108,松山東署管内,つきまとい,令和2年7月3日(金)午後4時30分ころ,松山市祝谷三丁目路上,男児小学生が歩いていたところ、道端に立った男(40〜50歳位、中肉、黒色短髪、上下黒色の服、黒色サングラス、黒色マスク着用、背中が曲がっている)の前を通り過ぎると、小走りで後をつけられたもの。,松山市祝谷三丁目,松山市祝谷三丁目,0,blue,38.0,愛媛県,エヒメケン,EHIME KEN,38201.0,松山市,マツヤマシ,MATSUYAMA SHI,382010033003.0,祝谷三丁目,33.855494,132.77583700000002
109,松山南署管内,声かけ,令和2年7月3日(金)午後3時ころ,松山市今在家二丁目路上,男児小学生が歩いていたところ、男(60〜70歳位、中肉、身長170〜180センチ位、上下白色合羽、眼鏡着用、白色の犬を散歩させている)に「名前なんて言うの。」と声をかけられ、名札を見られたもの。,松山市今在家二丁目,松山市今在家二丁目,0,green,38.0,愛媛県,エヒメケン,EHIME KEN,38201.0,松山市,マツヤマシ,MATSUYAMA SHI,382010031002.0,今在家二丁目,33.806922,132.791754
110,松山西署管内,声かけ,令和2年7月2日(木)午後5時ころ,松山市高岡町アパート敷地内,黒色様の服、オートバイ(青色と黒色、スクータータイプ)利用)にスマートフォンの画面を見せられ、「この女知っているか。」などと声をかけられたもの。,松山市高岡町,松山市高岡町,0,green,38.0,愛媛県,エヒメケン,EHIME KEN,38201.0,松山市,マツヤマシ,MATSUYAMA SHI,382010165000.0,高岡町,33.830861999999996,132.720361
111,四国中央署管内,つきまとい,令和2年7月2日(木)午後0時ころ,四国中央市三島中央四丁目路上,黒色長ズボン、黒色セカンドバッグ所持)にスマートフォンで容姿を撮影されたもの。その後、男性は女に後をつけられ、再度、容姿を撮影された。,四国中央市三島中央四丁目,四国中央市三島中央四丁目,0,blue,38.0,愛媛県,エヒメケン,EHIME KEN,38213.0,四国中央市,シコクチュウオウシ,SHIKOKUCHUO SHI,382130050004.0,三島中央四丁目,33.98072,133.540573
112,今治署管内,写真撮影,令和2年7月2日(木)午前7時20分ころ,今治市大西町新町路上,男子中学生が自転車で移動中、正面から歩いてきた男(40〜50歳位、身長170センチ位、短髪、灰色作業着、黒色カメラを首にかけている)にすれ違いざまにカメラで容姿を撮影されたもの。,今治市大西町新町,今治市大西町新町,0,lightred,38.0,愛媛県,エヒメケン,EHIME KEN,38202.0,今治市,イマバリシ,IMABARI SHI,382020024000.0,大西町新町,34.065189000000004,132.93073
113,今治署管内,建造物侵入,令和2年7月1日(水)午後5時ころ,今治市蔵敷町一丁目施設内,ズボン、青色キャップ帽着用、額中央にホクロ)が無断で立ち入り、無言で両手を上げて女子中学生らを驚かそうとする仕草をしたもの。その後は男は立ち去った。,今治市蔵敷町一丁目,今治市蔵敷町一丁目,0,darkred,38.0,愛媛県,エヒメケン,EHIME KEN,38202.0,今治市,イマバリシ,IMABARI SHI,382020076001.0,蔵敷町一丁目,34.058469,132.99973899999998
114,四国中央署管内,つきまとい,令和2年7月1日(水)午後4時15分ころ,四国中央市三島中央三丁目路上,女子高校生が歩行中、バイク(スクーター型、第一種原付)に乗った男(50歳位、上下紺色様の服、黒色ヘルメット、マスク着用)に並走されたり、停車して様子を窺われたりしたもの。女子高校生が男の容姿を撮影しようとしたところ、男は走り去った。,四国中央市三島中央三丁目,四国中央市三島中央三丁目,0,blue,38.0,愛媛県,エヒメケン,EHIME KEN,38213.0,四国中央市,シコクチュウオウシ,SHIKOKUCHUO SHI,382130050003.0,三島中央三丁目,33.981476,133.542925
115,四国中央署管内,声かけ,令和2年6月29日(月)午後5時20分ころ,四国中央市内走行中の電車内,女子中学生が電車内で座席に座って友人と談笑していたところ、男(40〜50歳位、中肉、身長165センチ位、黒色短髪、上下黒色様の服、黒縁眼鏡着用、黒色リュック所持、自転車利用)に近づかれ、「肩当たりましたか。」と声をかけられたもの。男は、下車後、自転車で立ち去った。,四国中央市内走行中の電車内,四国中央市内走行中の電車内,0,green,,,,,,,,,,,,
116,松山西署管内,声かけ,令和2年6月29日(月)午後5時ころ,松山市石風呂町路上,灰色短パン、黒色靴、黒色帽子(キャラクターの絵柄入り))に「名前なんぞ、学校どこぞ。」などと怒鳴られ、暴言を吐かれたもの。,松山市石風呂町,松山市石風呂町,0,green,38.0,愛媛県,エヒメケン,EHIME KEN,38201.0,松山市,マツヤマシ,MATSUYAMA SHI,382010020000.0,石風呂町,33.875987,132.717067
117,松山東署管内,つきまとい,令和2年6月29日(月)午後4時20分ころ,松山市道後喜多町から同市祝谷二丁目までの路上,白色Tシャツ、黒色マスク着用)に後をつきまとわれたもの。女子中学生が男に追い抜かれた際、男のスマートフォンを見るとカメラ機能が起動していた。,松山市道後喜多町から同市祝谷二丁目までの,松山市道後喜多町から同市祝谷二丁目まで,0,blue,,,,,,,,,,,,
118,伊予署管内,声かけ,令和2年6月29日(月)午後4時ころ,伊予郡松前町大字鶴吉路上,短パン、帽子なし)に「よう。」と軽く声をかけられ、無視すると、土の塊のような物を持って近づいてこられたもの。,伊予郡松前町大字鶴吉,伊予郡松前町大字鶴吉,0,green,38.0,愛媛県,エヒメケン,EHIME KEN,38401.0,伊予郡松前町,イヨグンマサキチョウ,IYO GUN MASAKI CHO,384010011000.0,大字鶴吉,33.782538,132.73879499999998
119,伊予署管内,身体露出,令和2年6月29日(月)午前8時15分ころ,伊予市稲荷甲一般住宅敷地内,黒色ズボン、黒色キャップ帽着用)を近隣住民が目撃したもの。,伊予市稲荷甲,伊予市稲荷,0,orange,38.0,愛媛県,エヒメケン,EHIME KEN,38210.0,伊予市,イヨシ,IYO SHI,382100002000.0,稲荷,33.741984,132.716554
120,松山南署管内,声かけ,令和2年6月28日(日)午後2時ころ,東温市牛渕公園内,黒色か灰色ズボン、黒色キャップ帽着用、財布所持)に「2千円あげるから、ジュース買ってきなさい。」等と声をかけられたもの。,東温市牛渕,東温市牛渕,1,green,38.0,愛媛県,エヒメケン,EHIME KEN,38215.0,東温市,トウオンシ,TOON SHI,382150003000.0,牛渕,33.790706,132.848621
121,西条署管内,のぞき・盗撮,令和2年6月27日(土)午後9時ころ,西条市新田字北新田店舗内,黒色長ズボン)に背後から下半身付近を撮影されたもの。,西条市新田字北新田,西条市新田,0,pink,38.0,愛媛県,エヒメケン,EHIME KEN,38206.0,西条市,サイジョウシ,SAIJO SHI,382060048000.0,新田,33.928917999999996,133.195214
122,今治署管内,つきまとい,令和2年6月26日(金)午後6時ころ,今治市東村一丁目店舗敷地内,女児小学生が母親と買い物中、女児小学生の後をつきまとう男(30〜40歳位、小肥、身長160センチ位、黒色短髪、上下灰色作業着、黒色リュックサック所持)の姿を母親が目撃したもの。母親が男をにらみつけたところ、男は立ち去った。,今治市東村一丁目,今治市東村一丁目,0,blue,38.0,愛媛県,エヒメケン,EHIME KEN,38202.0,今治市,イマバリシ,IMABARI SHI,382020175001.0,東村一丁目,34.043233,133.028504
123,新居浜署管内,つきまとい,令和2年6月25日(木)午後4時30分ころ,新居浜市庄内町四丁目路上,青色ジャージ)に後方をつきまとわれたもの。6月11日には、同じ男に「お嬢ちゃん。」と声をかけられている。,新居浜市庄内町四丁目,新居浜市庄内町四丁目,0,blue,38.0,愛媛県,エヒメケン,EHIME KEN,38205.0,新居浜市,ニイハマシ,NIIHAMA SHI,382050046004.0,庄内町四丁目,33.952338,133.28902
124,四国中央署管内,写真撮影,令和2年6月25日(木)午後4時15分ころ,四国中央市土居町野田乙路上,男児小学生3人が歩いていたところ、銀色の普通乗用自動車に乗った何者かにスマートフォンを向けられたもの。,四国中央市土居町野田乙,四国中央市土居町野田,0,lightred,38.0,愛媛県,エヒメケン,EHIME KEN,38213.0,四国中央市,シコクチュウオウシ,SHIKOKUCHUO SHI,382130034000.0,土居町野田,33.963837,133.464495
125,松山南署管内,写真撮影,令和2年6月25日(木)午後2時50分ころ,松山市平井町児童施設路上,若い、上下灰色ジャージ、茶髪、黒色マスク着用、黒色ショルダーバッグ・カメラ所持)を付近にいた保護者が目撃したもの。,松山市平井町,松山市平井町,0,lightred,38.0,愛媛県,エヒメケン,EHIME KEN,38201.0,松山市,マツヤマシ,MATSUYAMA SHI,382010260000.0,平井町,33.824694,132.83615600000002
126,松山東署管内,声かけ,令和2年6月25日(木)午後1時15分ころ,松山市余戸中六丁目路上,女性が徒歩で帰宅中、徒歩で近づいてきた男(30歳位、やせ型、身長160センチ位、上下黒色様の服、色黒、細めの顔、アゴが尖っている、野球帽着用、眼鏡なし)に下品な言葉をかけられたもの。,松山市余戸中六丁目,松山市余戸中六丁目,1,green,38.0,愛媛県,エヒメケン,EHIME KEN,38201.0,松山市,マツヤマシ,MATSUYAMA SHI,382010351006.0,余戸中六丁目,33.81758,132.73367199999998
127,伊予署管内,のぞき・盗撮,令和2年6月23日(火)午後9時20分ころ,伊予郡松前町大字神崎一般住宅,住民が庭先に出たところ、浴室の高窓付近に立っている男(30〜50歳位、中肉、身長170センチ位、上下黒色の服、靴着用)を発見したもの。住民に気が付いた男は走って逃走した。,伊予郡松前町大字神崎,伊予郡松前町大字神崎,0,pink,38.0,愛媛県,エヒメケン,EHIME KEN,38401.0,伊予郡松前町,イヨグンマサキチョウ,IYO GUN MASAKI CHO,384010004000.0,大字神崎,33.789132,132.74111399999998
128,松山南署管内,写真撮影,令和2年6月23日(火)午後4時30分ころ,松山市平井町施設内,ベージュ色ハーフパンツ、サングラス、黒色マスク着用、黒色又は灰色肩掛けカバン)を目撃したもの。その後、同じ男が施設付近にいるのを保護者が見つけたところ、男は走り去った。,松山市平井町,松山市平井町,1,lightred,38.0,愛媛県,エヒメケン,EHIME KEN,38201.0,松山市,マツヤマシ,MATSUYAMA SHI,382010260000.0,平井町,33.824694,132.83615600000002
129,松山南署管内,写真撮影,令和2年6月19日(金)午後5時50分ころ,松山市水泥町路上,黒色ズボン、黒縁眼鏡着用、黒色リュックサック(多数のキーホルダー付)・スマートフォン所持)にすれ違いざまスマートフォンを向けられたもの。その際、女子中学生が男のスマートフォンを見たところカメラ機能が起動していた。,松山市水泥町,松山市水泥町,0,lightred,38.0,愛媛県,エヒメケン,EHIME KEN,38201.0,松山市,マツヤマシ,MATSUYAMA SHI,382010308000.0,水泥町,33.803309999999996,132.826475
130,新居浜署管内,不審者,令和2年6月19日(金)午後5時30分ころ,新居浜市新須賀町一丁目駐輪場,黒色様の上着、眼鏡着用、ペン・メモ帳所持、髭なし)が女子中学生の方を見ながらメモをしていたもの。,新居浜市新須賀町一丁目,新居浜市新須賀町一丁目,0,purple,38.0,愛媛県,エヒメケン,EHIME KEN,38205.0,新居浜市,ニイハマシ,NIIHAMA SHI,382050048001.0,新須賀町一丁目,33.965438,133.287243
131,松山西署管内,声かけ,令和2年6月19日(金)午後2時ころ,松山市勝岡町路上,男児小学生が自転車で走行中、停車中の銀色軽四自動車に乗っていた男(40〜50歳位、やせ型、白髪混じり、黒色ニット帽様着用、眼鏡なし)に「こっち来て。」等と声をかけられたもの。数分後、男が乗る車の近くを通るも声はかけられなかった。,松山市勝岡町,松山市勝岡町,0,green,38.0,愛媛県,エヒメケン,EHIME KEN,38201.0,松山市,マツヤマシ,MATSUYAMA SHI,382010072000.0,勝岡町,33.900906,132.72248100000002
132,新居浜署管内,声かけ,令和2年6月19日(金)午前7時30分ころ,新居浜市一宮町一丁目路上,白色様ハーフパンツ、スマートフォン(自撮り棒付)・傘所持、眼鏡・マスクなし)が自撮り棒のついたスマートフォンを女児の足元付近に近づけていたことから、女児は「急いでますから。」と断り、立ち去った。,新居浜市一宮町一丁目,新居浜市一宮町一丁目,0,green,38.0,愛媛県,エヒメケン,EHIME KEN,38205.0,新居浜市,ニイハマシ,NIIHAMA SHI,382050006001.0,一宮町一丁目,33.959889000000004,133.282427
133,新居浜署管内,住居侵入,令和2年6月17日(水)午後10時15分ころ,新居浜市中萩町一般住宅,長ズボン、眼鏡・マスクなし)と鉢合わせしたもの。6月15日にものぞきの被害にあっている。,新居浜市中萩町,新居浜市中萩町,0,darkred,38.0,愛媛県,エヒメケン,EHIME KEN,38205.0,新居浜市,ニイハマシ,NIIHAMA SHI,382050073000.0,中萩町,33.928934000000005,133.28266100000002
134,四国中央署管内,写真撮影,令和2年6月17日(水)午後5時50分ころ,四国中央市具定町路上,保育園児が小学生2人と自宅庭先で遊んでいたところ、敷地に接する道を歩いていた男(上下黒色ジャージ、黒色帽子着用)に携帯電話機を向けられたもの。その後、男は車(灰色)に乗って走り去った。,四国中央市具定町,四国中央市具定町,0,lightred,38.0,愛媛県,エヒメケン,EHIME KEN,38213.0,四国中央市,シコクチュウオウシ,SHIKOKUCHUO SHI,382130015000.0,具定町,33.96085,133.52972
135,松山南署管内,暴行,令和2年6月17日(水)午前9時40分ころ,松山市東石井二丁目路上,女子中学生が歩いていたところ、向かいから歩いてきた男(50〜60歳位、中肉、短髪、眼鏡なし)が急に近づいてきて、すれ違いざまに肩をぶつけてきたもの。,松山市東石井二丁目,松山市東石井二丁目,0,red,38.0,愛媛県,エヒメケン,EHIME KEN,38201.0,松山市,マツヤマシ,MATSUYAMA SHI,382010248002.0,東石井二丁目,33.816515,132.77981200000002
136,松山西署管内,つきまとい,令和2年6月17日(水)午前7時10分ころ,松山市堀江町甲路上,黒色ジャージ、灰色ハット帽、白色マスク、黒色手袋着用)に後方をつきまとわれたもの。,松山市堀江町甲,松山市堀江町,0,blue,38.0,愛媛県,エヒメケン,EHIME KEN,38201.0,松山市,マツヤマシ,MATSUYAMA SHI,382010288000.0,堀江町,33.908885,132.75913799999998
137,新居浜署管内,つきまとい,令和2年6月17日(水)午前7時ころ,新居浜市萩生路上,薄茶色長ズボン、眼鏡なし)に後をつけられたもの。児童らは、6月12日にも後をつけられている。,新居浜市萩生,新居浜市萩生,1,blue,38.0,愛媛県,エヒメケン,EHIME KEN,38205.0,新居浜市,ニイハマシ,NIIHAMA SHI,382050083000.0,萩生,33.911838,133.268311
138,松山南署管内,つきまとい,令和2年6月16日(火)午後6時20分ころ,松山市枝松六丁目路上から同市福音寺町路上までの間,黒色様半ズボン、白色マスク着用、灰色チワワ様の小型犬を連れている)がおり、女子中学生が走ると、男も後方を走って追いかけてきたもの。,松山市枝松六丁目,松山市枝松六丁目,0,blue,38.0,愛媛県,エヒメケン,EHIME KEN,38201.0,松山市,マツヤマシ,MATSUYAMA SHI,382010048006.0,枝松六丁目,33.825415,132.784859
139,松山西署管内,不審者,令和2年6月16日(火)午後4時50分ころ,松山市北斎院町公園内,ズボン、帽子・眼鏡なし)が下半身を触りながらスマートフォン(オレンジ色又は赤色カバー付き)を向けてきたもの。,松山市北斎院町,松山市北斎院町,2,purple,38.0,愛媛県,エヒメケン,EHIME KEN,38201.0,松山市,マツヤマシ,MATSUYAMA SHI,382010095000.0,北斎院町,33.839402,132.723636
140,松山東署管内,不審者,令和2年6月16日(火)午後4時20分ころ,松山市下伊台町路上,白色襟付きシャツ、色白、眼鏡・マスクなし)に無言で手招きされたもの。,松山市下伊台町,松山市下伊台町,0,purple,38.0,愛媛県,エヒメケン,EHIME KEN,38201.0,松山市,マツヤマシ,MATSUYAMA SHI,382010140000.0,下伊台町,33.873539,132.799896
141,愛南署管内,声かけ,令和2年6月13日(土)午後5時ころ,南宇和郡愛南町平碆路上,女性が散策中、男(30〜40歳位、中肉、身長160センチ位、黒色短髪)から「すみません。」と声をかけられたが無視したところ、腕を引っ張られたもの。,南宇和郡愛南町平碆,南宇和郡愛南町平碆,0,green,38.0,愛媛県,エヒメケン,EHIME KEN,38506.0,南宇和郡愛南町,ミナミウワグンアイナンチョウ,MINAMIUWA GUN AINAN CHO,385060040000.0,平碆,33.046378000000004,132.473554
142,伊予署管内,写真撮影,令和2年6月12日(金)午後6時30分ころ,伊予市上野路上,緑色様ジャンパー様)からスマートフォン(茶色カバー付き)を向けられたもの。同車両は、その前日にも付近で停車しているのを目撃されている。,伊予市上野,伊予市上野,0,lightred,38.0,愛媛県,エヒメケン,EHIME KEN,38210.0,伊予市,イヨシ,IYO SHI,382100003000.0,上野,33.772114,132.748155
143,四国中央署管内,写真撮影,令和2年6月12日(金)午後6時30分ころ,四国中央市川之江町路上,黒色長ズボン)に黒色スマートフォンを向けられたもの。,四国中央市川之江町,四国中央市川之江町,1,lightred,38.0,愛媛県,エヒメケン,EHIME KEN,38213.0,四国中央市,シコクチュウオウシ,SHIKOKUCHUO SHI,382130008000.0,川之江町,34.014303999999996,133.57968200000002
144,新居浜署管内,つきまとい,令和2年6月12日(金)午後6時25分ころ,新居浜市神郷二丁目から同市垣生一丁目までの路上,黒色ジャージ、白色マスク着用)に自転車(銀色、軽快兼用車)で後をつきまとわれたもの。,新居浜市神郷二丁目から同市垣生一丁目までの,新居浜市神郷二丁目から同市垣生一丁目まで,0,blue,,,,,,,,,,,,
145,松山東署管内,身体露出,令和2年6月12日(金)午後0時30分ころ,松山市朝美一丁目路上,ジーパン)が下半身を露出していたもの。,松山市朝美一丁目,松山市朝美一丁目,0,orange,38.0,愛媛県,エヒメケン,EHIME KEN,38201.0,松山市,マツヤマシ,MATSUYAMA SHI,382010010001.0,朝美一丁目,33.843604,132.74538700000002
146,四国中央署管内,声かけ,令和2年6月11日(木)午後9時30分ころ,四国中央市三島中央三丁目路上,女子高校生2人が歩いていたところ、飲食店の店先にいた3人組の1人(男、20歳位、中肉、身長165センチ位、黒髪(髪が伸びて毛先が金色)、上下黒色ジャージ(金色ライン入り)、タバコ所持)から、「女子高生か。」「キャバクラどこにある。」と声をかけられたもの。,四国中央市三島中央三丁目,四国中央市三島中央三丁目,1,green,38.0,愛媛県,エヒメケン,EHIME KEN,38213.0,四国中央市,シコクチュウオウシ,SHIKOKUCHUO SHI,382130050003.0,三島中央三丁目,33.981476,133.542925
147,松山東署管内,声かけ,令和2年6月11日(木)午前7時10分ころ,松山市衣山四丁目の施設,濃いベージュ色パンツ、赤色スニーカー、コンビニ袋所持)を目撃したもの。,松山市衣山四丁目の,松山市衣山四丁目,0,green,38.0,愛媛県,エヒメケン,EHIME KEN,38201.0,松山市,マツヤマシ,MATSUYAMA SHI,382010101004.0,衣山四丁目,33.852359,132.736372
148,伊予署管内,写真撮影,令和2年6月10日(水)午後2時15分ころ,伊予市中村路上,女児小学生が友人と歩いていたところ、男(30〜40歳位、帽子着用)にスマートフォンを向けられたもの。,伊予市中村,伊予市中村,0,lightred,38.0,愛媛県,エヒメケン,EHIME KEN,38210.0,伊予市,イヨシ,IYO SHI,382100014000.0,中村,33.737128000000006,132.69213
149,松山南署管内,ちかん,令和2年6月8日(月)午後1時ころ,松山市朝生田町二丁目の路上,女性が自転車で帰宅中、後方から自転車(黄色、スポーツタイプ)に乗って近づいてきた男(50〜70歳位、身長170〜180センチ位、上下自転車用ウェア、自転車用ヘルメット、サングラス、マスク着用)に追い越しざま身体を触られたもの。,松山市朝生田町二丁目の,松山市朝生田町二丁目,0,gray,38.0,愛媛県,エヒメケン,EHIME KEN,38201.0,松山市,マツヤマシ,MATSUYAMA SHI,382010011002.0,朝生田町二丁目,33.823281,132.769552
150,伊予署管内,のぞき,令和2年6月7日(日)午後9時15分ころ,伊予郡松前町大字西古泉の一般住宅,女性が入浴中、風呂場の窓にかけてある簾を何者かが掴んで動かそうとするのを目撃したもの。,伊予郡松前町大字西古泉の,伊予郡松前町大字西古泉,1,pink,38.0,愛媛県,エヒメケン,EHIME KEN,38401.0,伊予郡松前町,イヨグンマサキチョウ,IYO GUN MASAKI CHO,384010015000.0,大字西古泉,33.794521,132.713929
151,新居浜署管内,つきまとい,令和2年6月7日(日)午後5時20分ころ,新居浜市中萩町河川敷,紺色半ズボン、携帯電話機所持、眼鏡・髭なし)が近づいてきたもの。,新居浜市中萩町,新居浜市中萩町,1,blue,38.0,愛媛県,エヒメケン,EHIME KEN,38205.0,新居浜市,ニイハマシ,NIIHAMA SHI,382050073000.0,中萩町,33.928934000000005,133.28266100000002
152,西条署管内,身体露出,令和2年6月7日(日)午後0時10分ころ,西条市新田の店舗,ズボン、眼鏡あり)が支払いの際に下半身を露出しているのを目撃したもの。,西条市新田の,西条市新田,1,orange,38.0,愛媛県,エヒメケン,EHIME KEN,38206.0,西条市,サイジョウシ,SAIJO SHI,382060048000.0,新田,33.928917999999996,133.195214
153,松山東署管内,つきまとい,令和2年6月6日(土)午後5時ころ,松山市立花四丁目から朝生田町二丁目までの路上,灰色チノパン様長ズボン、縁が大きめの黒色サングラス、マスク、灰色キャップ帽着用)に追い抜かれた。その後、再び現れた男に後をつけられたもの。,松山市立花四丁目から朝生田町二丁目までの,松山市立花四丁目から朝生田町二丁目まで,0,blue,,,,,,,,,,,,
154,松山西署管内,不審者,令和2年6月6日(土)午後4時50分ころ,松山市高岡町の路上,水色長ズボン、白色半キャップヘルメット、白色マスク着用、黒色バッグ所持、眼鏡なし、自転車利用(黒色様、軽快兼用車、前後にかご付))を目撃したもの。,松山市高岡町の,松山市高岡町,1,purple,38.0,愛媛県,エヒメケン,EHIME KEN,38201.0,松山市,マツヤマシ,MATSUYAMA SHI,382010165000.0,高岡町,33.830861999999996,132.720361
155,松山西署管内,声かけ,令和2年6月5日(金)午前8時ころ,松山市北条辻の路上,女子高校生数人が歩いていたところ、男(60〜70歳位、身長170センチ位)に「目が綺麗やね。」等と声をかけられたもの。,松山市北条辻の,松山市北条辻,0,green,38.0,愛媛県,エヒメケン,EHIME KEN,38201.0,松山市,マツヤマシ,MATSUYAMA SHI,382010282000.0,北条辻,33.968379,132.777843
156,松山東署管内,不審者,令和2年6月4日(木)午前7時35分ころ,松山市祝谷六丁目路上,長ズボン、手提げバッグ所持)に進路を塞がれ、避けたところ、すぐ前に近づいてこられたもの。,松山市祝谷六丁目,松山市祝谷六丁目,0,purple,38.0,愛媛県,エヒメケン,EHIME KEN,38201.0,松山市,マツヤマシ,MATSUYAMA SHI,382010033006.0,祝谷六丁目,33.863326,132.774303
157,松山南署管内,不審者,令和2年6月4日(木)午前7時15分ころ,伊予郡砥部町高尾田路上,黒色無地短パン、マスク、黒縁眼鏡着用)にじっと見られ、その後、徘徊するのを目撃したもの。,伊予郡砥部町高尾田,伊予郡砥部町高尾田,1,purple,38.0,愛媛県,エヒメケン,EHIME KEN,38402.0,伊予郡砥部町,イヨグントベチョウ,IYO GUN TOBE CHO,384020020000.0,高尾田,33.779877,132.795277
158,松山東署管内,つきまとい,令和2年6月2日(火)午後4時55分ころ,松山市平和通二丁目路上,ジャージズボン、髭あり、マスク・眼鏡なし、爪を噛んでいた)に帰宅経路で遭遇し、つきまとわれたもの。,松山市平和通二丁目,松山市平和通二丁目,0,blue,38.0,愛媛県,エヒメケン,EHIME KEN,38201.0,松山市,マツヤマシ,MATSUYAMA SHI,382010279002.0,平和通二丁目,33.847649,132.770418
159,四国中央署管内,つきまとい,令和2年6月1日(月)午後10時30分ころ,四国中央市三島中央三丁目施設内,黒色ジャージ(黄色様ライン入り)、髭あり、黒縁眼鏡着用)と施設内で遭遇し、つきまとわれたもの。,四国中央市三島中央三丁目,四国中央市三島中央三丁目,2,blue,38.0,愛媛県,エヒメケン,EHIME KEN,38213.0,四国中央市,シコクチュウオウシ,SHIKOKUCHUO SHI,382130050003.0,三島中央三丁目,33.981476,133.542925
160,松山西署管内,つきまとい,令和2年6月1日(月)午後4時40分ころ,松山市梅津寺町乙から松山市新浜町までの間の路上,灰色ズボン、浅黒い肌、細長い目、ホームベース顔、白色マスク着用、眼鏡なし)につきまとわれたもの。,松山市梅津寺町乙から松山市新浜町までの間の,松山市梅津寺町乙から松山市新浜町までの間,0,blue,,,,,,,,,,,,
161,大洲署管内,声かけ,令和2年5月30日(土)午前8時10分ころ,大洲市若宮路上,オレンジ色ベスト、ベストの下に緑色の長袖の服、帽子・マスクなし、薄い水色の電動自転車利用)に呼び止められ、下品な言葉をかけられたもの。男の近くに自転車が停められていた。,大洲市若宮,大洲市若宮,0,green,38.0,愛媛県,エヒメケン,EHIME KEN,38207.0,大洲市,オオズシ,OZU SHI,382070082000.0,若宮,33.521514,132.549221
162,松山南署管内,声かけ,令和2年5月29日(金)午後4時45分ころ,松山市朝生田町六丁目の公園,緑色とベージュ色のアロハシャツ様、丸縁サングラス、黒色様キャップ帽着用、黒色様リュックサック、ナイロン袋)がタブレット端末を取り出し「一緒に写真を撮ろう。」と声をかけながら近づいてきたもの。,松山市朝生田町六丁目の,松山市朝生田町六丁目,0,green,38.0,愛媛県,エヒメケン,EHIME KEN,38201.0,松山市,マツヤマシ,MATSUYAMA SHI,382010011006.0,朝生田町六丁目,33.820479999999996,132.767167
163,四国中央署管内,写真撮影,令和2年5月29日(金)午後4時20分ころ,四国中央市金田町金川路上,黒色様の服、白色マスク着用、ベージュ色様カバー付きのスマートフォン所持、眼鏡なし)にスマートフォンを向けられたもの。男は付近に停めてあったトラック(白色、屋号等の表記なし)の助手席に乗って走り去った。,四国中央市金田町金川,四国中央市金田町金川,0,lightred,38.0,愛媛県,エヒメケン,EHIME KEN,38213.0,四国中央市,シコクチュウオウシ,SHIKOKUCHUO SHI,382130001000.0,金田町金川,33.977056,133.595496
164,新居浜署管内,声かけ,令和2年5月28日(木)午後5時55分ころ,新居浜市政枝町一丁目路上,紺色半袖Tシャツ、白色帽子、白色軍手、白色マスク着用、眼鏡なし)に後方をつきまとわれ、一旦被害者が停止し、振り返ったところ、男に「お嬢ちゃん。」と声をかけられたもの。,新居浜市政枝町一丁目,新居浜市政枝町一丁目,0,green,38.0,愛媛県,エヒメケン,EHIME KEN,38205.0,新居浜市,ニイハマシ,NIIHAMA SHI,382050094001.0,政枝町一丁目,33.947459,133.286506
165,四国中央署管内,不審者,令和2年5月27日(水)午後6時ころ,四国中央市妻鳥町の駐車場,灰色ズボン)が店舗駐車場にやって来たことから従業員が声をかけたところ、男は無言で従業員を凝視して立ち去ったもの。2週間ほど前から男が店舗の様子を窺いながら自転車で走っているのを目撃している。,四国中央市妻鳥町の,四国中央市妻鳥町,2,purple,38.0,愛媛県,エヒメケン,EHIME KEN,38213.0,四国中央市,シコクチュウオウシ,SHIKOKUCHUO SHI,382130053000.0,妻鳥町,33.991779,133.572307
166,松山東署管内,暴行,令和2年5月27日(水)午後5時ころ,松山市藤原二丁目路上,白色ズボン)に「がんばれよ。」「ちゃんと走れよ。」と声をかけられながら背中を押されたもの。男児小学生は押された拍子に転倒した。,松山市藤原二丁目,松山市藤原二丁目,0,red,38.0,愛媛県,エヒメケン,EHIME KEN,38201.0,松山市,マツヤマシ,MATSUYAMA SHI,382010267002.0,藤原二丁目,33.830372,132.758659
167,松山西署管内,つきまとい,令和2年5月27日(水)午前7時40分ころ,松山市石風呂町路上,灰色短パン、睨み付けるような目付き)に後をつけられたもの。,松山市石風呂町,松山市石風呂町,1,blue,38.0,愛媛県,エヒメケン,EHIME KEN,38201.0,松山市,マツヤマシ,MATSUYAMA SHI,382010020000.0,石風呂町,33.875987,132.717067
168,松山西署管内,つきまとい,令和2年5月26日(火)午後4時ころ,松山市和気町二丁目路上,ベージュ色のズボン、帽子・マスク無し)に間隔をあけて後をつけられたもの。,松山市和気町二丁目,松山市和気町二丁目,0,blue,38.0,愛媛県,エヒメケン,EHIME KEN,38201.0,松山市,マツヤマシ,MATSUYAMA SHI,382010362002.0,和気町二丁目,33.899122,132.734604
169,松山西署管内,不審者,令和2年5月26日(火)午前10時ころ,松山市西長戸町のアパート,女性が在宅中、浄化槽の点検業者を名乗る男が訪ねてきたため、インターホン越しに対応したところ、「会って話をしませんか、玄関に出てきてください。」等と面会を要求をされたもの。管理会社に確認するも、契約業者の訪問事実はなかった。,松山市西長戸町の,松山市西長戸町,0,purple,38.0,愛媛県,エヒメケン,EHIME KEN,38201.0,松山市,マツヤマシ,MATSUYAMA SHI,382010231000.0,西長戸町,33.867813,132.741949
170,四国中央署管内,不審者,令和2年5月26日(火)午前7時20分ころ,四国中央市下柏町路上,長ズボン、柴犬様の犬を連れている)に近づかれ、制服の襟を軽く引っ張られたもの。,四国中央市下柏町,四国中央市下柏町,0,purple,38.0,愛媛県,エヒメケン,EHIME KEN,38213.0,四国中央市,シコクチュウオウシ,SHIKOKUCHUO SHI,382130018000.0,下柏町,33.98585,133.566343
171,松山南署管内,つきまとい,令和2年5月25日(月)午後5時ころ,松山市市坪北一丁目路上,灰色迷彩柄七分丈ズボン、灰色マスク着用、眼鏡無し)を歩いて追い越したところ、男に追い抜かれた後、停車して様子を窺われたもの。女子高校生が不審に思い、男に携帯電話機を向けたところ、男は立ち去った。,松山市市坪北一丁目,松山市市坪北一丁目,0,blue,38.0,愛媛県,エヒメケン,EHIME KEN,38201.0,松山市,マツヤマシ,MATSUYAMA SHI,382010023001.0,市坪北一丁目,33.81357,132.753668
172,四国中央署管内,不審者,令和2年5月25日(月)午前7時20分ころ,四国中央市下柏町路上,長ズボン、白色様の犬を連れている)に後方をつきまとわれ、信号待ちで立ち止まったところで近づかれ、制服の襟部分を触られたうえ、左肩をポンポンと叩かれたもの。,四国中央市下柏町,四国中央市下柏町,1,purple,38.0,愛媛県,エヒメケン,EHIME KEN,38213.0,四国中央市,シコクチュウオウシ,SHIKOKUCHUO SHI,382130018000.0,下柏町,33.98585,133.566343
173,今治署管内,声かけ,令和2年5月23日(土)午後4時30分ころ,今治市宮ヶ崎甲路上,女児中学生がランニング中、銀色の軽四乗用車で近づいてきた男(60歳位、小肥、身長低め、スキンヘッド、眼鏡着用)に「頑張ってるね、これでお茶か何か買ってね。」と言って千円札1枚を渡されたもの。別の日にも同様に声かけされている。,今治市宮ヶ崎甲,今治市宮ヶ崎,0,green,38.0,愛媛県,エヒメケン,EHIME KEN,38202.0,今治市,イマバリシ,IMABARI SHI,382020194000.0,宮ヶ崎,34.014382,133.011501
174,松山東署管内,つきまとい,令和2年5月23日(土)午前3時35分ころ,松山市土居田町路上,灰色ジャージズボン)に執拗に車で後をつきまとわれたもの。,松山市土居田町,松山市土居田町,2,blue,38.0,愛媛県,エヒメケン,EHIME KEN,38201.0,松山市,マツヤマシ,MATSUYAMA SHI,382010195000.0,土居田町,33.823276,132.746488
175,新居浜署管内,声かけ,令和2年5月22日(金)午後5時ころ,新居浜市宮西町路上,黒色様長ズボン、黒色長めのボサボサ髪、口元に青髭、眼鏡・マスク無し、茶色手帳型ケースのスマートフォン、茶色ショルダーバック所持、前かご付軽快兼用自転車利用)に「コンビニのある道を教えて下さい。」「友達になってください。」と声をかけられたもの。,新居浜市宮西町,新居浜市宮西町,0,green,38.0,愛媛県,エヒメケン,EHIME KEN,38205.0,新居浜市,ニイハマシ,NIIHAMA SHI,382050102000.0,宮西町,33.960891,133.276819
176,新居浜署管内,声かけ,令和2年5月22日(金)午後4時50分ころ,新居浜市清水町路上,女性が道を歩いていたところ、後方から男(30〜40歳位、小肥、マッシュルームカット様の黒髪、マスク着用、眼鏡無し、自転車利用(水色、軽快兼用車、前かご付き))に「お嬢さん。」と声をかけられたもの。5月26日午後5時ころにも自転車で帰宅していたところ、新居浜市庄内町で、同じ様な男につきまとわれ、「お嬢さん。」と声をかけられた。,新居浜市清水町,新居浜市清水町,0,green,38.0,愛媛県,エヒメケン,EHIME KEN,38205.0,新居浜市,ニイハマシ,NIIHAMA SHI,382050044000.0,清水町,33.978401,133.29124299999998
177,松山南署管内,不審者,令和2年5月22日(金)午前10時30分ころ,松山市朝生田路上,黒色ジャージ、マスク・白色手袋着用)が施設のドアをガチャガチャとし始めたため、職員が声をかけたところ、男は「何もないが。」と怒鳴り、徒歩で立ち去ったもの。,松山市朝生田,松山市朝生田,0,purple,,,,,,,,,,,,
178,松山東署管内,つきまとい,令和2年5月21日(木)午後9時10分ころ,松山市堀之内から松山市二番町三丁目までの路上,黒色長ズボン、細長たれ目、色白)に「一緒に帰ろう。」等声をかけられ、後方をつきまとわれた後に、腕を3回掴まれたもの。,松山市堀之内から松山市二番町三丁目までの,松山市堀之内から松山市二番町三丁目まで,0,blue,,,,,,,,,,,,
179,四国中央署管内,写真撮影,令和2年5月20日(水)午後3時45分ころ,四国中央市中之庄町の児童施設,不明、黒色短髪、メガネ着用、銀色セダン型自動車利用)が、児童施設にカメラを向けているのを、その場に居合わせた保護者が目撃したもの。,四国中央市中之庄町の,四国中央市中之庄町,1,lightred,38.0,愛媛県,エヒメケン,EHIME KEN,38213.0,四国中央市,シコクチュウオウシ,SHIKOKUCHUO SHI,382130046000.0,中之庄町,33.963258,133.536488
180,松山東署管内,ちかん,令和2年5月20日(水)午後0時ころ,松山市室町一丁目の緑地,ジーンズ、キャップ帽子、眼鏡着用、ガラケー所持、自転車利用)に進路に立ちふさがられ「どうやったらスカートってずれ落ちんようにしている。」などと声をかけられながらスカートを捲られたもの。,松山市室町一丁目の,松山市室町一丁目,0,gray,38.0,愛媛県,エヒメケン,EHIME KEN,38201.0,松山市,マツヤマシ,MATSUYAMA SHI,382010332001.0,室町一丁目,33.828795,132.765308
181,松山南署管内,つきまとい,令和2年5月20日(水)午前8時ころ,松山市古川南三丁目から伊予郡松前町大字恵久美までの路上,ベージュ色七分丈ズボン、短髪、黒色キャップ帽子、白色マスク着用、赤色リュックサック所持、軽快兼用自転車利用)に追い抜かれたり、待ち伏せされたりして、つきまとわれたもの。,松山市古川南三丁目から伊予郡松前町大字恵久美までの,松山市古川南三丁目から伊予郡松前町大字恵久美まで,0,blue,,,,,,,,,,,,
182,西条西署管内,声かけ,令和2年5月19日(火)午後0時50分ころ,西条市三津屋の駐輪場,黒色ジャージ様長ズボン、白色マスク着用)に身体を見られながら、下品な言葉を言われ、腕を掴まれたもの。,西条市三津屋の,西条市三津屋,1,green,38.0,愛媛県,エヒメケン,EHIME KEN,38206.0,西条市,サイジョウシ,SAIJO SHI,382060149000.0,三津屋,33.934752,133.086945
183,四国中央署管内,声かけ,令和2年5月18日(月)午後3時ころ,四国中央市中曽根町路上,女児小学生が友人1人と歩行中、茶色の軽四乗用自動車に乗った男(30〜40歳位、中肉、眼鏡着用)に窓越しに「乗って帰る?」と声をかけられたもの。女児小学生が「大丈夫です。」と断ると行為者は走り去った。,四国中央市中曽根町,四国中央市中曽根町,0,green,38.0,愛媛県,エヒメケン,EHIME KEN,38213.0,四国中央市,シコクチュウオウシ,SHIKOKUCHUO SHI,382130045000.0,中曽根町,33.965099,133.54918600000002
184,八幡浜署管内,声かけ,令和2年5月18日(月)午前7時40分ころ,八幡浜市路上,灰色様ズボン、帽子着用)に後ろから「気持ち悪い。」と叫ばれたもの。,八幡浜市,八幡浜市,0,green,,,,,,,,,,,,
185,松山南署管内,不審者,令和2年5月16日(土)午後3時30分ころ,松山市久米窪田町路上,自転車(黒色様、ハンドルが横一文字タイプ)に乗車した男(40歳位、やせ型、身長165〜170センチ位、茶色短髪、紺色のつなぎの作業着)が、家をジロジロ見ながら徘徊するのを付近住民が目撃したもの。,松山市久米窪田町,松山市久米窪田町,1,purple,38.0,愛媛県,エヒメケン,EHIME KEN,38201.0,松山市,マツヤマシ,MATSUYAMA SHI,382010114000.0,久米窪田町,33.804652000000004,132.811203
186,松山西署管内,身体露出,令和2年5月15日(金)午前9時30分ころ,松山市府中路上,黒色ズボン、ニット帽着用)を女性が目撃したもの。男は目撃者の様子を窺っているようであった。,松山市府中,松山市府中,0,orange,38.0,愛媛県,エヒメケン,EHIME KEN,38201.0,松山市,マツヤマシ,MATSUYAMA SHI,382010270000.0,府中,33.955365,132.77572800000002
187,新居浜署管内,身体露出,令和2年5月14日(木)午後7時10分ころ,新居浜市八幡二丁目路上,青色ジーパン、帽子・眼鏡・マスク・髭無し)とすれ違ったもの。,新居浜市八幡二丁目,新居浜市八幡二丁目,0,orange,38.0,愛媛県,エヒメケン,EHIME KEN,38205.0,新居浜市,ニイハマシ,NIIHAMA SHI,382050084002.0,八幡二丁目,33.982083,133.30971499999998
188,新居浜署管内,声かけ,令和2年5月14日(木)午後6時ころ,新居浜市高津町路上,女性が庭で散水していたところ、自転車(軽快兼用自転車)で付近を徘徊していた男(20歳位、中肉、身長170センチ位、黒色長髪、上下暗い色の服、黒色キャップ帽着用、眼鏡・マスク無し)に「これって変ですかね。」と髪形について尋ねられたもの。男はしつこく同じことを尋ねてきたが、女性の家族が帰宅すると立ち去った。,新居浜市高津町,新居浜市高津町,0,green,38.0,愛媛県,エヒメケン,EHIME KEN,38205.0,新居浜市,ニイハマシ,NIIHAMA SHI,382050057000.0,高津町,33.972074,133.299506
189,松山南署管内,声かけ,令和2年5月13日(水)午後9時40分ころ,松山市北土居一丁目路上,紺色ジーパン、黒色ボクサーパンツ、黒色の細い長方形フレームの眼鏡着用、マスク無し)に「一回だけ、一回だけ」と声をかけられたもの。女子中学生は直前に男が車(白色、セダン型)から降りてきたのを目撃している。,松山市北土居一丁目,松山市北土居一丁目,0,green,38.0,愛媛県,エヒメケン,EHIME KEN,38201.0,松山市,マツヤマシ,MATSUYAMA SHI,382010097001.0,北土居一丁目,33.806292,132.787584
190,松山南署管内,のぞき・盗撮,令和2年5月12日(火)午後0時00分ころ,東温市北方路上,女子高校生が自転車で走行中、前方にいた男(50〜60歳位、黒色短髪、上下暗色のピッチリした服、マスク・眼鏡・帽子なし)にしゃがみ込まれスカート内を覗かれたもの。,東温市北方,東温市北方,0,pink,38.0,愛媛県,エヒメケン,EHIME KEN,38215.0,東温市,トウオンシ,TOON SHI,382150006000.0,北方,33.820826000000004,132.91541
191,大洲署管内,身体露出,令和2年5月12日(火)午前8時20分ころ,喜多郡内子町大瀬中央路上,路上に全裸で立っている男(40歳位、小肥)を女子高校生が目撃したもの。,喜多郡内子町大瀬中央,喜多郡内子町大瀬中央,0,orange,38.0,愛媛県,エヒメケン,EHIME KEN,38422.0,喜多郡内子町,キタグンウチコチョウ,KITA GUN UCHIKO CHO,384220008000.0,大瀬中央,33.600221999999995,132.734117
192,松山西署管内,つきまとい,令和2年5月11日(月)午後2時50分ころ,松山市西垣生町路上,黒色長ズボン、黒色軽快兼用自転車利用)の脇を通りすぎたところ、後をつけられたもの。,松山市西垣生町,松山市西垣生町,2,blue,38.0,愛媛県,エヒメケン,EHIME KEN,38201.0,松山市,マツヤマシ,MATSUYAMA SHI,382010233000.0,西垣生町,33.813675,132.701207
193,宇和島署管内,写真撮影,令和2年5月11日(月)午後0時10分ころ,宇和島市内走行中の列車内,女子高校生2人が列車に乗っていたところ、乗り合わせた男(50〜60歳位、小肥、身長160センチ位、上下紺色様作業着(左胸に刺繍あり)、白色マスク、黒色キャップ帽着用、リュックサック所持)にスマートフォンで容姿を撮影されたもの。男の行為を別の乗客が目撃していた。,宇和島市内走行中の列車内,宇和島市内走行中の列車内,0,lightred,,,,,,,,,,,,
194,松山東署管内,声かけ,令和2年5月9日(土)午後0時30分ころ,松山市湊町五丁目路上,紺色様ジーンズ、二重で目が大きい)に「昨日会ったやろうが。」等と呼び止められたもの。さらに男から「相手せえや。」等と声をかけられながら、背負っていたリュックサックに手をかけられたもの。,松山市湊町五丁目,松山市湊町五丁目,1,green,38.0,愛媛県,エヒメケン,EHIME KEN,38201.0,松山市,マツヤマシ,MATSUYAMA SHI,382010310005.0,湊町五丁目,33.835933000000004,132.762679
195,松山西署管内,暴行,令和2年5月8日(金)午後5時45分ころ,松山市鴨川三丁目路上,黒色様ズボン、眼鏡着用、ベージュ色トートバッグ所持)に石を投げつけられた上、無言のまま近づいて来られ、顔に手を押し当てられたもの。その後、男は、再度石を投げて立ち去った。,松山市鴨川三丁目,松山市鴨川三丁目,0,red,38.0,愛媛県,エヒメケン,EHIME KEN,38201.0,松山市,マツヤマシ,MATSUYAMA SHI,382010082003.0,鴨川三丁目,33.874015,132.74877800000002
196,四国中央署管内,住居侵入,令和2年5月3日(日)午後8時ころ,四国中央市金田町半田の住宅,灰色ズボン、スニーカー様の靴着用)を目撃したもの。近隣住民に発見されたところ男は逃走した。,四国中央市金田町半田の,四国中央市金田町半田,0,darkred,38.0,愛媛県,エヒメケン,EHIME KEN,38213.0,四国中央市,シコクチュウオウシ,SHIKOKUCHUO SHI,382130003000.0,金田町半田,33.989473,133.609
197,松山東署管内,写真撮影,令和2年5月2日(土)午後3時ころ,松山市湊町三丁目路上,緑色フライトジャケット様、眼鏡着用、赤色スマートフォン所持、面長)を目撃したもの。男のスマートフォンのカメラ機能が作動していたことから、通行人が女性に声をかけたところ、男は立ち去った。,松山市湊町三丁目,松山市湊町三丁目,1,lightred,38.0,愛媛県,エヒメケン,EHIME KEN,38201.0,松山市,マツヤマシ,MATSUYAMA SHI,382010310003.0,湊町三丁目,33.835677000000004,132.769073
198,松山東署管内,つきまとい,令和2年5月1日(金)午後5時10分ころ,松山市宮西一丁目路上,黒色ズボン)に後をつけられたもの。,松山市宮西一丁目,松山市宮西一丁目,1,blue,38.0,愛媛県,エヒメケン,EHIME KEN,38201.0,松山市,マツヤマシ,MATSUYAMA SHI,382010326001.0,宮西一丁目,33.845813,132.752728
199,松山南署管内,不審者,令和2年4月29日(水)午後3時30分ころ,東温市南方路上,青色長ズボン、黒色マスク着用)に「携帯を貸せ。」と呼び止められ、男に携帯電話を手渡すと、地面に投げつけられたもの。,東温市南方,東温市南方,0,purple,38.0,愛媛県,エヒメケン,EHIME KEN,38215.0,東温市,トウオンシ,TOON SHI,382150017000.0,南方,33.788918,132.902291
200,大洲署管内,写真撮影,令和2年4月28日(火)午後2時40分ころ,大洲市阿蔵付近路上,ピンク色ズボン、ピンク色様スマートフォン所持)に車の前からスマートフォンを向けられたもの。女は、車(灰色、セダンタイプ)に乗って走り去った。,大洲市阿蔵,大洲市阿蔵,1,lightred,38.0,愛媛県,エヒメケン,EHIME KEN,38207.0,大洲市,オオズシ,OZU SHI,382070001000.0,阿蔵,33.512059,132.532018
201,新居浜署管内,写真撮影,令和2年4月28日(火)午後2時20分ころ,新居浜市新須賀町二丁目店舗内,女性が店舗内を歩いていたところ、後方を追従してきた男(45〜50歳位、小肥、身長170センチ位、黒色短髪、上下黒又は紺色の作業着様、丸顔、色白、目が大きい)にスマートフォン様のものを向けられ、太股辺りを撮影されたもの。,新居浜市新須賀町二丁目,新居浜市新須賀町二丁目,0,lightred,38.0,愛媛県,エヒメケン,EHIME KEN,38205.0,新居浜市,ニイハマシ,NIIHAMA SHI,382050048002.0,新須賀町二丁目,33.967888,133.28605100000001
202,西条西署管内,不審者,令和2年4月17日(金)午後3時55分ころ,西条市小松町大頭路上,ベージュ色ロングコート、モデルガン所持)とすれ違ったもの。,西条市小松町大頭,西条市小松町大頭,0,purple,38.0,愛媛県,エヒメケン,EHIME KEN,38206.0,西条市,サイジョウシ,SAIJO SHI,382060034000.0,小松町大頭,33.875153999999995,133.07038899999998
203,松山西署管内,のぞき・盗撮,令和2年4月16日(木)午後10時20分ころ,松山市府中の住宅,女性が自宅で入浴中、何者かに屋外から浴室の窓を開かれたもの。,松山市府中の,松山市府中,1,pink,38.0,愛媛県,エヒメケン,EHIME KEN,38201.0,松山市,マツヤマシ,MATSUYAMA SHI,382010270000.0,府中,33.955365,132.77572800000002
204,松山南署管内,不審者,令和2年4月10日(金)午後6時ころ,松山市古川西二丁目路上,黒色長ズボン、白色マスク、眼鏡着用、黒色リュック所持、徒歩)がその様子を気にしながら周りをうろついていたもの。,松山市古川西二丁目,松山市古川西二丁目,1,purple,38.0,愛媛県,エヒメケン,EHIME KEN,38201.0,松山市,マツヤマシ,MATSUYAMA SHI,382010274002.0,古川西二丁目,33.808664,132.757795
205,松山東署管内,声かけ,令和2年4月8日(水)午前10時20分ころ,松山市生石町路上,ピンク色半ズボン、イヤフォン着用、布様のもの所持)に肩を2回叩かれ「ねえ、ねえ。」と声をかけられたもの。,松山市生石町,松山市生石町,0,green,38.0,愛媛県,エヒメケン,EHIME KEN,38201.0,松山市,マツヤマシ,MATSUYAMA SHI,382010017000.0,生石町,33.83307,132.74231699999999
206,松山東署管内,不審者,令和2年4月7日(火)午後8時30分ころ,松山市築山町マンション敷地内,短パン、髭が生えている、眼鏡着用、スリッパ)にお茶を吹きかけられたもの。,松山市築山町,松山市築山町,0,purple,38.0,愛媛県,エヒメケン,EHIME KEN,38201.0,松山市,マツヤマシ,MATSUYAMA SHI,382010188000.0,築山町,33.838629,132.779864
207,松山西署管内,声かけ,令和2年4月7日(火)午後6時00分ころ,松山市久万ノ台路上,赤色のベスト、杖をついていた)に卑わいな言葉をかけられた後、後方をつきまとわれたもの。,松山市久万ノ台,松山市久万ノ台,0,green,38.0,愛媛県,エヒメケン,EHIME KEN,38201.0,松山市,マツヤマシ,MATSUYAMA SHI,382010113000.0,久万ノ台,33.859432,132.74256699999998
208,四国中央署管内,身体露出,令和2年3月29日(日)午後6時10分ころ,四国中央市金田町金川付近集合住宅敷地内,住民が歩行中、マンション内を走っている全裸の男(身長160〜170センチ位、黒色短髪、高校生風、眼鏡有り)を目撃したもの。,四国中央市金田町金川,四国中央市金田町金川,1,orange,38.0,愛媛県,エヒメケン,EHIME KEN,38213.0,四国中央市,シコクチュウオウシ,SHIKOKUCHUO SHI,382130001000.0,金田町金川,33.977056,133.595496
209,今治署管内,つきまとい,令和2年3月27日(金)午前10時30分ころ,今治市国分一丁目付近路上,黒色ズボン、白色帽子着用、青色傘所持)に追いかけられたもの。,今治市国分一丁目,今治市国分一丁目,0,blue,38.0,愛媛県,エヒメケン,EHIME KEN,38202.0,今治市,イマバリシ,IMABARI SHI,382020090001.0,国分一丁目,34.031752000000004,133.022762
210,新居浜署管内,つきまとい,令和2年3月26日(木)午後3時20分ころ,新居浜市前田町付近路上,黒色ズボン)に後方をつきまとわれたもの。,新居浜市前田町,新居浜市前田町,0,blue,38.0,愛媛県,エヒメケン,EHIME KEN,38205.0,新居浜市,ニイハマシ,NIIHAMA SHI,382050093000.0,前田町,33.955668,133.266842
211,松山西署管内,のぞき・盗撮,令和2年3月25日(水)午後10時30分ころ,松山市北条辻の住宅,女性が入浴中、何者かに浴室の窓を開けられそうになったもの。,松山市北条辻の,松山市北条辻,1,pink,38.0,愛媛県,エヒメケン,EHIME KEN,38201.0,松山市,マツヤマシ,MATSUYAMA SHI,382010282000.0,北条辻,33.968379,132.777843
212,松山東署管内,不審者,令和2年3月21日(土)午後5時ころ,松山市南江戸付近路上,施設職員がフェンス越しに施設内で遊ぶ子供の様子を窺う男(40歳位、中肉、身長160センチ位、白髪混じりで耳が隠れるくらいの長さの髪)を目撃したもの。3月17日にも同様の目撃がある。,松山市南江戸,松山市南江戸,0,purple,,,,,,,,,,,,
213,八幡浜署管内,不審者,令和2年3月20日(金)午後0時45分ころ,八幡浜市栗野浦付近共同住宅敷地内,女性が、敷地内の通路を何度も往復している男(肥満、身長155〜165センチ位、上下灰色ジャージ(オレンジ色ライン入り)、フード、黒色サングラス、ネックウォーマー着用)を目撃したもの。,八幡浜市栗野浦,八幡浜市栗野浦,0,purple,38.0,愛媛県,エヒメケン,EHIME KEN,38204.0,八幡浜市,ヤワタハマシ,YAWATAHAMA SHI,382040013000.0,栗野浦,33.455914,132.42064399999998
214,松山西署管内,つきまとい,令和2年3月19日(木)午後4時25分ころ,松山市空港通七丁目付近路上,黒色長ズボン、黒色様キャップ帽着用)に無言で背後に立たれたことから通行人に助けを求めたもの。その後、通行人と近くの建物に逃げ込むまでつきまとわれたもの。,松山市空港通七丁目,松山市空港通七丁目,0,blue,38.0,愛媛県,エヒメケン,EHIME KEN,38201.0,松山市,マツヤマシ,MATSUYAMA SHI,382010106007.0,空港通七丁目,33.827801,132.727598
215,松山西署管内,写真撮影,令和2年3月18日(水)午後3時45分ころ,松山市大可賀付近公園,黒色デニムズボン、黒色帽子着用、バッグ・本・デジタルカメラ所持、ピンク色の自転車利用)にデジタルカメラを向けられたもの。,松山市大可賀,松山市大可賀,0,lightred,,,,,,,,,,,,
216,松山東署管内,不審者,令和2年3月17日(火)午後5時10分ころ,松山市南江戸付近路上,施設職員が、施設内で遊ぶ子供の様子を窺う男(30歳位、中肉、身長170センチ位、黒色短髪、上下灰色作業着、白色マスク着用、茶色ボディバッグ所持)を目撃したもの。職員が男に挨拶するも、男は用件を言うことなく不審であった。,松山市南江戸,松山市南江戸,1,purple,,,,,,,,,,,,
217,松山西署管内,不審者,令和2年3月13日(金)午後2時ころ,松山市善応寺付近公園,男子中学生が遊んでいたところ、脱げた靴が男(年配、中肉、上下灰色様の服、黒色様キャップ帽着用)に拾われ、手で引き裂かれたもの。,松山市善応寺,松山市善応寺,0,purple,38.0,愛媛県,エヒメケン,EHIME KEN,38201.0,松山市,マツヤマシ,MATSUYAMA SHI,382010162000.0,善応寺,33.950876,132.798087
218,今治署管内,不審者,令和2年3月10日(火)午前7時ころ,今治市朝倉北甲付近一般住宅,紺色ジャンパー、黒色キャップ帽着用)が「お母さんおるか。」と訪ねてきたもの。男は立ち去る際に独り言を言っており不審な様子であった。,今治市朝倉北甲,今治市朝倉北,0,purple,38.0,愛媛県,エヒメケン,EHIME KEN,38202.0,今治市,イマバリシ,IMABARI SHI,382020003000.0,朝倉北,33.993194,133.014454
219,伯方署管内,身体露出,令和2年3月9日(月)午後2時15分ころ,今治市宮窪町余所国付近駐車場,ベージュ色長ズボン、財布様のもの所持)につきまとわれたもの。,今治市宮窪町余所国,今治市宮窪町余所国,0,orange,38.0,愛媛県,エヒメケン,EHIME KEN,38202.0,今治市,イマバリシ,IMABARI SHI,382020199000.0,宮窪町余所国,34.185449,133.057805
220,松山東署管内,つきまとい,令和2年3月8日(日)午後8時55分ころ,松山市余戸西四丁目付近路上,女子高校生が歩行中、男(30〜40歳位、中肉、身長170センチ位、上下黒色様の服、ハット型帽子着用)に走って追いかけられたもの。,松山市余戸西四丁目,松山市余戸西四丁目,0,blue,38.0,愛媛県,エヒメケン,EHIME KEN,38201.0,松山市,マツヤマシ,MATSUYAMA SHI,382010352004.0,余戸西四丁目,33.817429,132.72046699999999
221,松山東署管内,動画撮影,令和2年3月8日(日)午後4時ころ,松山市持田町一丁目付近店舗駐車場,セーター、ピンク色様ニット帽着用)にスマートフォンを向けられたもの。,松山市持田町一丁目,松山市持田町一丁目,0,lightred,38.0,愛媛県,エヒメケン,EHIME KEN,38201.0,松山市,マツヤマシ,MATSUYAMA SHI,382010333001.0,持田町一丁目,33.842769,132.783629
222,西条西署管内,身体露出,令和2年3月8日(日)午後1時20分ころ,西条市丹原町願連寺付近路上,女性が車で走行中、下半身を露出した男(40〜70歳位、やせ型、小柄、上下青色作業服、紺色様目出し帽着用、目が大きい)を目撃したもの。,西条市丹原町願連寺,西条市丹原町願連寺,0,orange,,,,,,,,,,,,
223,西条署管内,不審者,令和2年3月5日(木)午後2時20分ころ,西条市古川甲付近路上,女性が子供達と遊んでいたところ、自転車(軽快兼用自転車)や徒歩で子供達の方を凝視しながら付近を徘徊する男(15〜25歳位、中肉、上下黒色の服、黒色キャップ帽(白色英字ロゴ入り))を目撃したもの。,西条市古川甲,西条市古川,0,purple,,,,,,,,,,,,
224,松山東署管内,住居侵入,令和2年3月3日(火)午前7時5分ころ,松山市竹原四丁目付近集合住宅敷地内,長ズボン、サラリーマン風、白色マフラー着用)に気付き、声をかけると「鍵をなくした。」と申し立て、ドアポストから他人の部屋の中を覗き見るなどしていたもの。,松山市竹原四丁目,松山市竹原四丁目,0,darkred,38.0,愛媛県,エヒメケン,EHIME KEN,38201.0,松山市,マツヤマシ,MATSUYAMA SHI,382010175004.0,竹原四丁目,33.831613,132.746509
225,今治署管内,写真撮影,令和2年2月28日(金)午後4時15分ころ,今治市朝倉上付近路上,女児小学生が歩行中、路上駐車中の車(白色、丸型)に乗った男(40歳位、小肥、黒縁眼鏡着用、赤色スマートフォン所持)が手と顔を出し、スマートフォンを向けてきたもの。,今治市朝倉上,今治市朝倉上,0,lightred,38.0,愛媛県,エヒメケン,EHIME KEN,38202.0,今治市,イマバリシ,IMABARI SHI,382020002000.0,朝倉上,33.971933,133.008027
226,松山南署管内,つきまとい,令和2年2月26日(水)午後3時05分ころ,松山市北土居四丁目付近路上,紺色ズボン、黒色キャップ帽、黒色の靴)に後方をつきまとわれたもの。,松山市北土居四丁目,松山市北土居四丁目,0,blue,38.0,愛媛県,エヒメケン,EHIME KEN,38201.0,松山市,マツヤマシ,MATSUYAMA SHI,382010097004.0,北土居四丁目,33.806611,132.78359
227,四国中央署管内,声かけ,令和2年2月25日(火)午後4時30分ころ,四国中央市寒川町付近路上,女子中学生が歩行中、道を尋ねてきた男(40〜50歳位、中肉、身長170センチ位、黒髪、上下黒色様の服)に凝視されたもの。,四国中央市寒川町,四国中央市寒川町,1,green,38.0,愛媛県,エヒメケン,EHIME KEN,38213.0,四国中央市,シコクチュウオウシ,SHIKOKUCHUO SHI,382130016000.0,寒川町,33.952462,133.50771699999999
228,今治署管内,写真撮影,令和2年2月24日(月)午後0時ころ,今治市東村南一丁目付近店舗敷地内,女児小学生らが、男(50〜60歳位、小肥、ピンク色と黒色のボーダー柄ニット帽着用、スマートフォン所持)にスマートフォンを向けられたもの。,今治市東村南一丁目,今治市東村南一丁目,0,lightred,38.0,愛媛県,エヒメケン,EHIME KEN,38202.0,今治市,イマバリシ,IMABARI SHI,382020176001.0,東村南一丁目,34.036434,133.03311000000002
229,松山東署管内,つきまとい,令和2年2月21日(金)午後4時ころ,松山市束本二丁目付近路上,黒色ズボン、赤色ニット帽着用)に後方をつきまとわれたもの。,松山市束本二丁目,松山市束本二丁目,0,blue,38.0,愛媛県,エヒメケン,EHIME KEN,38201.0,松山市,マツヤマシ,MATSUYAMA SHI,382010187002.0,束本二丁目,33.827807,132.787221
230,松山西署管内,声かけ,令和2年2月21日(金)午前11時ころ,松山市住吉一丁目付近路上,青色長ズボン)に「どこの中学校」等と声をかけられたもの。その後、同所付近を男が自転車で走行しているのを女子中学生の家族が目撃している。,松山市住吉一丁目,松山市住吉一丁目,0,green,38.0,愛媛県,エヒメケン,EHIME KEN,38201.0,松山市,マツヤマシ,MATSUYAMA SHI,382010161001.0,住吉一丁目,33.864233,132.71803799999998
231,松山西署管内,つきまとい,令和2年2月20日(木)午後7時15分ころ,松山市古三津四丁目付近路上,黒色ジャージ)に後方をつきまとわれたもの。,松山市古三津四丁目,松山市古三津四丁目,0,blue,38.0,愛媛県,エヒメケン,EHIME KEN,38201.0,松山市,マツヤマシ,MATSUYAMA SHI,382010276004.0,古三津四丁目,33.854745,132.732442
232,今治署管内,身体露出,令和2年2月20日(木)午後5時55分ころ,今治市宮下町三丁目付近路上,紺色ジーンズ、眼鏡着用、自転車利用)に露出した下半身を触っている姿を見せつけられたもの。,今治市宮下町三丁目,今治市宮下町三丁目,0,orange,38.0,愛媛県,エヒメケン,EHIME KEN,38202.0,今治市,イマバリシ,IMABARI SHI,382020200003.0,宮下町三丁目,34.067827,132.98560700000002
233,西条署管内,不審者,令和2年2月20日(木)午前9時ころ,西条市明屋敷付近路上,黒色の服、肩掛けバッグ所持)を呼び止めたところ、大声で「こりゃー。」と叫びながら立ち去ったもの。,西条市明屋敷,西条市明屋敷,0,purple,38.0,愛媛県,エヒメケン,EHIME KEN,38206.0,西条市,サイジョウシ,SAIJO SHI,382060002000.0,明屋敷,33.921259,133.178034
234,松山東署管内,声かけ,令和2年2月20日(木)午前7時55分ころ,松山市道後樋又一〇番付近路上,黒色ズボン、紺色キャップ帽、白色と黒色のスニーカー着用、黒色リュックサック所持)にすれ違いざまに「スカート」と大声で声をかけられたもの。,松山市道後樋又一〇番,松山市道後樋又一〇番,0,green,,,,,,,,,,,,
235,松山南署管内,つきまとい,令和2年2月18日(火)午後6時10分ころ,松山市井門町付近路上,女子高校生が徒歩で散歩中、バイク(スクーター型)に乗った男(20〜30歳位、小肥、上下黒色様の服、黒色ネックウォーマー、茶色縁眼鏡、白色半キャップ型ヘルメット着用)に執拗に後方をつきまとわれたもの。,松山市井門町,松山市井門町,2,blue,38.0,愛媛県,エヒメケン,EHIME KEN,38201.0,松山市,マツヤマシ,MATSUYAMA SHI,382010029000.0,井門町,33.796879,132.77721499999998
236,新居浜署管内,つきまとい,令和2年2月18日(火)午後6時ころ,新居浜市宇高町二丁目付近路上,灰色長ズボン)に駆け寄られたもの。,新居浜市宇高町二丁目,新居浜市宇高町二丁目,0,blue,38.0,愛媛県,エヒメケン,EHIME KEN,38205.0,新居浜市,ニイハマシ,NIIHAMA SHI,382050007002.0,宇高町二丁目,33.973091,133.304128
237,伊予署管内,写真撮影,令和2年2月18日(火)午後3時30分ころ,伊予市尾崎付近路上,黒色ズボン、スマートフォン所持)が笑いながらスマートフォンを向けたもの。,伊予市尾崎,伊予市尾崎,1,lightred,38.0,愛媛県,エヒメケン,EHIME KEN,38210.0,伊予市,イヨシ,IYO SHI,382100006000.0,尾崎,33.74953,132.693569
238,今治署管内,声かけ,令和2年2月17日(月)午後3時30分ころ,今治市国分二丁目付近路上,黒色又は灰色の服、黒色ニット帽の上にヘルメット着用、自転車利用)に「不審者ってどんなのか知っとる。」と呼び止められ、ズボンの中に手を入れ股間を触った後、握手するよう求められたもの。,今治市国分二丁目,今治市国分二丁目,0,green,38.0,愛媛県,エヒメケン,EHIME KEN,38202.0,今治市,イマバリシ,IMABARI SHI,382020090002.0,国分二丁目,34.031597,133.019575
239,四国中央署管内,不審者,令和2年2月15日(土)午後2時40分ころ,四国中央市土居町上野施設敷地内,女児小学生らが遊戯中、帽子を脱いで挨拶してきた男(30〜40歳位、中肉、身長170センチ位、上下黒色様の服、黒色様キャップ帽、白色マスク着用)が付近を徘徊し、木の陰に隠れているのを目撃したもの。,四国中央市土居町上野,四国中央市土居町上野,0,purple,38.0,愛媛県,エヒメケン,EHIME KEN,38213.0,四国中央市,シコクチュウオウシ,SHIKOKUCHUO SHI,382130025000.0,土居町上野,33.915363,133.384952
240,四国中央署管内,声かけ,令和2年2月13日(木)午後3時30分ころ,四国中央市金生町山田井付近路上,女児小学生が歩行中、男(80歳位)に「おうちどこ。」と声をかけられたもの。,四国中央市金生町山田井,四国中央市金生町山田井,1,green,38.0,愛媛県,エヒメケン,EHIME KEN,38213.0,四国中央市,シコクチュウオウシ,SHIKOKUCHUO SHI,382130014000.0,金生町山田井,34.016639,133.616508
241,四国中央署管内,声かけ,令和2年2月13日(木)午後3時ころ,四国中央市中曽根町付近路上,灰色ジャケット、目が大きい、銀色タブレット所持)に「写真撮らせて。」「おっぱいとらせて。」等と声をかけられ、所持していたタブレットで写真を撮られたもの。,四国中央市中曽根町,四国中央市中曽根町,1,green,38.0,愛媛県,エヒメケン,EHIME KEN,38213.0,四国中央市,シコクチュウオウシ,SHIKOKUCHUO SHI,382130045000.0,中曽根町,33.965099,133.54918600000002
242,松山西署管内,身体露出,令和2年2月13日(木)午後2時ころ,松山市堀江町付近路上,黒色半ズボン)を目撃したもの。男は車(黒色)で立ち去ったが、しばらく後に再度現れ、ズボンを膝まで下ろし「もう出ます。」と独り言を言いながら、立ち小便をしていたもの。,松山市堀江町,松山市堀江町,1,orange,38.0,愛媛県,エヒメケン,EHIME KEN,38201.0,松山市,マツヤマシ,MATSUYAMA SHI,382010288000.0,堀江町,33.908885,132.75913799999998
243,松山東署管内,つきまとい,令和2年2月11日(火)午後6時30分ころ,松山市宮田町付近路上,女子高校生が自転車で走行中、自転車に乗った男(40歳位、中肉、黒色短髪、上下黒色の服、パッチリした目)に顔をのぞきこまれた後、後方を執拗につきまとわれたもの。,松山市宮田町,松山市宮田町,0,blue,38.0,愛媛県,エヒメケン,EHIME KEN,38201.0,松山市,マツヤマシ,MATSUYAMA SHI,382010325000.0,宮田町,33.842382,132.752948
244,四国中央署管内,声かけ,令和2年2月11日(火)午後2時ころ,四国中央市土居町蕪崎付近路上,茶色の服、買い物袋所持)に近づいたところ、「自転車に乗せていってくれんの。」と声をかけられたもの。,四国中央市土居町蕪崎,四国中央市土居町蕪崎,0,green,38.0,愛媛県,エヒメケン,EHIME KEN,38213.0,四国中央市,シコクチュウオウシ,SHIKOKUCHUO SHI,382130027000.0,土居町蕪崎,33.978978999999995,133.43171
245,松山南署管内,つきまとい,令和2年2月10日(月)午後5時40分ころ,東温市北方付近路上,黒色ズボン、スマートフォン所持)に後方をつきまとわれたもの。,東温市北方,東温市北方,1,blue,38.0,愛媛県,エヒメケン,EHIME KEN,38215.0,東温市,トウオンシ,TOON SHI,382150006000.0,北方,33.820826000000004,132.91541
246,松山東署管内,不審者,令和2年2月8日(土)午後10時50分ころ,松山市宮田町付近路上,灰色様長ズボン)を目撃したもの。,松山市宮田町,松山市宮田町,1,purple,38.0,愛媛県,エヒメケン,EHIME KEN,38201.0,松山市,マツヤマシ,MATSUYAMA SHI,382010325000.0,宮田町,33.842382,132.752948
247,新居浜署管内,つきまとい,令和2年2月7日(金)午後9時45分ころ,新居浜市西の土居町一丁目付近路上,フード付ジージャン、白色ニット帽)に車(紫色又は紺色、軽四貨物車、箱型)で後方をつきまとわれたもの。,新居浜市西の土居町一丁目,新居浜市西の土居町一丁目,0,blue,38.0,愛媛県,エヒメケン,EHIME KEN,38205.0,新居浜市,ニイハマシ,NIIHAMA SHI,382050079001.0,西の土居町一丁目,33.951014,133.28231
248,松山東署管内,つきまとい,令和2年2月7日(金)午後4時ころ,松山市湊町三丁目付近路上,女子高校生らが歩行中、徒歩ですれ違った男(40歳位、中肉、身長170センチ位、黒色短髪(角刈り)、上下黒色スウェット、口ひげあり)に舌打ちされた後、しばらくの間、睨まれながら、後方をつきまとわれたもの。,松山市湊町三丁目,松山市湊町三丁目,2,blue,38.0,愛媛県,エヒメケン,EHIME KEN,38201.0,松山市,マツヤマシ,MATSUYAMA SHI,382010310003.0,湊町三丁目,33.835677000000004,132.769073
249,松山西署管内,つきまとい,令和2年2月7日(金)午後3時45分ころ,松山市西垣生町付近路上,黒色ズボン、傘所持)に後方をつきまとわれたもの。,松山市西垣生町,松山市西垣生町,3,blue,38.0,愛媛県,エヒメケン,EHIME KEN,38201.0,松山市,マツヤマシ,MATSUYAMA SHI,382010233000.0,西垣生町,33.813675,132.701207
250,松山南署管内,つきまとい,令和2年2月6日(木)午後5時30分ころ,東温市南野田付近路上,女子中学生らが自転車で走行中、バイク(暗色系)に乗った男(中肉、上下黒色の服、暗色系ハーフヘルメット着用)に後方をつきまとわれたもの。,東温市南野田,東温市南野田,0,blue,38.0,愛媛県,エヒメケン,EHIME KEN,38215.0,東温市,トウオンシ,TOON SHI,382150018000.0,南野田,33.787178000000004,132.835461
251,伊予署管内,声かけ,令和2年2月6日(木)午後4時30分ころ,伊予市森付近屋外施設内,"女児小学生らが遊んでいたところ、5,6人組の男(金色長髪、大学生風)に「一緒に遊ぼう、クスリ持ってるよ。」と声をかけられたもの。",伊予市森,伊予市森,0,green,38.0,愛媛県,エヒメケン,EHIME KEN,38210.0,伊予市,イヨシ,IYO SHI,382100031000.0,森,33.739379,132.68363200000002
252,松山西署管内,声かけ,令和2年2月6日(木)午後4時ころ,松山市東垣生町付近公園内,"黒色ズボン、補聴器様のものを耳につけている)に「1,000円あげるからついておいで。」等と声をかけられたもの。同一場所において、別の小学生も同様の声かけをされている。",松山市東垣生町,松山市東垣生町,1,green,38.0,愛媛県,エヒメケン,EHIME KEN,38201.0,松山市,マツヤマシ,MATSUYAMA SHI,382010255000.0,東垣生町,33.813134999999996,132.714338
253,松山西署管内,声かけ,令和2年2月6日(木)午後3時45分ころ,松山市西垣生町付近路上,男児小学生が歩行中、車(白色、軽四自動車)に乗った男(60歳位、中肉、身長165センチ位、眼鏡着用)にすれ違いざま「どこの子。」と声をかけられたもの。,松山市西垣生町,松山市西垣生町,4,green,38.0,愛媛県,エヒメケン,EHIME KEN,38201.0,松山市,マツヤマシ,MATSUYAMA SHI,382010233000.0,西垣生町,33.813675,132.701207
254,四国中央署管内,暴行,令和2年2月6日(木)午後3時20分ころ,四国中央市中曽根町付近路上,黒色ズボン(白色のライン入り))に後方から小走りで近付かれ、両脇を掴まれそうになったもの。なお、男児小学生が抵抗しその場を離れたため、怪我等無し。,四国中央市中曽根町,四国中央市中曽根町,2,red,38.0,愛媛県,エヒメケン,EHIME KEN,38213.0,四国中央市,シコクチュウオウシ,SHIKOKUCHUO SHI,382130045000.0,中曽根町,33.965099,133.54918600000002
255,松山西署管内,声かけ,令和2年2月6日(木)午前7時30分ころ,松山市新浜町付近路上,青色ジャンパー、帽子、黒色又は灰色ネックウォーマー着用)に挨拶して通り過ぎたところ、男がUターンして戻り、「今、何言うたんぞ。」と声をかけられた後、手を振り上げ殴る素振りをされたもの。,松山市新浜町,松山市新浜町,0,green,38.0,愛媛県,エヒメケン,EHIME KEN,38201.0,松山市,マツヤマシ,MATSUYAMA SHI,382010154000.0,新浜町,33.874977,132.71340800000002
256,新居浜署管内,声かけ,令和2年2月5日(水)午後7時ころ,新居浜市庄内町四丁目付近路上,女子高校生が自転車で走行中、自転車(暗色系)に乗った男(20〜30歳位、小肥、身長165センチ位、黒色短髪、上下暗い色のジャージ)に「コンタクトを落とした。一緒に探してくれ。」と声をかけられたもの。,新居浜市庄内町四丁目,新居浜市庄内町四丁目,1,green,38.0,愛媛県,エヒメケン,EHIME KEN,38205.0,新居浜市,ニイハマシ,NIIHAMA SHI,382050046004.0,庄内町四丁目,33.952338,133.28902
257,四国中央署管内,声かけ,令和2年2月5日(水)午後3時45分ころ,四国中央市土居町上野付近路上,黒色様ジャンパー、リュックサック所持(30cm位の竹2本在中))に肩を叩いて呼び止められ「お菓子いる。」と声をかけられたもの。,四国中央市土居町上野,四国中央市土居町上野,1,green,38.0,愛媛県,エヒメケン,EHIME KEN,38213.0,四国中央市,シコクチュウオウシ,SHIKOKUCHUO SHI,382130025000.0,土居町上野,33.915363,133.384952
258,松山西署管内,声かけ,令和2年2月5日(水)午後3時ころ,松山市青葉台付近路上,女性が車で作業をしていたところ、自転車(ママチャリ、前カゴ付き)に乗った男(50〜60歳位、中肉、身長170センチ位、坊主が伸びた感じの白色短髪、上下灰色ジャージ、サングラス様着用)に凝視されたため用件を聞くと、「きれいな人がおったけん、立ち止まってしまった。」と声をかけられたもの。,松山市青葉台,松山市青葉台,0,green,38.0,愛媛県,エヒメケン,EHIME KEN,38201.0,松山市,マツヤマシ,MATSUYAMA SHI,382010005000.0,青葉台,33.857724,132.73519199999998
259,西条西署管内,身体露出,令和2年2月4日(火)午後7時50分ころ,西条市小松町新屋敷付近路上,女子高校生が自転車で走行中、突然目の前に全裸の男(40歳位、中肉、黒色短髪、全裸)が現れたもの。,西条市小松町新屋敷,西条市小松町新屋敷,0,orange,38.0,愛媛県,エヒメケン,EHIME KEN,38206.0,西条市,サイジョウシ,SAIJO SHI,382060036000.0,小松町新屋敷,33.88816,133.111299
260,松山東署管内,つきまとい,令和2年2月4日(火)午前7時15分ころ,松山市勝山町二丁目付近路上,男児小学生が歩行中、男(35〜40歳位、身長170センチ位、茶髪又は黒髪、上下黒色の服)とすれ違う際に手を差し出され、少し離れた後、走って近づかれたもの。なお、他の小学生が大声で何かを叫んでいる同男を目撃している。,松山市勝山町二丁目,松山市勝山町二丁目,1,blue,38.0,愛媛県,エヒメケン,EHIME KEN,38201.0,松山市,マツヤマシ,MATSUYAMA SHI,382010073002.0,勝山町二丁目,33.844402,132.77543500000002
261,四国中央署管内,不審者,令和2年1月ころ,四国中央市上分町付近駐車場,黒色様パーカー)が走って逃げ去るのを目撃したもの。,四国中央市上分町,四国中央市上分町,0,purple,38.0,愛媛県,エヒメケン,EHIME KEN,38213.0,四国中央市,シコクチュウオウシ,SHIKOKUCHUO SHI,382130005000.0,上分町,33.989088,133.588503
262,四国中央署管内,つきまとい,令和2年1月下旬午後3時ころ,四国中央市川之江町付近路上,女児小学生が歩行中、車(灰色)に乗った男(60歳位、身長160センチ位、白髪、眼鏡着用、スマートフォン所持)に「○○さんって知ってる。」と声をかけられたため走ってその場を離れたが、後方を車でつきまとわれ、再度、同男に「○○さんって知ってる。」と聞かれ、スマートフォンで写真を撮影されたもの。,四国中央市川之江町,四国中央市川之江町,2,blue,38.0,愛媛県,エヒメケン,EHIME KEN,38213.0,四国中央市,シコクチュウオウシ,SHIKOKUCHUO SHI,382130008000.0,川之江町,34.014303999999996,133.57968200000002
263,今治署管内,つきまとい,令和2年1月30日(木)午後5時ころ,今治市常盤町四丁目付近路上,女子中学生が移動中、バイク(灰色様、後部に荷台付き)に乗った男(40〜60歳位、小肥、身長が低い、白色様ヘルメット、サングラス、マスク着用)に執拗に後方をつきまとわれたもの。,今治市常盤町四丁目,今治市常盤町四丁目,0,blue,38.0,愛媛県,エヒメケン,EHIME KEN,38202.0,今治市,イマバリシ,IMABARI SHI,382020140004.0,常盤町四丁目,34.063824,132.997761
264,松山東署管内,つきまとい,令和2年1月30日(木)午後4時30分ころ,松山市余戸東三丁目付近路上,濃灰色のズボン、半キャップ型ヘルメット着用)に行く先々に先回りされ、つきまとわれたもの。,松山市余戸東三丁目,松山市余戸東三丁目,0,blue,38.0,愛媛県,エヒメケン,EHIME KEN,38201.0,松山市,マツヤマシ,MATSUYAMA SHI,382010353003.0,余戸東三丁目,33.813564,132.732698
265,松山東署管内,つきまとい,令和2年1月30日(木)午後3時30分ころ,松山市東野二丁目付近路上,女子中学生が歩行中、自転車(青色、軽快兼用自転車)を押して歩いていた男(40〜60歳位、小肥、身長160センチ位、坊主頭、黒髪、上下灰色スウェット)に執拗に後方をつきまとわれたもの。,松山市東野二丁目,松山市東野二丁目,0,blue,38.0,愛媛県,エヒメケン,EHIME KEN,38201.0,松山市,マツヤマシ,MATSUYAMA SHI,382010254002.0,東野二丁目,33.842184,132.799244
266,松山東署管内,のぞき・盗撮,令和2年1月29日(水)午後8時ころ,松山市湊町五丁目付近路上,黒色様ジャンパー、スマートフォン所持)にスマートフォンをスカート内に差し入れられたもの。,松山市湊町五丁目,松山市湊町五丁目,2,pink,38.0,愛媛県,エヒメケン,EHIME KEN,38201.0,松山市,マツヤマシ,MATSUYAMA SHI,382010310005.0,湊町五丁目,33.835933000000004,132.762679
267,松山東署管内,声かけ,令和2年1月29日(水)午後7時50分ころ,松山市中央一丁目付近路上,紺色スラックス、灰色シニアカート使用、財布所持)に手招きで執拗に呼ばれたため店外路上に出て近付くと、「俺は、元警察官だ。」「家はどこら辺。お金を渡すから、やらせてくれないか。」と声をかけられ、お金を渡されそうになったもの。,松山市中央一丁目,松山市中央一丁目,0,green,38.0,愛媛県,エヒメケン,EHIME KEN,38201.0,松山市,マツヤマシ,MATSUYAMA SHI,382010186001.0,中央一丁目,33.853932,132.75153799999998
268,松山東署管内,つきまとい,令和2年1月28日(火)午後3時ころ,松山市道後多幸町付近路上,紺色ジーンズ、眼鏡着用、黒色リュックサック所持)に体を寄せられ、「悪いことはせんきん、お茶でもしませんか。」と声をかけられたもの。,松山市道後多幸町,松山市道後多幸町,0,blue,38.0,愛媛県,エヒメケン,EHIME KEN,38201.0,松山市,マツヤマシ,MATSUYAMA SHI,382010204000.0,道後多幸町,33.853526,132.78388700000002
269,四国中央署管内,声かけ,令和2年1月25日(土)午後3時ころ,四国中央市金田町半田付近路上,灰色ズボン、黒色野球帽子、マスク着用)に「きみら何歳。」「どこに住んどん。」と声をかけられたもの。,四国中央市金田町半田,四国中央市金田町半田,1,green,38.0,愛媛県,エヒメケン,EHIME KEN,38213.0,四国中央市,シコクチュウオウシ,SHIKOKUCHUO SHI,382130003000.0,金田町半田,33.989473,133.609
270,四国中央署管内,声かけ,令和2年1月24日(金)午後4時40分ころ,四国中央市土居町津根付近路上,女児小学生が歩行中、犬を散歩していた男(中肉、身長165センチ位、上下青色ジャージ、白色マスク、白色帽子、サングラス着用、大型犬を連れていた)に「鞄重そうだね。家までもって帰ってあげようか。」と声をかけられたもの。,四国中央市土居町津根,四国中央市土居町津根,1,green,38.0,愛媛県,エヒメケン,EHIME KEN,38213.0,四国中央市,シコクチュウオウシ,SHIKOKUCHUO SHI,382130030000.0,土居町津根,33.967002,133.45345
271,四国中央署管内,声かけ,令和2年1月23日(木)午後4時30分ころ,四国中央市三島朝日二丁目屋外施設内,青色ジーンズ、色黒、無地の茶色野球帽着用)に「楽しい、どこ中。」と声をかけられ、一度立ち去るも、再度現れ、携帯電話で写真撮影されたもの。,四国中央市三島朝日二丁目,四国中央市三島朝日二丁目,0,green,38.0,愛媛県,エヒメケン,EHIME KEN,38213.0,四国中央市,シコクチュウオウシ,SHIKOKUCHUO SHI,382130047002.0,三島朝日二丁目,33.987588,133.55820500000002
272,四国中央署管内,声かけ,令和2年1月22日(火)午後1時55分ころ,四国中央市寒川町付近路上,女児小学生が歩行中、2人組み男女(60歳位の男、60歳位の女)に肩を組まれ、「こんにちは。」と言いながら、学年や家を聞かれたもの。,四国中央市寒川町,四国中央市寒川町,2,green,38.0,愛媛県,エヒメケン,EHIME KEN,38213.0,四国中央市,シコクチュウオウシ,SHIKOKUCHUO SHI,382130016000.0,寒川町,33.952462,133.50771699999999
273,松山東署管内,写真撮影,令和2年1月20日(月)午後6時ころ,松山市湊町五丁目付近を走行中のバス内,黒色の服、スマートフォン、リュックサック所持)に「どこの小学校に通っているの。」等と声をかけられた後、スマートフォンを向けられ写真撮影されたもの。,松山市湊町五丁目,松山市湊町五丁目,3,lightred,38.0,愛媛県,エヒメケン,EHIME KEN,38201.0,松山市,マツヤマシ,MATSUYAMA SHI,382010310005.0,湊町五丁目,33.835933000000004,132.762679
274,四国中央署管内,つきまとい,令和2年1月19日(日)午後1時30分ころ,四国中央市具定町付近店舗内,ジーンズ、深緑色つば付き帽子、マスク着用)に無言で手を近づけられたり、店内で後方をつきまとわれたもの。,四国中央市具定町,四国中央市具定町,1,blue,38.0,愛媛県,エヒメケン,EHIME KEN,38213.0,四国中央市,シコクチュウオウシ,SHIKOKUCHUO SHI,382130015000.0,具定町,33.96085,133.52972
275,松山東署管内,声かけ,令和2年1月19日(日)午前8時15分ころ,松山市愛光町付近路上,男児小学生が歩行中、男(50歳位、中肉、身長170センチ位、上下黒色様の服、黒色サングラス、茶色様マスク着用、お菓子様が入った袋所持)に「お菓子あげるからこっちにおいで。」と声をかけられたもの。,松山市愛光町,松山市愛光町,0,green,38.0,愛媛県,エヒメケン,EHIME KEN,38201.0,松山市,マツヤマシ,MATSUYAMA SHI,382010001000.0,愛光町,33.846315999999995,132.749193
276,四国中央署管内,身体露出,令和2年1月17日(金)午後7時30分ころ,四国中央市上分町付近路上,女性が歩行中、下半身を露出した男(30〜50歳位、中肉、身長165センチ位、黒色短髪、上下黒色ジャージ(白色ライン入り)、白色マスク、黒色様ネックウォーマー着用)に「こんばんは。」と声をかけられたもの。,四国中央市上分町,四国中央市上分町,1,orange,38.0,愛媛県,エヒメケン,EHIME KEN,38213.0,四国中央市,シコクチュウオウシ,SHIKOKUCHUO SHI,382130005000.0,上分町,33.989088,133.588503
277,松山西署管内,写真撮影,令和2年1月17日(金)午後5時20分ころ,松山市東垣生町付近路上,黒色ジーンズ、携帯電話所持)に、携帯電話を向けられたもの。,松山市東垣生町,松山市東垣生町,2,lightred,38.0,愛媛県,エヒメケン,EHIME KEN,38201.0,松山市,マツヤマシ,MATSUYAMA SHI,382010255000.0,東垣生町,33.813134999999996,132.714338
278,八幡浜署管内,不審者,令和2年1月17日(金)午前1時10分ころ,八幡浜市五反田付近路上,付近住民が、長時間同じ場所を徘徊している男(40〜50歳位、中肉、身長160〜170センチ位、黒色短髪、上下黒色スウェット)を目撃したもの。,八幡浜市五反田,八幡浜市五反田,0,purple,38.0,愛媛県,エヒメケン,EHIME KEN,38204.0,八幡浜市,ヤワタハマシ,YAWATAHAMA SHI,382040016000.0,五反田,33.448822,132.44089
279,今治署管内,暴行,令和2年1月15日(水)午後6時ころ,今治市波方町樋口甲付近路上,男子中学生らが自転車で走行中、自転車に乗た男(30〜40歳位、小肥、黒色様ジャージ、眼鏡着用)とすれ違った後、因縁をつけられ胸倉を掴まれるなどしたもの。,今治市波方町樋口甲,今治市波方町樋口,0,red,38.0,愛媛県,エヒメケン,EHIME KEN,38202.0,今治市,イマバリシ,IMABARI SHI,382020154000.0,波方町樋口,34.096523,132.94319099999998
280,松山西署管内,不審者,令和2年1月15日(水)午後4時50分ころ,松山市北条辻付近路上,女子中学生らが歩行中、周囲を睨みながら徘徊している男(50歳位、黒色様の服、リュックサック、携帯電話所持)を目撃したもの。,松山市北条辻,松山市北条辻,2,purple,38.0,愛媛県,エヒメケン,EHIME KEN,38201.0,松山市,マツヤマシ,MATSUYAMA SHI,382010282000.0,北条辻,33.968379,132.777843
281,松山西署管内,つきまとい,令和2年1月15日(水)午後3時30分ころ,松山市北条辻付近路上,黒色ズボン、自転車利用)に後方をつきまとわれたもの。,松山市北条辻,松山市北条辻,3,blue,38.0,愛媛県,エヒメケン,EHIME KEN,38201.0,松山市,マツヤマシ,MATSUYAMA SHI,382010282000.0,北条辻,33.968379,132.777843
282,今治署管内,つきまとい,令和2年1月14日(火)午後6時30分ころ,今治市常盤町七丁目付近路上,女子中学生が歩行中、行為者(黒色様ジャージ、黒色キャップ帽着用)に後方をつきまとわれたもの。,今治市常盤町七丁目,今治市常盤町七丁目,0,blue,38.0,愛媛県,エヒメケン,EHIME KEN,38202.0,今治市,イマバリシ,IMABARI SHI,382020140007.0,常盤町七丁目,34.055931,132.98893700000002
283,新居浜署管内,つきまとい,令和2年1月14日(火)午後4時30分ころ,新居浜市一宮町一丁目付近路上,女子高校生が自転車で走行中、自転車(銀色)に乗った男(15〜25歳位、やせ型、長めの金色に近い茶髪、黒色カバー付きスマートフォン所持)に並走されながらスマートフォンを向けられたもの。,新居浜市一宮町一丁目,新居浜市一宮町一丁目,1,blue,38.0,愛媛県,エヒメケン,EHIME KEN,38205.0,新居浜市,ニイハマシ,NIIHAMA SHI,382050006001.0,一宮町一丁目,33.959889000000004,133.282427
284,松山南署管内,不審者,令和2年1月13日(月)午後5時10分ころ,松山市今在家三丁目付近路上,女子中学生らが遊んでいたところ、公園付近を徘徊する男(50〜60歳位、やせ型、身長160センチ位、黒色短髪、上下黒色の服、黄色ニット帽、眼鏡着用、茶色ロープ所持、自転車利用)を目撃したもの。,松山市今在家三丁目,松山市今在家三丁目,0,purple,38.0,愛媛県,エヒメケン,EHIME KEN,38201.0,松山市,マツヤマシ,MATSUYAMA SHI,382010031003.0,今在家三丁目,33.804874,132.791672
285,四国中央署管内,つきまとい,令和2年1月12日(日)午後2時30分ころ,四国中央市土居町津根付近路上,黒色ズボン、四角いもの所持)に後方をつきまとわれたもの。,四国中央市土居町津根,四国中央市土居町津根,2,blue,38.0,愛媛県,エヒメケン,EHIME KEN,38213.0,四国中央市,シコクチュウオウシ,SHIKOKUCHUO SHI,382130030000.0,土居町津根,33.967002,133.45345
286,大洲署管内,写真撮影,令和2年1月11日(土)午後3時30分ころ,大洲市中村付近店舗内,黒色長ズボン、黒色キャップ帽、黒縁眼鏡着用、スマートフォン様所持)にスマートフォン様の物を向けられたもの。,大洲市中村,大洲市中村,0,lightred,38.0,愛媛県,エヒメケン,EHIME KEN,38207.0,大洲市,オオズシ,OZU SHI,382070053000.0,中村,33.514703000000004,132.54232
287,今治署管内,声かけ,令和2年1月10日(金)午後5時30分ころ,今治市常盤町五丁目付近施設内,女子高校生らが勉強中、隣に座ってきた男(40〜50歳位、小肥、身長170センチ位、上下灰色スウェット風ジャージ、茶色眼鏡着用、斜めがけカバン所持)に、「男の子の事を考えてるんじゃないの?」と声をかけられ、その後も様子を窺うように付近をうろつかれたもの。,今治市常盤町五丁目,今治市常盤町五丁目,0,green,38.0,愛媛県,エヒメケン,EHIME KEN,38202.0,今治市,イマバリシ,IMABARI SHI,382020140005.0,常盤町五丁目,34.060959999999994,132.994766
288,大洲署管内,つきまとい,令和2年1月10日(金)午後5時00分ころ,大洲市徳森甲付近路上,白色様ズボン、帽子着用)に後方をつきまとわれたもの。,大洲市徳森甲,大洲市徳森,0,blue,38.0,愛媛県,エヒメケン,EHIME KEN,38207.0,大洲市,オオズシ,OZU SHI,382070035000.0,徳森,33.524891,132.585004
289,松山西署管内,つきまとい,令和2年1月10日(金)午後4時5分ころ,松山市北条辻付近路上,緑色ウインドブレーカー、帽子着用、スマートフォン所持)に後方をつきまとわれたもの。,松山市北条辻,松山市北条辻,4,blue,38.0,愛媛県,エヒメケン,EHIME KEN,38201.0,松山市,マツヤマシ,MATSUYAMA SHI,382010282000.0,北条辻,33.968379,132.777843
290,四国中央署管内,つきまとい,令和2年1月9日(木)夕方ころ,四国中央市土居町天満付近路上,灰色ズボン、白色軍手着用)に手招きされたため、離れようとしたところ、後方をつきまとわれたもの。,四国中央市土居町天満,四国中央市土居町天満,0,blue,38.0,愛媛県,エヒメケン,EHIME KEN,38213.0,四国中央市,シコクチュウオウシ,SHIKOKUCHUO SHI,382130031000.0,土居町天満,33.978484,133.406257
291,西条西署管内,声かけ,令和2年1月8日(水)午後5時30分ころ,西条市丹原町川根付近路上,黒色ジャージ様)に「お前ちょっとそこで待っとれ。」「顔覚えたけんな。」と声をかけられたもの。,西条市丹原町川根,西条市丹原町川根,0,green,38.0,愛媛県,エヒメケン,EHIME KEN,38206.0,西条市,サイジョウシ,SAIJO SHI,382060069000.0,丹原町川根,33.894816,133.027408
292,四国中央署管内,写真撮影,令和2年1月8日(水)午後3時45分ころ,四国中央市川之江町付近路上,白黒のボーダー柄シャツ、携帯電話所持)に、携帯電話で写真を撮られたもの。,四国中央市川之江町,四国中央市川之江町,3,lightred,38.0,愛媛県,エヒメケン,EHIME KEN,38213.0,四国中央市,シコクチュウオウシ,SHIKOKUCHUO SHI,382130008000.0,川之江町,34.014303999999996,133.57968200000002
293,松山西署管内,つきまとい,令和2年1月7日(火)午前7時40分ころ,松山市久万ノ台付近路上,紺色パーカー、眼鏡着用)に執拗につきまとわれたもの。,松山市久万ノ台,松山市久万ノ台,1,blue,38.0,愛媛県,エヒメケン,EHIME KEN,38201.0,松山市,マツヤマシ,MATSUYAMA SHI,382010113000.0,久万ノ台,33.859432,132.74256699999998
294,四国中央署管内,つきまとい,令和2年1月6日(月)午後9時ころ,四国中央市寒川町付近路上,青色ジーパン、マスク着用)に凝視されたり、走って追いかけられそうになったもの。,四国中央市寒川町,四国中央市寒川町,3,blue,38.0,愛媛県,エヒメケン,EHIME KEN,38213.0,四国中央市,シコクチュウオウシ,SHIKOKUCHUO SHI,382130016000.0,寒川町,33.952462,133.50771699999999
295,松山東署管内,不審者,令和2年1月6日(月)午後4時15分ころ,松山市花園町付近路上,男児小学生が歩行中、対向してきた男(50歳位、身長170センチ位、薄毛)に顔を覗き込まれた後、背負っていたリュックに手を入れられ、ゴミ入れ用のナイロン袋をとられたもの。男児小学生に怪我は無し。,松山市花園町,松山市花園町,0,purple,38.0,愛媛県,エヒメケン,EHIME KEN,38201.0,松山市,マツヤマシ,MATSUYAMA SHI,382010244000.0,花園町,33.837672999999995,132.761772
296,松山南署管内,つきまとい,令和2年1月2日(木)午後2時30分ころ,松山市今在家二丁目付近路上,紺色ジャンパー、ニット帽、白色マスク着用、スマートフォン所持)に後方をつきまとわれたもの。女性は12月28日に自転車に乗った同じ男から、すれ違いざま、体を触られそうになっていた。,松山市今在家二丁目,松山市今在家二丁目,1,blue,38.0,愛媛県,エヒメケン,EHIME KEN,38201.0,松山市,マツヤマシ,MATSUYAMA SHI,382010031002.0,今在家二丁目,33.806922,132.791754
