,管轄署,種別,日時,場所,状況,住所,address,count,color,都道府県コード,都道府県名,都道府県名カナ,都道府県名ローマ字,市区町村コード,市区町村名,市区町村名カナ,市区町村名ローマ字,大字町丁目コード,大字町丁目名,緯度,経度
0,松山東署管内) ◆種別:つきまとい,令和2年12月4日(金)午後4時ころ,松山市六軒家町店舗内,女性が店舗内で買い物中、男につきまとわれたり、凝視されたりしたもの。女性が店外に出ると、男は自転車に乗り立ち去ったが、すぐに戻ってきて、女性の前を徘徊し、走り去った。,40〜60歳位、身長170センチ位、やせ型、上下黒色ウィンドブレーカー様の服、独り言のように何かぶつぶつ言っていた,女性が,女性が,0,令和2年12月4日(金)午後4時ころ,,,,,,,,,,,,
1,四国中央署管内) ◆種別:写真撮影,令和2年12月4日(金)午後3時30分ころ,四国中央市川之江町路上,女児小学生が歩いていたところ、路上にいた女二名に後方をつきまとわれた後、建物の階段を上っていたところ、女のうち一名にスマートフォンを向けられたもの。,A女(20歳位、中肉、フード付きピンク色上衣、青色長ズボン、白色マスク着用、薄ピンク色手提げバッグ所持)、B女(20歳位、中肉、肩位の長さの黒髪、薄ピンク色長袖の上衣、青色長ズボン、ピンク色手提げバッグ、ピンク色スマートフォン所持),女児小学生が歩いていたところ、,女児小学生が歩いていたところ、,0,令和2年12月4日(金)午後3時30分ころ,,,,,,,,,,,,
2,松山西署管内) ◆種別:声かけ,令和2年12月4日(金)午後3時30分ころ,松山市山西町路上,男児小学生二名が歩いていたところ、自転車に乗った男に後方から大声で「わっ。」と驚かされ、「日曜日は何かをしていたの。」などと声をかけられたもの。,中肉、白髪混じりの髪、上下黒色の服、マスク・黒色キャップ帽着用、眼鏡なし,男児小学生二名が歩いていたところ、自転車に乗った男に後方から大声で「わっ。」と驚かされ、「日曜日は何かをしていたの。」などと声をかけられたもの。,男児小学生二名が歩いていたところ、自転車に乗った男に後方から大声で「わっ。」と驚かされ、「日曜日は何かをしていたの。」などと声をかけられたもの。,0,令和2年12月4日(金)午後3時30分ころ,,,,,,,,,,,,
3,松山南署管内,写真撮影,令和2年12月3日(木)午後4時05分ころ,松山市市坪北二丁目路上,黒色ウィンドブレーカー)を目撃したもの。,松山市市坪北二丁目,松山市市坪北二丁目,0,lightred,38.0,愛媛県,エヒメケン,EHIME KEN,38201.0,松山市,マツヤマシ,MATSUYAMA SHI,382010023002.0,市坪北二丁目,33.812759,132.750904
4,新居浜署管内,住居侵入,令和2年12月3日(木)午後1時30分ころ,新居浜市船木一般住宅玄関先,黒色ズボン、マスク・眼鏡・青色か黒色手袋・キャップ帽着用)を目撃したもの。男は男児小学生に気がつくと、道端に停めていた車(白色)に乗って立ち去った。,新居浜市船木,新居浜市船木,0,darkred,38.0,愛媛県,エヒメケン,EHIME KEN,38205.0,新居浜市,ニイハマシ,NIIHAMA SHI,382050088000.0,船木,33.925771999999995,133.343366
5,松山南署管内,声かけ,令和2年12月2日(水)午後6時30分ころ,松山市西石井六丁目路上,女子高校生が自転車で走行中、自転車(前カゴなし)に乗った男(30〜40歳位、黒色様の上衣、マスク着用、目が大きい、黒色ヘルメット着用)に並走されながら「ちょっと聞いていい.。最近の女子高校生はスカートの下にズボン履いとるのかな。」「ちょっと見せてくれんかな。」と声を掛けられたもの。,松山市西石井六丁目,松山市西石井六丁目,0,green,38.0,愛媛県,エヒメケン,EHIME KEN,38201.0,松山市,マツヤマシ,MATSUYAMA SHI,382010227006.0,西石井六丁目,33.813734000000004,132.773961
6,新居浜署管内,写真撮影,令和2年12月2日(水)午後4時30分ころ,新居浜市田の上一丁目店舗内,緑色様ズボン、白色マスク着用、黒色カバン・スマートフォン所持)にカバンで隠すようにスマートフォンを向けられたもの。,新居浜市田の上一丁目,新居浜市田の上一丁目,0,lightred,38.0,愛媛県,エヒメケン,EHIME KEN,38205.0,新居浜市,ニイハマシ,NIIHAMA SHI,382050064001.0,田の上一丁目,33.970045,133.315072
7,伊予署管内,声かけ,令和2年12月2日(水)午後3時ころ,伊予郡松前町大字北黒田路上,女性が歩行中、自転車(スポーツタイプ)に乗った男(20〜30歳位、やせ型、背が高い、黒色短髪、上下黒色様の服、大きいカーキ色のリュックサック所持、色白、眼鏡・髭なし)に呼び止められた上、手に持ったコンドームを示され、「これ何の薬か分かりますか。」と声を掛けられたもの。,伊予郡松前町大字北黒田,伊予郡松前町大字北黒田,0,green,38.0,愛媛県,エヒメケン,EHIME KEN,38401.0,伊予郡松前町,イヨグンマサキチョウ,IYO GUN MASAKI CHO,384010006000.0,大字北黒田,33.781156,132.711217
8,新居浜署管内,不審者,令和2年12月1日(火)午後6時05分ころ,新居浜市桜木町路上,女子中学生2名が歩いていたところ、後方からきた黒色普通乗用車が横で停車し、乗車していた男(中年位、短髪、中肉、顎髭あり、眼鏡・帽子なし)に凝視されたもの。,新居浜市桜木町,新居浜市桜木町,0,purple,38.0,愛媛県,エヒメケン,EHIME KEN,38205.0,新居浜市,ニイハマシ,NIIHAMA SHI,382050038000.0,桜木町,33.968146999999995,133.299844
9,大洲署管内,声かけ,令和2年12月1日(火)午後4時20分ころ,大洲市東大洲路上,ライトブルーのデニムズボン、黒色ネックレス着用)にすれ違いざまに「君だれやっけ。」と突然声をかけられたもの。,大洲市東大洲,大洲市東大洲,0,green,38.0,愛媛県,エヒメケン,EHIME KEN,38207.0,大洲市,オオズシ,OZU SHI,382070061000.0,東大洲,33.527646000000004,132.571139
10,松山南署管内,つきまとい,令和2年11月28日(土)午後4時50分ころ,松山市東石井六丁目路上から西石井六丁目路上までの間,長ズボン、黒色マスク着用、眼鏡・帽子なし)につきまとわれたもの。その後、女児が自宅敷地内に自転車を駐輪していると、男が自宅前まで徒歩で現れ、女児と目が合うと立ち去った。,松山市東石井六丁目,松山市東石井六丁目,0,blue,38.0,愛媛県,エヒメケン,EHIME KEN,38201.0,松山市,マツヤマシ,MATSUYAMA SHI,382010248006.0,東石井六丁目,33.811526,132.777308
11,大洲署管内,声かけ,令和2年11月28日(土)午前6時05分ころ,大洲市内の駅構内,赤色長袖(ナイロン製)、黒色の頭髪または黒色帽子着用、暗色リュックサック所持、マスクなし)に背負っていたカバンを掴まれ呼び止められたもの。男が「渡したいものがある。」と自身のリュックサックから何かを取り出そうとしたことから、女子中学生は逃げ出した。,大洲市内の駅構内,大洲市内の駅構内,0,green,,,,,,,,,,,,
12,今治署管内,声かけ,令和2年11月26日(木)午後2時ころ,今治市郷桜井二丁目から同市桜井までの間の路上,紺色長ズボン(横に赤色ライン)、髭あり、目が細い)に「どこに帰っているの。」などと声をかけられた上、後方をつきまとわれたもの。,今治市郷桜井二丁目から同市桜井までの間の,今治市郷桜井二丁目から同市桜井までの間,0,green,,,,,,,,,,,,
13,新居浜署管内,声かけ,令和2年11月25日(水)午後0時50分ころ,新居浜市荻生路上,女子中学生が自転車にまたがり止まっていたところ、車(白色、軽トラ、荷台を緑色シートで覆っている)に乗った男(60歳位、中肉、眼鏡着用)に「助手席に乗らんかい。」と声をかけられた上、車から降りてきた男に後方をつきまとわれたもの。,新居浜市荻生,新居浜市荻生,0,green,,,,,,,,,,,,
14,松山南署管内,声かけ,令和2年11月21日(土)午後7時ころ,伊予郡砥部町拾町店舗敷地内,黒色スラックス、黒縁眼鏡着用、マスクなし)に「バイクに乗るときスカートは大変やね。ストッキングは履いているのか。」などと声をかけられたもの。,伊予郡砥部町拾町,伊予郡砥部町拾町,0,green,38.0,愛媛県,エヒメケン,EHIME KEN,38402.0,伊予郡砥部町,イヨグントベチョウ,IYO GUN TOBE CHO,384020015000.0,拾町,33.780407000000004,132.785321
15,新居浜署管内,暴行,令和2年11月20日(金)午後8時10分ころ,新居浜市中村松木一丁目路上,黒色様ジャンパー、黒色様ニット帽・白色マスク・軍手着用)にすれ違いざま近寄られ、手で口を触られた後、反転してつきまとわれたもの。,新居浜市中村松木一丁目,新居浜市中村松木一丁目,0,red,38.0,愛媛県,エヒメケン,EHIME KEN,38205.0,新居浜市,ニイハマシ,NIIHAMA SHI,382050075001.0,中村松木一丁目,33.941639,133.28985
16,松山東署管内,声かけ,令和2年11月20日(金)午後5時30分ころ,松山市春日町路上,歩道上で話している女性の間に割って入り、何かぶつぶつ言ったり、高校生に近寄ったりしている外国人男性(50〜60歳位、やせ型、短髪、上下灰色様の服、ママチャリ様の暗色自転車利用、眼鏡なし)がいたもの。,松山市春日町,松山市春日町,0,green,38.0,愛媛県,エヒメケン,EHIME KEN,38201.0,松山市,マツヤマシ,MATSUYAMA SHI,382010068000.0,春日町,33.832840999999995,132.76511100000002
17,松山西署管内,声かけ,令和2年11月20日(金)午後4時ころ,松山市馬木町公園内,女児小学生3名が公園内で遊んでいたところ、男(20〜30歳位、やせ型、身長170センチ位、黒色短髪、眼鏡着用)に声をかけられたもの。,松山市馬木町,松山市馬木町,0,green,38.0,愛媛県,エヒメケン,EHIME KEN,38201.0,松山市,マツヤマシ,MATSUYAMA SHI,382010043000.0,馬木町,33.893107,132.744688
18,四国中央署管内,写真撮影,令和2年11月20日(金)午前6時50分ころ,四国中央市川之江町路上,黒色様ズボン、白色ハット帽・ベージュ色靴(オレンジ色の靴ひも)着用、腰に白色様の上着を巻いていた)にカメラ様のものを向けられ、フラッシュを光らせ写真撮影されたもの。,四国中央市川之江町,四国中央市川之江町,0,lightred,38.0,愛媛県,エヒメケン,EHIME KEN,38213.0,四国中央市,シコクチュウオウシ,SHIKOKUCHUO SHI,382130008000.0,川之江町,34.014303999999996,133.57968200000002
19,四国中央署管内,声かけ,令和2年11月19日(木)午後4時40分ころ,四国中央市中之庄町路上,30歳代の女、身長160センチ位、中肉、上下黒色ジャージ、黒色帽子着用)に声をかけられたもの。,四国中央市中之庄町,四国中央市中之庄町,0,green,38.0,愛媛県,エヒメケン,EHIME KEN,38213.0,四国中央市,シコクチュウオウシ,SHIKOKUCHUO SHI,382130046000.0,中之庄町,33.963258,133.536488
20,松山東署管内,不審者,令和2年11月19日(木)午後4時20分ころ,松山市小坂四丁目路上,薄いピンク色)と目があった際に唾を吐きかけられたもの。,松山市小坂四丁目,松山市小坂四丁目,0,purple,38.0,愛媛県,エヒメケン,EHIME KEN,38201.0,松山市,マツヤマシ,MATSUYAMA SHI,382010122004.0,小坂四丁目,33.828254,132.78077199999998
21,松山東署管内,声かけ,令和2年11月18日(水)午後6時10分ころ,松山市針田町路上,女子中学生2名が歩行中、路上で自転車にまたがっていた男(60〜70歳位、中肉、身長160センチ位、肩付近までの長さの髪)に「ちょっといい。全然怖くないから。」などと声をかけられたもの。女子中学生がそれを無視して通り過ぎると、男につきまとわれた。,松山市針田町,松山市針田町,0,green,38.0,愛媛県,エヒメケン,EHIME KEN,38201.0,松山市,マツヤマシ,MATSUYAMA SHI,382010246000.0,針田町,33.822356,132.735852
22,宇和島署管内,写真撮影,令和2年11月18日(水)午後3時55分ころ,宇和島市伊吹町甲路上,女子中学生2名が歩いていたところ、対向してきたオレンジ色の普通車に乗った男(30〜40歳位、中肉、黒色短髪)にスマートフォンを向けられたもの。,宇和島市伊吹町甲,宇和島市伊吹町,0,lightred,38.0,愛媛県,エヒメケン,EHIME KEN,38203.0,宇和島市,ウワジマシ,UWAJIMA SHI,382030005000.0,伊吹町,33.234583,132.57928700000002
23,松山東署管内,暴行,令和2年11月18日(水)午前7時55分ころ,松山市清水町三丁目路上,ズボン、黒色メガネ着用、体臭が強い)にすれ違いざま「挨拶がない。」と声を掛けられ、頭を掴まれ顔を覗き込まれたもの。,松山市清水町三丁目,松山市清水町三丁目,0,red,38.0,愛媛県,エヒメケン,EHIME KEN,38201.0,松山市,マツヤマシ,MATSUYAMA SHI,382010139003.0,清水町三丁目,33.852554,132.765794
24,松山東署管内,声かけ,令和2年11月16日(月)午後5時30分ころ,松山市御幸二丁目路上,赤色と緑色のボーダー柄の服、小柄、黒色様の帽子・サングラス・白色マスク着用)に後方から「どこ中なん。どこに住んでるん。」と声をかけられたもの。,松山市御幸二丁目,松山市御幸二丁目,0,green,38.0,愛媛県,エヒメケン,EHIME KEN,38201.0,松山市,マツヤマシ,MATSUYAMA SHI,382010328002.0,御幸二丁目,33.857609000000004,132.761507
25,松山東署管内,声かけ,令和2年11月16日(月)午後5時30分ころ,松山市御幸二丁目路上,長ズボン、眼鏡着用)に後方から声をかけられたもの。,松山市御幸二丁目,松山市御幸二丁目,1,green,38.0,愛媛県,エヒメケン,EHIME KEN,38201.0,松山市,マツヤマシ,MATSUYAMA SHI,382010328002.0,御幸二丁目,33.857609000000004,132.761507
26,松山西署管内,つきまとい,令和2年11月14日(土)午後0時ころ,松山市中須賀三丁目路上,黒色長ズボン、黒色財布所持)が女児小学生らとすれ違った途端に反転し、後をつきまとったもの。,松山市中須賀三丁目,松山市中須賀三丁目,0,blue,38.0,愛媛県,エヒメケン,EHIME KEN,38201.0,松山市,マツヤマシ,MATSUYAMA SHI,382010220003.0,中須賀三丁目,33.865964,132.720488
27,松山西署管内,つきまとい,令和2年11月14日(土)午前9時20分ころ,松山市西垣生路上,黒色長ズボン)の横を通り過ぎようとしたところ、男に睨みつけられ、自転車から降りた男に走って追いかけられたもの。,松山市西垣生,松山市西垣生,0,blue,,,,,,,,,,,,
28,松山東署管内,つきまとい,令和2年11月13日(金)午後5時30分ころ,松山市枝松三丁目路上から同市枝松二丁目路上までの間,黒色長ズボン)に密着するように後をつきまとわれたもの。,松山市枝松三丁目,松山市枝松三丁目,0,blue,38.0,愛媛県,エヒメケン,EHIME KEN,38201.0,松山市,マツヤマシ,MATSUYAMA SHI,382010048003.0,枝松三丁目,33.832712,132.784868
29,松山東署管内,つきまとい,令和2年11月13日(金)午前11時50分ころ,松山市三番町六丁目路上,黒色スウェットズボン、浅黒い肌、タバコ所持)に信号待ちをしていた際に周囲を周回されたり、道を挟んで並進されたりしたもの。,松山市三番町六丁目,松山市三番町六丁目,0,blue,38.0,愛媛県,エヒメケン,EHIME KEN,38201.0,松山市,マツヤマシ,MATSUYAMA SHI,382010135006.0,三番町六丁目,33.837928000000005,132.76003500000002
30,愛南署管内,声かけ,令和2年11月13日(金)午前6時40分ころ,南宇和郡愛南町満倉路上,長ズボン、濃緑色キャップ帽着用、丸顔、マスク・眼鏡なし)に「朝早いね。」と声を掛けられた。その後、先回りした男に呼び止められ、小銭を手渡されそうになったり、無理矢理ジュースを持たされ、「おっちゃんの顔覚えておいてね。」と声を掛けられたもの。,南宇和郡愛南町満倉,南宇和郡愛南町満倉,0,green,38.0,愛媛県,エヒメケン,EHIME KEN,38506.0,南宇和郡愛南町,ミナミウワグンアイナンチョウ,MINAMIUWA GUN AINAN CHO,385060055000.0,満倉,32.952846,132.608661
31,伊予署管内,つきまとい,令和2年11月12日(木)午後4時ころ,伊予市下吾川路上,黒色半袖Tシャツ、眼鏡・黒色キャップ帽着用、黒色バッグ所持)に走って追いかけられたもの。,伊予市下吾川,伊予市下吾川,0,blue,38.0,愛媛県,エヒメケン,EHIME KEN,38210.0,伊予市,イヨシ,IYO SHI,382100011000.0,下吾川,33.767148999999996,132.70813700000002
32,八幡浜署管内,声かけ,令和2年11月10日(火)午後3時40分ころ,八幡浜市保内町喜木路上,女児小学生が、白色の軽四自動車から降りてきた男(50〜60歳位、身長160センチ位、肥満、黒色マスク・黒色ニット帽着用)に、「一緒に遊ぼう。」と声をかけられたもの。,八幡浜市保内町喜木,八幡浜市保内町喜木,0,green,38.0,愛媛県,エヒメケン,EHIME KEN,38204.0,八幡浜市,ヤワタハマシ,YAWATAHAMA SHI,382040028000.0,保内町喜木,33.48263,132.407975
33,新居浜署管内,つきまとい,令和2年11月9日(月)午後3時15分ころ,新居浜市港町路上,男児小学生が自転車で走行中、幅寄せしてきた車(灰色、白色ナンバープレート)に追い抜かれ、その後、一定の間隔で走行されつきまとわれたもの。,新居浜市港町,新居浜市港町,0,blue,38.0,愛媛県,エヒメケン,EHIME KEN,38205.0,新居浜市,ニイハマシ,NIIHAMA SHI,382050100000.0,港町,33.970667,133.278969
34,八幡浜署管内,つきまとい,令和2年11月7日(土)午後6時30分ころ,八幡浜市五反田屋外施設から同市北浜一丁目路上までの間,男子中学生が屋外施設で遊んでいたところ、男(40〜50歳位、身長155〜165センチ位、茶色コート・黒色野球帽・白色マスク着用、髭・眼鏡なし)に「おー。」と声をかけられた。その後、男子中学生が自転車で移動していると、軽快兼用自転車に乗った同じ男に後方をつきまとわれたもの。,八幡浜市五反田,八幡浜市五反田,0,blue,38.0,愛媛県,エヒメケン,EHIME KEN,38204.0,八幡浜市,ヤワタハマシ,YAWATAHAMA SHI,382040016000.0,五反田,33.448822,132.44089
35,松山東署管内,卑わいな言動,令和2年11月7日(土)午後1時10分ころ,松山市湊町四丁目店舗内,ベージュ色ズボン)がトイレから出てきた際、「ズボンのチャックが閉まらないんです。」と下半身を押さえながら女性店員に声を掛けたもの。,松山市湊町四丁目,松山市湊町四丁目,0,卑わいな言動,38.0,愛媛県,エヒメケン,EHIME KEN,38201.0,松山市,マツヤマシ,MATSUYAMA SHI,382010310004.0,湊町四丁目,33.835795000000005,132.76589199999998
36,松山東署管内,声かけ,令和2年11月7日(土)午後0時25分ころ,松山市溝辺町路上,男子中学生が歩行中、前方から自転車で近づいてきた男(40〜60歳位、やせ型、ニット帽着用、ゴミ袋所持)に意味不明な言葉で怒鳴られたもの。,松山市溝辺町,松山市溝辺町,0,green,38.0,愛媛県,エヒメケン,EHIME KEN,38201.0,松山市,マツヤマシ,MATSUYAMA SHI,382010302000.0,溝辺町,33.851633,132.805997
37,四国中央署管内,つきまとい,令和2年11月6日(金)午後4時10分ころ,四国中央市豊岡町長田路上,黒色長袖パーカー様(チャック付)、黒色帽子・白色マスク着用、手をポケットに入れていた)に凝視され、つきまとわれたもの。,四国中央市豊岡町長田,四国中央市豊岡町長田,0,blue,38.0,愛媛県,エヒメケン,EHIME KEN,38213.0,四国中央市,シコクチュウオウシ,SHIKOKUCHUO SHI,382130043000.0,豊岡町長田,33.966449,133.47471399999998
38,八幡浜署管内,暴行,令和2年11月5日(木)午後3時30分ころ,八幡浜市五反田路上,男児小学生がサッカーの練習をしていたところ、男(60〜80歳位、身長175センチ位、肥満、上下白色作業着、白色キャップ帽、白髪混じりのあご髭あり、眼鏡・マスクなし)に怒鳴られ、腹部を1回殴られたもの。,八幡浜市五反田,八幡浜市五反田,1,red,38.0,愛媛県,エヒメケン,EHIME KEN,38204.0,八幡浜市,ヤワタハマシ,YAWATAHAMA SHI,382040016000.0,五反田,33.448822,132.44089
39,新居浜署管内,身体露出,令和2年11月5日(木)午前8時10分ころ,新居浜市西喜光地町路上,黒色長ズボン)を目撃したもの。,新居浜市西喜光地町,新居浜市西喜光地町,0,orange,38.0,愛媛県,エヒメケン,EHIME KEN,38205.0,新居浜市,ニイハマシ,NIIHAMA SHI,382050078000.0,西喜光地町,33.937527,133.295415
40,四国中央署管内,不審者,令和2年11月1日(日)午後10時30分ころ,四国中央市川之江町マンション通路,男性が自宅マンションに帰宅したところ、男性の家族しか住んでいない階の通路の物陰に男(中肉中背、黒色様の上衣、白色様の下衣、眼鏡・ヘッドフォン着用)が立っていたもの。男は、「こんばんは。」といって立ち去った。,四国中央市川之江町,四国中央市川之江町,1,purple,38.0,愛媛県,エヒメケン,EHIME KEN,38213.0,四国中央市,シコクチュウオウシ,SHIKOKUCHUO SHI,382130008000.0,川之江町,34.014303999999996,133.57968200000002
41,松山東署管内,不審者,令和2年11月1日(日)午後4時15分ころ,松山市土居田町路上,高齢の男が路上にいた小学生数名を追いかけた後、児童施設設置のプラスチック箱を殴って壊したもの。,松山市土居田町,松山市土居田町,0,purple,38.0,愛媛県,エヒメケン,EHIME KEN,38201.0,松山市,マツヤマシ,MATSUYAMA SHI,382010195000.0,土居田町,33.823276,132.746488
42,四国中央署管内,身体露出,令和2年11月1日(日)午後4時ころ,四国中央市妻鳥町店舗駐車場,黒色ズボン)が立っていたもの。,四国中央市妻鳥町,四国中央市妻鳥町,0,orange,38.0,愛媛県,エヒメケン,EHIME KEN,38213.0,四国中央市,シコクチュウオウシ,SHIKOKUCHUO SHI,382130053000.0,妻鳥町,33.991779,133.572307
43,松山西署管内,声かけ,令和2年10月31日(土)午後4時40分ころ,松山市西垣生町公園内,暗色のジャージ、黒縁眼鏡・茶色様ハット帽着用)を目撃したもの。,松山市西垣生町,松山市西垣生町,0,green,38.0,愛媛県,エヒメケン,EHIME KEN,38201.0,松山市,マツヤマシ,MATSUYAMA SHI,382010233000.0,西垣生町,33.813675,132.701207
44,松山南署管内,不審者,令和2年10月30日(金)午前7時45分ころ,東温市牛渕橋上,灰色長ズボン)がズボンの上から下半身に手を当てていたもの。,東温市牛渕橋上,東温市牛渕橋上,0,purple,,,,,,,,,,,,
45,新居浜署管内,つきまとい,令和2年10月29日(木)午後6時20分ころ,新居浜市久保田町三丁目路上,男子中学生2名が自転車で走行中、折りたたみ自転車に乗った男(30〜50歳位、中肉、眼鏡着用)に後をつけられたもの。,新居浜市久保田町三丁目,新居浜市久保田町三丁目,0,blue,38.0,愛媛県,エヒメケン,EHIME KEN,38205.0,新居浜市,ニイハマシ,NIIHAMA SHI,382050026003.0,久保田町三丁目,33.954432000000004,133.28377
46,松山西署管内,写真撮影,令和2年10月28日(水)午後2時ころ,松山市東長戸二丁目一般住宅,黒色ズボン)にブロック塀の穴から一眼カメラで容姿を撮影されたもの。,松山市東長戸二丁目,松山市東長戸二丁目,0,lightred,38.0,愛媛県,エヒメケン,EHIME KEN,38201.0,松山市,マツヤマシ,MATSUYAMA SHI,382010253002.0,東長戸二丁目,33.866919,132.74906299999998
47,松山東署管内,不審者,令和2年10月28日(水)午後0時40分ころ,松山市南江戸三丁目アパート通路,男性が自宅アパートに帰宅した際、男性の家族しか住んでいない階から男(40歳位、小肥、身長175センチ位、黒色の坊主頭、上下黒色様の服、眼鏡・マスクなし)が階段を降りてきたのを不審に思った。男性が「何をしよったんぞ。」と声を掛けると、男は走り去ったもの。男性が帰宅後、この様子を在宅中であった家族に告げると、玄関先で不審な物音がしていたことが判明した。,松山市南江戸三丁目,松山市南江戸三丁目,0,purple,38.0,愛媛県,エヒメケン,EHIME KEN,38201.0,松山市,マツヤマシ,MATSUYAMA SHI,382010313003.0,南江戸三丁目,33.837865,132.745204
48,松山西署管内,不審者,令和2年10月27日(火)午後4時ころ,松山市北条辻路上,女児小学生らが歩いていたところ、ぶつぶつと独り言を言いながら歩いている男(60〜70歳位、身長175センチ位、灰色上衣、黒色下衣、園芸用スコップ所持)を目撃したもの。,松山市北条辻,松山市北条辻,0,purple,38.0,愛媛県,エヒメケン,EHIME KEN,38201.0,松山市,マツヤマシ,MATSUYAMA SHI,382010282000.0,北条辻,33.968379,132.777843
49,松山南署管内,暴行,令和2年10月26日(月)午後9時10分ころ,松山市朝生田町五丁目路上,紺色長ズボン、黒色マスク着用、眼鏡なし、前カゴ・荷台付きの自転車利用)に「邪魔だ。」と言われ、自転車を蹴られたもの。,松山市朝生田町五丁目,松山市朝生田町五丁目,0,red,38.0,愛媛県,エヒメケン,EHIME KEN,38201.0,松山市,マツヤマシ,MATSUYAMA SHI,382010011005.0,朝生田町五丁目,33.820663,132.771511
50,松山南署管内,不審者,令和2年10月26日(月)午後7時ころ,松山市古川北三丁目駐車場,駐車場内でズボンの上から下半身を触っている男(中肉、上下黒色スウェット、半キャップ型ヘルメット着用)を目撃したもの。,松山市古川北三丁目,松山市古川北三丁目,0,purple,38.0,愛媛県,エヒメケン,EHIME KEN,38201.0,松山市,マツヤマシ,MATSUYAMA SHI,382010273003.0,古川北三丁目,33.810955,132.764327
51,西条署管内,身体露出,令和2年10月26日(月)午後4時30分ころ,西条市古川甲路上,黒色様ジャージ様ズボン、ショルダーバッグ所持)が立ち上がる姿が目撃されたもの。,西条市古川甲,西条市古川,0,orange,,,,,,,,,,,,
52,新居浜署管内,住居侵入,令和2年10月26日(月)午後4時30分ころ,新居浜市桜木町一般住宅敷地内,黒色ジャージ様長ズボン、眼鏡・マスク・髭なし、白色のマルチーズを連れていた)が立っていたもの。女性が男に立ち去るよう申し向けると、「子どもと遊びたい。」などと言い、しばらくして立ち去った。,新居浜市桜木町,新居浜市桜木町,1,darkred,38.0,愛媛県,エヒメケン,EHIME KEN,38205.0,新居浜市,ニイハマシ,NIIHAMA SHI,382050038000.0,桜木町,33.968146999999995,133.299844
53,松山東署管内,声かけ,令和2年10月23日(金)午後5時45分ころ,松山市余戸東二丁目路上,青色ハーフパンツ(側面に赤色と黄色のライン入り)、口髭あり、マスクなし)に「ちょっと来て。」と声を掛けられ、通学路等について尋ねられたもの。,松山市余戸東二丁目,松山市余戸東二丁目,0,green,38.0,愛媛県,エヒメケン,EHIME KEN,38201.0,松山市,マツヤマシ,MATSUYAMA SHI,382010353002.0,余戸東二丁目,33.813615000000006,132.734733
54,宇和島署管内,写真撮影,令和2年10月23日(金)午前7時25分ころ,宇和島市内を走行中の列車内,黒色スラックス、白色マスク着用、薄緑色手提げカバン(小さめ)、緑色弁当箱、黒色ショルダーバッグ所持)にスマートフォンを向けられたもの。,宇和島市内を走行中の列車内,宇和島市内を走行中の列車内,0,lightred,,,,,,,,,,,,
55,大洲署管内,つきまとい,令和2年10月21日(水)午後2時40分ころ,喜多郡内子町内子路上,女児小学生3名が徒歩で移動中、男(40〜50歳位、中肉、身長170センチ位、上下灰色様スウェット、フードを被っている、黒色ネックウォーマー様の大きなマスクを鼻下に着用)に後方をつきまとわれたもの。,喜多郡内子町内子,喜多郡内子町内子,0,blue,38.0,愛媛県,エヒメケン,EHIME KEN,38422.0,喜多郡内子町,キタグンウチコチョウ,KITA GUN UCHIKO CHO,384220005000.0,内子,33.551735,132.64787900000002
56,松山東署管内,声かけ,令和2年10月21日(水)午前7時30分ころ,松山市土橋町路上,小学生に対し、「なんで集団登校せんの。」「怒っとるん。怒らんとって。」などと声をかけている男(40歳位、身長170センチ位、中肉、黒色短髪、上下灰色ジャージ、眼鏡・マスクなし)を、付近住民が目撃したもの。,松山市土橋町,松山市土橋町,0,green,38.0,愛媛県,エヒメケン,EHIME KEN,38201.0,松山市,マツヤマシ,MATSUYAMA SHI,382010212000.0,土橋町,33.833055,132.756549
57,松山南署管内,不審者,令和2年10月20日(火)午後7時ころ,松山市古川北一丁目路上,黒色様長ズボン、黒色リュックサック)を付近住民が目撃したもの。,松山市古川北一丁目,松山市古川北一丁目,0,purple,38.0,愛媛県,エヒメケン,EHIME KEN,38201.0,松山市,マツヤマシ,MATSUYAMA SHI,382010273001.0,古川北一丁目,33.814687,132.76428700000002
58,大洲署管内,声かけ,令和2年10月20日(火)午後4時ころ,喜多郡内子町内子路上,男児小学生が歩いて移動中、道端に立っていた男(60〜70歳位、身長175センチ位、やせ型、上下水色作業着、野球帽着用、A4サイズ大のカバン様のもの所持)に挨拶したところ、男に名前を尋ねられた。男児小学生が名前を言わずに立ち去ろうとしたところ、男に手を掴まれ「宿題、多かった?」と声をかけられたもの。,喜多郡内子町内子,喜多郡内子町内子,1,green,38.0,愛媛県,エヒメケン,EHIME KEN,38422.0,喜多郡内子町,キタグンウチコチョウ,KITA GUN UCHIKO CHO,384220005000.0,内子,33.551735,132.64787900000002
59,松山東署管内,暴行,令和2年10月20日(火)午前7時35分ころ,松山市松末一丁目路上,黒色長ズボン、眼鏡・マスクなし)に突然、空のペットボトルを投げつけられたもの。,松山市松末一丁目,松山市松末一丁目,0,red,38.0,愛媛県,エヒメケン,EHIME KEN,38201.0,松山市,マツヤマシ,MATSUYAMA SHI,382010296001.0,松末一丁目,33.826837,132.790334
60,大洲署管内,不審者,令和2年10月19日(月)午後9時15分ころ,大洲市若宮路上,白色様ズボン、青色ビニールテープ様で装飾した紙袋様の覆面を被っていた)が自転車で走行しているのを通行人が目撃したもの。,大洲市若宮,大洲市若宮,0,purple,38.0,愛媛県,エヒメケン,EHIME KEN,38207.0,大洲市,オオズシ,OZU SHI,382070082000.0,若宮,33.521514,132.549221
61,松山南署管内,つきまとい,令和2年10月19日(月)午後9時15分ころ,松山市森松町路上,女子高校生が自転車で走行中、スクーターに乗った男(10〜20歳位、中肉、茶髪様、半キャップ型ヘルメット着用)に一定の間隔で後をつきまとわれたもの。,松山市森松町,松山市森松町,0,blue,38.0,愛媛県,エヒメケン,EHIME KEN,38201.0,松山市,マツヤマシ,MATSUYAMA SHI,382010337000.0,森松町,33.789207,132.791713
62,松山東署管内,つきまとい,令和2年10月19日(月)午前4時ころ,松山市立花一丁目路上から同市束本一丁目路上までの間,女性が自転車で走行中、バイク(カブ)に乗った行為者(特徴不明)に後方をつきまとわれたもの。,松山市立花一丁目,松山市立花一丁目,0,blue,38.0,愛媛県,エヒメケン,EHIME KEN,38201.0,松山市,マツヤマシ,MATSUYAMA SHI,382010178001.0,立花一丁目,33.831443,132.771511
63,西条西署管内,声かけ,令和2年10月18日(日)午前10時15分ころ,西条市石田歩道上,女性が歩行中、緑色の自転車に乗車した男(35〜50歳位、上下灰色スウェット、眼鏡・髭・帽子なし)にすれ違いざま中指を立てられ、暴言を吐かれたもの。,西条市石田歩道上,西条市石田歩道上,0,green,,,,,,,,,,,,
64,新居浜署管内,声かけ,令和2年10月16日(金)午後7時ころ,新居浜市久保田町三丁目路上,女子中学生が自転車で走行中、自転車(前カゴ付、ママチャリ)に乗車した男(高齢、やせ型、眼鏡なし)にすれ違いざま「ねえねえ、お嬢ちゃん。」と声をかけられたもの。,新居浜市久保田町三丁目,新居浜市久保田町三丁目,1,green,38.0,愛媛県,エヒメケン,EHIME KEN,38205.0,新居浜市,ニイハマシ,NIIHAMA SHI,382050026003.0,久保田町三丁目,33.954432000000004,133.28377
65,松山東署管内,声かけ,令和2年10月16日(金)午前7時15分ころ,松山市三町二丁目路上,薄いベージュ色の無地の短パン、眼鏡・マスク・髭なし)に聞き取れない言葉で声をかけられたもの。,松山市三町二丁目,松山市三町二丁目,0,green,38.0,愛媛県,エヒメケン,EHIME KEN,38201.0,松山市,マツヤマシ,MATSUYAMA SHI,382010134002.0,三町二丁目,33.826232,132.795068
66,新居浜署管内,身体露出,令和2年10月15日(木)午後6時ころ,新居浜市国領公園内,黒色様上着)に「こんばんは。」と声をかけられた。その後、男は公園をうろついており、女子中学生らが気がつくと、全裸になっていたもの。,新居浜市国領,新居浜市国領,0,orange,,,,,,,,,,,,
67,西条署管内,身体露出,令和2年10月15日(木)午後4時30分ころ,西条市飯岡空き地,ズボン)が空き地でズボンを膝まで下げて立っていたもの。,西条市飯岡空き地,西条市飯岡空き地,0,orange,,,,,,,,,,,,
68,松山東署管内,ちかん,令和2年10月14日(水)午後10時ころ,松山市柳井町三丁目路上,ベージュ色様チノパン、灰色かベージュ色様のキャップ帽着用、眼鏡・マスクなし)に追い越しざま身体を触られたもの。,松山市柳井町三丁目,松山市柳井町三丁目,0,gray,38.0,愛媛県,エヒメケン,EHIME KEN,38201.0,松山市,マツヤマシ,MATSUYAMA SHI,382010340003.0,柳井町三丁目,33.834441,132.766087
69,宇和島署管内,写真撮影,令和2年10月13日(火)午後6時ころ,宇和島市神田川原路上,黒色様Tシャツ、運転席に特徴不明の男性乗車)に走行中の車内からスマートフォン(銀色様)を向けられたもの。,宇和島市神田川原,宇和島市神田川原,0,lightred,38.0,愛媛県,エヒメケン,EHIME KEN,38203.0,宇和島市,ウワジマシ,UWAJIMA SHI,382030029000.0,神田川原,33.213339000000005,132.563531
70,四国中央署管内,不審者,令和2年10月13日(火)午前9時30分ころ,四国中央市中之庄町路上,男(20〜30歳位、身長160〜170センチ、小肥、黒髪、上下黒色ジャージ、白色マスク着用、黒色リュックサック所持)が住宅地の路地を、一般家屋の様子を窺いながら徘徊していたもの。1ヶ月程前にも同じ男が同様に徘徊している姿が目撃されている。,四国中央市中之庄町,四国中央市中之庄町,1,purple,38.0,愛媛県,エヒメケン,EHIME KEN,38213.0,四国中央市,シコクチュウオウシ,SHIKOKUCHUO SHI,382130046000.0,中之庄町,33.963258,133.536488
71,松山西署管内,写真撮影,令和2年10月12日(月)午後5時50分ころ,松山市堀江町甲公園内,白色Tシャツ)に近づかれ、スマートフォンで容姿を撮影されたもの。,松山市堀江町甲,松山市堀江町,0,lightred,38.0,愛媛県,エヒメケン,EHIME KEN,38201.0,松山市,マツヤマシ,MATSUYAMA SHI,382010288000.0,堀江町,33.908885,132.75913799999998
72,松山西署管内,身体露出,令和2年10月12日(月)午後5時30分ころ,松山市山西町路上,短パン、リュックサック所持、髭・眼鏡なし)が短パンのファスナーから下半身を出して走行中の電車に手を振っていたもの。翌13日も同人が目撃されている。,松山市山西町,松山市山西町,0,orange,38.0,愛媛県,エヒメケン,EHIME KEN,38201.0,松山市,マツヤマシ,MATSUYAMA SHI,382010345000.0,山西町,33.850953999999994,132.727614
73,松山西署管内,声かけ,令和2年10月12日(月)午後4時ころ,松山市北斎院町公園内,こげ茶色ズボン、眼鏡着用、カメラ所持)に「撮ってあげようか。」と声をかけられたもの。,松山市北斎院町,松山市北斎院町,0,green,38.0,愛媛県,エヒメケン,EHIME KEN,38201.0,松山市,マツヤマシ,MATSUYAMA SHI,382010095000.0,北斎院町,33.839402,132.723636
74,松山西署管内,声かけ,令和2年10月12日(月)午後3時30分ころ,松山市南斎院町路上,男児小学生2名が歩いていたところ、突然、男に「わっ。」と声をかけられたもの。,松山市南斎院町,松山市南斎院町,0,green,38.0,愛媛県,エヒメケン,EHIME KEN,38201.0,松山市,マツヤマシ,MATSUYAMA SHI,382010316000.0,南斎院町,33.83303,132.731679
75,松山東署管内,声かけ,令和2年10月12日(月)午前1時40分ころ,松山市樽味三丁目路上,黒色長ズボン、黒色帽子、白色マスク着用)に下品な言葉をかけられながら、つきまとわれたもの。,松山市樽味三丁目,松山市樽味三丁目,0,green,38.0,愛媛県,エヒメケン,EHIME KEN,38201.0,松山市,マツヤマシ,MATSUYAMA SHI,382010184003.0,樽味三丁目,33.838703,132.793363
76,松山東署管内,つきまとい,令和2年10月11日(日)午後5時15分ころ,松山市湯渡町路上から同市持田町一丁目路上までの間,長ズボン、身長は高くない、眼鏡なし)にジロジロと見られた上、約500メートルにわたってつきまとわれたもの。,松山市湯渡町,松山市湯渡町,0,blue,38.0,愛媛県,エヒメケン,EHIME KEN,38201.0,松山市,マツヤマシ,MATSUYAMA SHI,382010350000.0,湯渡町,33.840046,132.783517
77,四国中央署管内,不審者,令和2年10月11日(日)午後3時30分ころ,四国中央市上分町路上,白色ズボン、眼鏡・マスク着用、ビニール包装されたままの新聞所持)に窓越しに凝視されたもの。,四国中央市上分町,四国中央市上分町,0,purple,38.0,愛媛県,エヒメケン,EHIME KEN,38213.0,四国中央市,シコクチュウオウシ,SHIKOKUCHUO SHI,382130005000.0,上分町,33.989088,133.588503
78,松山南署管内,写真撮影,令和2年10月10日(土)午後5時30分ころ,東温市野田公園内,黒色長ズボン、マスクなし)に「かっこいいグランドだね、写真撮りたいから入って。」と声をかけられ、承諾した男児2名がスマートフォン(紺色カバー付)で写真を撮られたもの。,東温市野田,東温市野田,0,lightred,,,,,,,,,,,,
79,今治署管内,声かけ,令和2年10月10日(土)午前10時ころ,今治市朝倉下甲路上,紺色ズボン、黒色肩掛けバッグ所持)に「どこ行くん、1000円あげる。」などと声をかけられたもの。,今治市朝倉下甲,今治市朝倉下,0,green,38.0,愛媛県,エヒメケン,EHIME KEN,38202.0,今治市,イマバリシ,IMABARI SHI,382020004000.0,朝倉下,34.001753,133.01437099999998
80,松山東署管内,声かけ,令和2年10月8日(木)午後7時05分ころ,松山市土居田町路上,灰色ハーフパンツ)に「友達まっとるんか、塾遠いの大変だね、家まできたら教えるよ。」などと声をかけられたもの。,松山市土居田町,松山市土居田町,1,green,38.0,愛媛県,エヒメケン,EHIME KEN,38201.0,松山市,マツヤマシ,MATSUYAMA SHI,382010195000.0,土居田町,33.823276,132.746488
81,松山南署管内,声かけ,令和2年10月7日(水)午後7時50分ころ,松山市森松町路上,灰色様ズボン)にすれ違いざま「面白い。」などと言われながら鼻で笑われたもの。その後、男は反転して女性を見つめながら立ち去った。,松山市森松町,松山市森松町,1,green,38.0,愛媛県,エヒメケン,EHIME KEN,38201.0,松山市,マツヤマシ,MATSUYAMA SHI,382010337000.0,森松町,33.789207,132.791713
82,松山東署管内,凶器所持,令和2年10月7日(水)午後5時ころ,松山市松末一丁目路上,ジーパン、灰色リュックサック所持)を追い抜いた際、男が背負っていたリュックから銀色に光るサバイバルナイフ様のものを取り出し、「シュッシュッ」と言いながら振り回しているのを目撃したもの。,松山市松末一丁目,松山市松末一丁目,1,凶器所持,38.0,愛媛県,エヒメケン,EHIME KEN,38201.0,松山市,マツヤマシ,MATSUYAMA SHI,382010296001.0,松末一丁目,33.826837,132.790334
83,松山東署管内,写真撮影,令和2年10月7日(水)午後4時30分ころ,松山市空港通公園内,男児小学生ら5名程が公園で遊んでいたところ、隣接する建物の物陰から男にカメラを向けられ、写真を撮られたもの。,松山市空港通,松山市空港通,0,lightred,,,,,,,,,,,,
84,四国中央署管内,写真撮影,令和2年10月7日(水)午後4時ころ,四国中央市中曽根町路上,男性の自宅に男(中肉、黒色短髪、上下黒色様スーツ、眼鏡・マスク着用)に黒色様スマートフォンを向けられたもの。,四国中央市中曽根町,四国中央市中曽根町,0,lightred,38.0,愛媛県,エヒメケン,EHIME KEN,38213.0,四国中央市,シコクチュウオウシ,SHIKOKUCHUO SHI,382130045000.0,中曽根町,33.965099,133.54918600000002
85,松山西署管内,写真撮影,令和2年10月7日(水)午後3時ころ,松山市府中路上,男児小学生らが歩いていたところ、後方からきた女(25〜30歳位、身長160センチ位、中肉、黒色短髪、上下白色の服、眼鏡着用、茶色の肩掛けカバン所持)につきまとわれた上、スマートフォンで容姿を撮影されたもの。,松山市府中,松山市府中,0,lightred,38.0,愛媛県,エヒメケン,EHIME KEN,38201.0,松山市,マツヤマシ,MATSUYAMA SHI,382010270000.0,府中,33.955365,132.77572800000002
86,伊予署管内,つきまとい,令和2年10月7日(水)午後1時40分ころ,伊予郡松前町大字上高柳路上,赤色Tシャツ)が歩道中央で停車した。女子高校生らが男の脇を通り過ぎたところ、男が怒鳴りながら反転し、自転車で執拗につきまとわれたもの。,伊予郡松前町大字上高柳,伊予郡松前町大字上高柳,0,blue,38.0,愛媛県,エヒメケン,EHIME KEN,38401.0,伊予郡松前町,イヨグンマサキチョウ,IYO GUN MASAKI CHO,384010003000.0,大字上高柳,33.798934,132.731295
87,今治署管内,不審者,令和2年10月7日(水)午前7時10分ころ,今治市郷本町一丁目路上,長ズボン、頬に傷あり)が「うわああ。」などと何度も叫びながら走行するのを目撃したもの。,今治市郷本町一丁目,今治市郷本町一丁目,0,purple,38.0,愛媛県,エヒメケン,EHIME KEN,38202.0,今治市,イマバリシ,IMABARI SHI,382020085001.0,郷本町一丁目,34.048052,132.996979
88,新居浜署管内,つきまとい,令和2年10月6日(火)午後6時30分ころ,新居浜市田所町路上,白色半ズボン、黒色サングラス着用)に後をつきまとわれたもの。,新居浜市田所町,新居浜市田所町,0,blue,38.0,愛媛県,エヒメケン,EHIME KEN,38205.0,新居浜市,ニイハマシ,NIIHAMA SHI,382050061000.0,田所町,33.96304,133.288167
89,新居浜署管内,暴行,令和2年10月6日(火)午後4時30分ころ,新居浜市宇高町五丁目路上,白色様長ズボン、青色キャップ帽着用、大きめの柴犬を連れている)に手を掴まれ、頭部を叩かれたもの。,新居浜市宇高町五丁目,新居浜市宇高町五丁目,0,red,38.0,愛媛県,エヒメケン,EHIME KEN,38205.0,新居浜市,ニイハマシ,NIIHAMA SHI,382050007005.0,宇高町五丁目,33.974334000000006,133.308428
90,松山東署管内,声かけ,令和2年10月6日(火)午後4時10分ころ,松山市大手町一丁目駐輪場,黒色ズボン、頭部に水色のタオルを巻いている、白色マスク着用、口髭あり)に下品な言葉をかけられた上、後方をつきまとわれたもの。,松山市大手町一丁目,松山市大手町一丁目,0,green,38.0,愛媛県,エヒメケン,EHIME KEN,38201.0,松山市,マツヤマシ,MATSUYAMA SHI,382010055001.0,大手町一丁目,33.839926,132.757116
91,西条西署管内,声かけ,令和2年10月5日(月)午後4時ころ,西条市三津屋路上,紺色様暗めのズボン、黒色キャップ帽着用、眼鏡なし、細いつり目、細長な輪郭、眉が細い)に小声でボソボソと道を聞かれた後、「飴あげる、家まで送ってあげる。」と言われたもの。,西条市三津屋,西条市三津屋,0,green,38.0,愛媛県,エヒメケン,EHIME KEN,38206.0,西条市,サイジョウシ,SAIJO SHI,382060149000.0,三津屋,33.934752,133.086945
92,松山西署管内,つきまとい,令和2年10月5日(月)午後3時30分ころ,松山市南吉田町路上,黒色半ズボン、黒色帽子・サングラス着用)につきまとわれたもの。男児小学生が自宅に入り、窓から自宅の外を見たところ、男が男児小学生の自宅玄関前に立っていた。,松山市南吉田町,松山市南吉田町,0,blue,38.0,愛媛県,エヒメケン,EHIME KEN,38201.0,松山市,マツヤマシ,MATSUYAMA SHI,382010323000.0,南吉田町,33.827937,132.703969
93,新居浜署管内,身体露出,令和2年10月5日(月)午前8時40分ころ,新居浜市平形町路上,ズボン、フードを被っていた)の前を通り過ぎようとしたところ、男が膝までズボンを下ろして下半身を露出しているのに気がついたもの。,新居浜市平形町,新居浜市平形町,0,orange,38.0,愛媛県,エヒメケン,EHIME KEN,38205.0,新居浜市,ニイハマシ,NIIHAMA SHI,382050087000.0,平形町,33.962381,133.29387
94,松山南署管内,つきまとい,令和2年10月5日(月)午前7時ころ,松山市居相四丁目路上から同市井門町路上までの間,黒色ハーフパンツ、黒縁眼鏡・白色スニーカー着用、ヘルメットなし)に執拗に後方をつきまとわれ、「これから一緒にどっか行く。」などと声をかけられたもの。,松山市居相四丁目,松山市居相四丁目,0,blue,38.0,愛媛県,エヒメケン,EHIME KEN,38201.0,松山市,マツヤマシ,MATSUYAMA SHI,382010016004.0,居相四丁目,33.807749,132.77033500000002
95,四国中央署管内,声かけ,令和2年10月3日(土)午後8時30分ころ,四国中央市妻鳥町店舗内,女子高校生が店内にいたところ、男(60〜70歳位、中肉、身長160センチ位、眼鏡・マスク着用)に「お金あげるけん、一緒においで。」などと声をかけられたもの。,四国中央市妻鳥町,四国中央市妻鳥町,1,green,38.0,愛媛県,エヒメケン,EHIME KEN,38213.0,四国中央市,シコクチュウオウシ,SHIKOKUCHUO SHI,382130053000.0,妻鳥町,33.991779,133.572307
96,松山東署管内,声かけ,令和2年10月1日(木)午後10時05分ころ,松山市宮西一丁目路上,紺色半ズボン)が赤信号を無視して道路を横断して来て、「何しよんぞ、チビ。」と声を掛けてきたもの。,松山市宮西一丁目,松山市宮西一丁目,0,green,38.0,愛媛県,エヒメケン,EHIME KEN,38201.0,松山市,マツヤマシ,MATSUYAMA SHI,382010326001.0,宮西一丁目,33.845813,132.752728
97,愛南署管内,不審者,令和2年10月1日(木)午後4時ころ,南宇和郡愛南町須ノ川路上,20〜30歳位、中肉、黒髪、上下黒色の服)に乗った男(20〜30歳位、肥満、黒髪)がクラクションを数回吹鳴した上、凝視して通過して行ったもの。翌2日午後4時頃にも、男子中学生が歩行中に同じ車にクラクションを吹鳴されている。,南宇和郡愛南町須ノ川,南宇和郡愛南町須ノ川,0,purple,38.0,愛媛県,エヒメケン,EHIME KEN,38506.0,南宇和郡愛南町,ミナミウワグンアイナンチョウ,MINAMIUWA GUN AINAN CHO,385060028000.0,須ノ川,33.037492,132.494022
98,松山南署管内,つきまとい,令和2年9月30日(水)午後7時30分ころ,伊予郡砥部町高尾田路上,半ズボン、半キャップ型ヘルメット・黒縁で四角の眼鏡着用、黒色様のオートバイ利用)に、先回りされたり、後方をつきまとわれたりしたもの。,伊予郡砥部町高尾田,伊予郡砥部町高尾田,0,blue,38.0,愛媛県,エヒメケン,EHIME KEN,38402.0,伊予郡砥部町,イヨグントベチョウ,IYO GUN TOBE CHO,384020020000.0,高尾田,33.779877,132.795277
99,松山西署管内,つきまとい,令和2年9月28日(月)午後3時15分ころ,松山市西垣生町公園内,黒色長ズボン、黒色キャップ帽着用(目が隠れる位深く着用)、眼鏡・マスクなし)に見られた。その後、女児小学生らが自転車で公園を離れると、男も黒色軽快兼用自転車で後方をつきまとってきたもの。,松山市西垣生町,松山市西垣生町,1,blue,38.0,愛媛県,エヒメケン,EHIME KEN,38201.0,松山市,マツヤマシ,MATSUYAMA SHI,382010233000.0,西垣生町,33.813675,132.701207
100,伊予署管内,ちかん,令和2年9月28日(月)午前8時10分ころ,伊予郡松前町大字上高柳路上,女子高校生が自転車で走行中、自転車(黒色ママチャリ)に乗った男(40〜50歳位、小肥、白髪混じり短髪、眼鏡着用、口の周りに無精ひげあり、マスクなし)に後方をつきまとわれた後、身体を触られたもの。,伊予郡松前町大字上高柳,伊予郡松前町大字上高柳,1,gray,38.0,愛媛県,エヒメケン,EHIME KEN,38401.0,伊予郡松前町,イヨグンマサキチョウ,IYO GUN MASAKI CHO,384010003000.0,大字上高柳,33.798934,132.731295
101,松山東署管内,写真撮影,令和2年9月26日(土)午後1時20分ころ,松山市新石手路上,白色ワイシャツ)につきまとわれ、車内からスマートフォンを向けられたもの。,松山市新石手,松山市新石手,0,lightred,38.0,愛媛県,エヒメケン,EHIME KEN,38201.0,松山市,マツヤマシ,MATSUYAMA SHI,382010151000.0,新石手,33.845483,132.799744
102,愛南署管内,声かけ,令和2年9月24日(木)午後3時10分ころ,南宇和郡愛南町城辺甲共同住宅敷地内,黒色ズボン、眼鏡なし、自転車利用(前かごあり、青色タイヤホイール))に「お菓子あげるけん。そこは僕のおうちじゃないよ。」等と声をかけられたもの。,南宇和郡愛南町城辺甲共同,南宇和郡愛南町城辺甲共同,0,green,,,,,,,,,,,,
103,西条西署管内,声かけ,令和2年9月24日(木)午前7時45分ころ,西条市三津屋駐輪場,灰色様半ズボン、眼鏡着用)に「今日テストなの。」「普通科。」「どこの学校。」などと15分にわたって質問されたもの。,西条市三津屋,西条市三津屋,1,green,38.0,愛媛県,エヒメケン,EHIME KEN,38206.0,西条市,サイジョウシ,SAIJO SHI,382060149000.0,三津屋,33.934752,133.086945
104,松山南署管内,身体露出,令和2年9月23日(水)午後9時30分ころ,松山市古川西一丁目店舗駐車場,灰色短パン、眼鏡着用)を勤務中の女性が目撃したもの。,松山市古川西一丁目,松山市古川西一丁目,0,orange,38.0,愛媛県,エヒメケン,EHIME KEN,38201.0,松山市,マツヤマシ,MATSUYAMA SHI,382010274001.0,古川西一丁目,33.810567999999996,132.75696499999998
105,松山西署管内,声かけ,令和2年9月23日(水)午後5時10分ころ,松山市南斎院町路上,黒色長ズボン)の横を通り過ぎた際、男に「家どこ。」と声をかけられたもの。,松山市南斎院町,松山市南斎院町,1,green,38.0,愛媛県,エヒメケン,EHIME KEN,38201.0,松山市,マツヤマシ,MATSUYAMA SHI,382010316000.0,南斎院町,33.83303,132.731679
106,西条署管内,つきまとい,令和2年9月22日(火)午後7時30分ころ,西条市大町路上,黒色七分丈ズボン、黒縁眼鏡着用)に凝視され、移動先にもつきまとい、付近をうろつかれたもの。,西条市大町,西条市大町,0,blue,38.0,愛媛県,エヒメケン,EHIME KEN,38206.0,西条市,サイジョウシ,SAIJO SHI,382060018000.0,大町,33.911623999999996,133.189252
107,松山東署管内,声かけ,令和2年9月22日(火)午後6時50分ころ,松山市湊町四丁目路上,青色ジーパン、黒色靴・マスク着用、黒色リュック所持)に、「今からお茶どうですか。」「ライン交換しませんか。」などと声をかけられながら、つきまとわれたもの。,松山市湊町四丁目,松山市湊町四丁目,1,green,38.0,愛媛県,エヒメケン,EHIME KEN,38201.0,松山市,マツヤマシ,MATSUYAMA SHI,382010310004.0,湊町四丁目,33.835795000000005,132.76589199999998
108,松山東署管内,写真撮影,令和2年9月22日(火)午前11時15分ころ,松山市宮田町店内,青色様半袖、オレンジ色軽四自動車利用)にスマートフォン(灰色)を向けられ、容姿を撮影されたもの。,松山市宮田町店内,松山市宮田町店内,0,lightred,,,,,,,,,,,,
109,宇和島署管内,声かけ,令和2年9月20日(日)午後5時30分ころ,宇和島市伊吹町甲路上,男児小学生が歩いていたところ、後方から近づいてきた車(紺色)に乗った男(60歳位、白髪混じりの髪、黒色様ジャージ様の上衣、マスク着用)に「おうちはどこ、どこまで帰るの、乗せてあげようか。」と声をかけられたもの。,宇和島市伊吹町甲,宇和島市伊吹町,1,green,38.0,愛媛県,エヒメケン,EHIME KEN,38203.0,宇和島市,ウワジマシ,UWAJIMA SHI,382030005000.0,伊吹町,33.234583,132.57928700000002
110,大洲署管内,声かけ,令和2年9月19日(土)午後2時ころ,大洲市東大洲店舗駐車場,黒色短パン、黒色マスク着用)に「○○にはどうやって行くの。」「どこの高校、かわいいね。」等と声をかけられたもの。,大洲市東大洲,大洲市東大洲,1,green,38.0,愛媛県,エヒメケン,EHIME KEN,38207.0,大洲市,オオズシ,OZU SHI,382070061000.0,東大洲,33.527646000000004,132.571139
111,松山南署管内,つきまとい,令和2年9月19日(土)午前1時ころ,松山市古川北一丁目路上,女性が自転車を押して歩いていたところ、車(黄色)に乗った男(30〜40歳位、眼鏡なし)に少し距離を空けて追従され、移動先にある駐車場に駐車して先回りされたもの。,松山市古川北一丁目,松山市古川北一丁目,1,blue,38.0,愛媛県,エヒメケン,EHIME KEN,38201.0,松山市,マツヤマシ,MATSUYAMA SHI,382010273001.0,古川北一丁目,33.814687,132.76428700000002
112,松山東署管内,つきまとい,令和2年9月18日(金)午後3時ころ,松山市大街道一丁目路上,黒色スラックス、縁なし眼鏡着用)が後方に立っていたもの。,松山市大街道一丁目,松山市大街道一丁目,0,blue,38.0,愛媛県,エヒメケン,EHIME KEN,38201.0,松山市,マツヤマシ,MATSUYAMA SHI,382010052001.0,大街道一丁目,33.83716,132.77011000000002
113,四国中央署管内,のぞき・盗撮,令和2年9月17日(木)午後8時30分ころ,四国中央市土居町津根一般住宅,女性が自宅浴室で入浴中、普段開けない窓が開いていたことから一度窓を閉め、気にしていると、再度窓が開いておりその窓越しに何者かの指が見えたもの。,四国中央市土居町津根,四国中央市土居町津根,0,pink,38.0,愛媛県,エヒメケン,EHIME KEN,38213.0,四国中央市,シコクチュウオウシ,SHIKOKUCHUO SHI,382130030000.0,土居町津根,33.967002,133.45345
114,新居浜署管内,身体露出,令和2年9月17日(木)午後7時25分ころ,新居浜市庄内町二丁目路上,黒色短パン、帽子・眼鏡・マスクなし)が聞き取れない言葉を発しながら近づいてきたもの。男は「ごめんごめん」と言いながら立ち去った。,新居浜市庄内町二丁目,新居浜市庄内町二丁目,0,orange,38.0,愛媛県,エヒメケン,EHIME KEN,38205.0,新居浜市,ニイハマシ,NIIHAMA SHI,382050046002.0,庄内町二丁目,33.958362,133.295128
115,松山東署管内,つきまとい,令和2年9月17日(木)午後4時40分ころ,松山市平和通六丁目路上,黒色ジーパン、目が細い)に凝視された。その後、男は女子中学生を追い抜き、女子中学生の進行方向で待ち伏せたもの。,松山市平和通六丁目,松山市平和通六丁目,0,blue,38.0,愛媛県,エヒメケン,EHIME KEN,38201.0,松山市,マツヤマシ,MATSUYAMA SHI,382010279006.0,平和通六丁目,33.84763,132.75656999999998
116,新居浜署管内,暴行,令和2年9月17日(木)午後4時30分ころ,新居浜市垣生六丁目路上,灰色半袖シャツ、青色ポーチ様所持、帽子・眼鏡・マスクなし)に腕を掴まれ、暴言を吐かれたもの。,新居浜市垣生六丁目,新居浜市垣生六丁目,0,red,38.0,愛媛県,エヒメケン,EHIME KEN,38205.0,新居浜市,ニイハマシ,NIIHAMA SHI,382050086006.0,垣生六丁目,33.987893,133.318059
117,今治署管内,のぞき・盗撮,令和2年9月16日(水)午後10時30分ころ,今治市宮下町一丁目路上,地味な印象の服装、小さめの肩掛けバッグ、スマートフォン所持)が立っていたのを目撃している。,今治市宮下町一丁目,今治市宮下町一丁目,0,pink,38.0,愛媛県,エヒメケン,EHIME KEN,38202.0,今治市,イマバリシ,IMABARI SHI,382020200001.0,宮下町一丁目,34.068459000000004,132.98826
118,松山東署管内,声かけ,令和2年9月16日(水)午後4時45分ころ,松山市鴨川一丁目路上,黒色短パン、色黒、眼鏡なし)に下品な言葉をかけられたもの。,松山市鴨川一丁目,松山市鴨川一丁目,0,green,38.0,愛媛県,エヒメケン,EHIME KEN,38201.0,松山市,マツヤマシ,MATSUYAMA SHI,382010082001.0,鴨川一丁目,33.87323,132.753266
119,松山東署管内,写真撮影等,令和2年9月16日(水)午後3時30分ころ,松山市木屋町一丁目路上,女子中学生2名が歩いていたところ、路上に立つ男(50歳位、小肥、身長160〜170センチ位、禿げている)にニヤニヤしながら女子中学生らの歩みに合わせてガラケーを向けられたもの。,松山市木屋町一丁目,松山市木屋町一丁目,0,写真撮影等,38.0,愛媛県,エヒメケン,EHIME KEN,38201.0,松山市,マツヤマシ,MATSUYAMA SHI,382010103001.0,木屋町一丁目,33.848553,132.760285
120,松山東署管内,声かけ,令和2年9月15日(火)午後8時30分ころ,松山市北立花町路上,ボクサーパンツ、マスク・眼鏡・髭なし)が下半身を触りながら下品な言葉をかけてきたもの。,松山市北立花町,松山市北立花町,0,green,38.0,愛媛県,エヒメケン,EHIME KEN,38201.0,松山市,マツヤマシ,MATSUYAMA SHI,382010096000.0,北立花町,33.834261,132.77277
121,松山東署管内,つきまとい,令和2年9月15日(火)午後7時30分ころ,松山市朝日ケ丘二丁目路上,白色寝巻き様上着着用)に後をつけられたり、追い抜きざまに警笛を何度も鳴らされたもの。,松山市朝日ケ丘二丁目,松山市朝日ケ丘二丁目,0,blue,38.0,愛媛県,エヒメケン,EHIME KEN,38201.0,松山市,マツヤマシ,MATSUYAMA SHI,382010008002.0,朝日ケ丘二丁目,33.848359,132.744108
122,松山西署管内,不審者,令和2年9月15日(火)午後6時50分ころ,松山市太山寺町路上,女子高校生が自転車で走行中、路上に立っていた男(40〜50歳位、中肉、身長170センチ位、上下黒色の服)の前を通り過ぎたところ、男が手に持った何かを顔の前に掲げ、白い光を点灯させたもの。,松山市太山寺町,松山市太山寺町,0,purple,38.0,愛媛県,エヒメケン,EHIME KEN,38201.0,松山市,マツヤマシ,MATSUYAMA SHI,382010163000.0,太山寺町,33.887046000000005,132.724298
123,西条西署管内,声かけ,令和2年9月15日(火)午後3時ころ,西条市丹原町池田路上,七部丈ズボン、麦わら帽子・サングラス着用)に「お菓子あげるけんおいで。」と声をかけられたもの。,西条市丹原町池田,西条市丹原町池田,0,green,38.0,愛媛県,エヒメケン,EHIME KEN,38206.0,西条市,サイジョウシ,SAIJO SHI,382060065000.0,丹原町池田,33.912892,133.059078
124,宇和島署管内,つきまとい,令和2年9月15日(火)午前6時55分ころ,宇和島市保田路上,白色作業着様ズボン、銀縁のフレームが細い眼鏡着用、目が大きい)に並進されながら顔を覗き込むように見られ、その後、女性が自転車を停め歩いていると、男も車を停めて歩いて女性の方へ近づいてきたもの。,宇和島市保田,宇和島市保田,0,blue,38.0,愛媛県,エヒメケン,EHIME KEN,38203.0,宇和島市,ウワジマシ,UWAJIMA SHI,382030135000.0,保田,33.190246,132.543933
125,松山西署管内,写真撮影,令和2年9月14日(月)午後6時45分ころ,松山市太山寺町路上,ハーフパンツ)の横を通り過ぎようとしたところ、男の顔付近で赤色の光が点灯したのを目撃した。女子高校生はその様子から撮影されているのではないかと感じたもの。,松山市太山寺町,松山市太山寺町,1,lightred,38.0,愛媛県,エヒメケン,EHIME KEN,38201.0,松山市,マツヤマシ,MATSUYAMA SHI,382010163000.0,太山寺町,33.887046000000005,132.724298
126,松山南署管内,不審者,令和2年9月14日(月)午前7時45分ころ,松山市北井門四丁目路上,灰色半ズボン、青色キャップ帽、白色マスク着用)に進路を阻む様に走行され、接触しそうになったもの。数日前には、すれ違う際に顔を覗き込むように見られている。,松山市北井門四丁目,松山市北井門四丁目,0,purple,38.0,愛媛県,エヒメケン,EHIME KEN,38201.0,松山市,マツヤマシ,MATSUYAMA SHI,382010092004.0,北井門四丁目,33.803351,132.775012
127,四国中央署管内,つきまとい,令和2年9月12日(土)午後9時ころ,四国中央市金生町山田井路上,女性2名が自転車で走行中、車(軽四)に乗った男(30歳位、やせ型、身長170センチ位、七三分けで肩にかかる長さの黒髪、紫色長袖の全身タイツに競泳水着様のパンツ、黒色ロングブーツ着用)に何度も付近を走行され、顔を覗き込むように見られたもの。,四国中央市金生町山田井,四国中央市金生町山田井,0,blue,38.0,愛媛県,エヒメケン,EHIME KEN,38213.0,四国中央市,シコクチュウオウシ,SHIKOKUCHUO SHI,382130014000.0,金生町山田井,34.016639,133.616508
128,松山東署管内,つきまとい,令和2年9月11日(木)午前6時15分ころ,松山市土居田町路上,女性が歩いていたところ、車(白色、普通車、コンパクトカー型)に乗った男(50〜60歳位、中肉、短髪、茶色チェック柄のシャツ、眼鏡・マスクなし)にジロジロと見られた上、後をつけられたもの。,松山市土居田町,松山市土居田町,2,blue,38.0,愛媛県,エヒメケン,EHIME KEN,38201.0,松山市,マツヤマシ,MATSUYAMA SHI,382010195000.0,土居田町,33.823276,132.746488
129,四国中央署管内,声かけ,令和2年9月10日(木)午後5時ころ,四国中央市三島中央二丁目路上,ジーパン、帽子・眼鏡・髭なし)に「○○小学校の人、一緒に歌おう。」等と声をかけられ、後方をつきまとわれたもの。,四国中央市三島中央二丁目,四国中央市三島中央二丁目,0,green,38.0,愛媛県,エヒメケン,EHIME KEN,38213.0,四国中央市,シコクチュウオウシ,SHIKOKUCHUO SHI,382130050002.0,三島中央二丁目,33.982222,133.5449
130,松山東署管内,つきまとい,令和2年9月10日(木)午後4時30分ころ,松山市平和通六丁目路上から同市宮西一丁目路上までの間,長ズボン、眉毛が濃い、目がギョロっとしている)の前を通り過ぎた際、スマートフォンを向けられて写真を撮られ、後方をつきまとわれたもの。,松山市平和通六丁目,松山市平和通六丁目,1,blue,38.0,愛媛県,エヒメケン,EHIME KEN,38201.0,松山市,マツヤマシ,MATSUYAMA SHI,382010279006.0,平和通六丁目,33.84763,132.75656999999998
131,松山西署管内,声かけ,令和2年9月10日(木)午後3時ころ,松山市空港通三丁目路上,女児小学生が歩いていたところ、近づいてきた男(50歳位)に「○○小学校の子?」と声をかけられたもの。,松山市空港通三丁目,松山市空港通三丁目,0,green,38.0,愛媛県,エヒメケン,EHIME KEN,38201.0,松山市,マツヤマシ,MATSUYAMA SHI,382010106003.0,空港通三丁目,33.827892,132.73816200000002
132,松山東署管内,声かけ,令和2年9月9日(水)午後5時30分ころ,松山市道後樋又路上,黒色様長ズボン)にすれ違いざま、「JCやJCや」と声をかけられた上、しばらくの間、周りを徘徊されたもの。,松山市道後樋又,松山市道後樋又,0,green,38.0,愛媛県,エヒメケン,EHIME KEN,38201.0,松山市,マツヤマシ,MATSUYAMA SHI,382010205000.0,道後樋又,33.852406,132.772246
133,松山東署管内,声かけ,令和2年9月9日(水)午後4時15分ころ,松山市枝松五丁目路上,濃いピンク色ビキニパンツ)に呼び止められ、「お茶でも飲んでいかない。」と声をかけられたもの。,松山市枝松五丁目,松山市枝松五丁目,0,green,38.0,愛媛県,エヒメケン,EHIME KEN,38201.0,松山市,マツヤマシ,MATSUYAMA SHI,382010048005.0,枝松五丁目,33.828291,132.784873
134,新居浜署管内,つきまとい,令和2年9月9日(水)午前8時ころ,新居浜市徳常町路上,黒色半ズボン、青色キャップ帽、眼鏡着用、マスクなし、大きめの白猫を肩に乗せていた)に近づかれたもの。,新居浜市徳常町,新居浜市徳常町,0,blue,38.0,愛媛県,エヒメケン,EHIME KEN,38205.0,新居浜市,ニイハマシ,NIIHAMA SHI,382050067000.0,徳常町,33.964347,133.280812
135,松山東署管内,つきまとい,令和2年9月8日(火)午後4時ころ,松山市和泉北二丁目路上から同市土居田町路上までの間,灰色半ズボン、色黒、マスク・眼鏡・帽子なし)に追い越しざまじっと見る行為を繰り返されたもの。,松山市和泉北二丁目,松山市和泉北二丁目,0,blue,38.0,愛媛県,エヒメケン,EHIME KEN,38201.0,松山市,マツヤマシ,MATSUYAMA SHI,382010027002.0,和泉北二丁目,33.823321,132.75603700000002
136,新居浜署管内,声かけ,令和2年9月8日(火)午前8時ころ,新居浜市徳常町から同市本郷三丁目まで走行中のバス車内,黒色長ズボン、がっちりした体型、キャップ帽着用、大きめの白猫が入った猫用ゲージ所持)に「久しぶりにバス乗った。」などと声をかけられたもの。その後、女子中学生がバスを降りると、男も同じバス停で降り、「一緒に行きたい。」と言って、女子中学生の後方をつきまとった。,新居浜市徳常町から同市本郷三丁目まで走行中のバス車内,新居浜市徳常町から同市本郷三丁目まで走行中のバス車内,0,green,,,,,,,,,,,,
137,松山西署管内,つきまとい,令和2年9月5日(土)午後10時ころ,松山市久保田町アパート駐輪場,灰色短パン、リュックサック様所持、マスク・髭なし)が立っていたもの。女性が声を上げると、男はその場を離れるも、離れた場所から女性を凝視していた。,松山市久保田町,松山市久保田町,0,blue,38.0,愛媛県,エヒメケン,EHIME KEN,38201.0,松山市,マツヤマシ,MATSUYAMA SHI,382010110000.0,久保田町,33.822324,132.720433
138,松山東署管内,つきまとい,令和2年9月5日(土)午後5時10分ころ,松山市三番町六丁目駐輪場,黒色か紺色長ズボン、白色半キャップ型ヘルメット着用、演歌を流している)に黒色スマートフォンを向けられたもの。,松山市三番町六丁目,松山市三番町六丁目,1,blue,38.0,愛媛県,エヒメケン,EHIME KEN,38201.0,松山市,マツヤマシ,MATSUYAMA SHI,382010135006.0,三番町六丁目,33.837928000000005,132.76003500000002
139,宇和島署管内,つきまとい,令和2年9月4日(金)午後4時30分ころ,宇和島市津島町高田から同市祝森甲までの間,女性2名が自転車で走行中、路肩に停まっていた車(白色、小型の箱型)の横を通り過ぎた際、車に乗った男(30歳位、やせ型、黒色短髪、白色様の上衣、黒縁眼鏡着用、スマートフォン所持)に車内から携帯電話を向けられ、その後、何度も男に追い越されては携帯電話を向けられる行為を繰り返しながら、つきまとわれたもの。,宇和島市津島町高田から同市祝森甲までの間,宇和島市津島町高田から同市祝森甲までの間,0,blue,,,,,,,,,,,,
140,松山東署管内,容姿撮影,令和2年9月4日(金)午前10時ころ,松山市湊町三丁目路上,灰色長ズボン、白色帽子・白色マスク・白色スニーカー着用、黒色ショルダーバッグ所持)を通行人が目撃したもの。通行人が男に「お前何をしていた。スマホ見せてみい。撮っていただろう。」と声かけをしたところ、男は「そんなことしていない。」と申し立て、走り去った。,松山市湊町三丁目,松山市湊町三丁目,0,容姿撮影,38.0,愛媛県,エヒメケン,EHIME KEN,38201.0,松山市,マツヤマシ,MATSUYAMA SHI,382010310003.0,湊町三丁目,33.835677000000004,132.769073
141,今治署管内,声かけ,令和2年9月3日(木)午後6時ころ,今治市上徳路上,黒色様ジャージ長ズボン、銀縁眼鏡着用)に「名前教えて、どこ帰るん。」と声をかけられ、後方をつきまとわれたもの。,今治市上徳,今治市上徳,0,green,38.0,愛媛県,エヒメケン,EHIME KEN,38202.0,今治市,イマバリシ,IMABARI SHI,382020049000.0,上徳,34.036732,133.014342
142,八幡浜署管内,声かけ,令和2年9月3日(木)午後5時10分ころ,八幡浜市船場通路上,女児小学生が歩いていたところ、自転車(黒色様、前かご付き、ママチャリ)を押していた男(50〜70歳位、小肥、身長160〜165センチ位、黒色の坊主、上下黒色様の服、眼鏡着用、腹が出ている、耳・顎・鼻下にかけて無精髭が生えている)に「ゲーム機を買ってあげるよ。」などと声をかけられながら、つきまとわれたもの。,八幡浜市船場通,八幡浜市船場通,0,green,,,,,,,,,,,,
143,松山西署管内,つきまとい,令和2年9月2日(水)午後6時ころ,松山市東垣生町路上から伊予郡松前町大字北川原路上までの間,暗色のTシャツ、黒縁眼鏡着用)に追い越しざま凝視され、引き返しては追い越す行為を繰り返してつきまとわれたもの。,松山市東垣生町,松山市東垣生町,0,blue,38.0,愛媛県,エヒメケン,EHIME KEN,38201.0,松山市,マツヤマシ,MATSUYAMA SHI,382010255000.0,東垣生町,33.813134999999996,132.714338
144,四国中央署管内,つきまとい,令和2年9月1日(火)午後4時30分ころ,四国中央市妻鳥町路上,50歳位、小肥、黒色短髪、濃い青色半袖Tシャツ、太い眉毛、眼鏡・マスク・帽子なし)の一人が降車して、男児小学生に「この家に行くん。」と声をかけてきたもの。男児小学生が足早に立ち去ったところ、男らに車で自宅まで後をつけられ、自宅のインターフォンを押された。,四国中央市妻鳥町,四国中央市妻鳥町,2,blue,38.0,愛媛県,エヒメケン,EHIME KEN,38213.0,四国中央市,シコクチュウオウシ,SHIKOKUCHUO SHI,382130053000.0,妻鳥町,33.991779,133.572307
145,宇和島署管内,声かけ,令和2年8月31日(月)午後5時10分ころ,宇和島市和霊町路上,ズボン、眼鏡・帽子・マスク・髭なし)に「可愛いね。」「何年生。家はどこ。」と声をかけられたもの。,宇和島市和霊町,宇和島市和霊町,0,green,38.0,愛媛県,エヒメケン,EHIME KEN,38203.0,宇和島市,ウワジマシ,UWAJIMA SHI,382030161000.0,和霊町,33.232284,132.566536
146,松山東署管内,つきまとい,令和2年8月29日(土)午前11時ころ,松山市辻町路上,女性がベビーカーを押して歩いていたところ、銀色軽快兼用自転車に乗った男(30歳位、身長170センチ位、中肉、パーマの黒髪)に後をつきまとわれたもの。その後、女性が近くの店舗で買い物した際も、店内で男につきまとわれた。,松山市辻町,松山市辻町,0,blue,38.0,愛媛県,エヒメケン,EHIME KEN,38201.0,松山市,マツヤマシ,MATSUYAMA SHI,382010189000.0,辻町,33.84332,132.748952
147,松山西署管内,つきまとい,令和2年8月28日(金)午後9時ころ,松山市太山寺町から同市安城寺町までの路上,半ズボン)がすれ違いざまに反転し、走って後を追いかけてきたもの。,松山市太山寺町から同市安城寺町までの,松山市太山寺町から同市安城寺町まで,0,blue,,,,,,,,,,,,
148,伊予署管内,暴行,令和2年8月28日(金)午後4時30分ころ,伊予郡松前町大字出作路上,男児小学生が自転車で走行中、後方から自転車で近づいてきた男(10〜30歳位、黒色短髪)に肩を押され転倒したもの。,伊予郡松前町大字出作,伊予郡松前町大字出作,0,red,38.0,愛媛県,エヒメケン,EHIME KEN,38401.0,伊予郡松前町,イヨグンマサキチョウ,IYO GUN MASAKI CHO,384010007000.0,大字出作,33.789567,132.75181899999998
149,松山東署管内,つきまとい,令和2年8月27日(木)午後5時30分ころ,松山市土居田町路上,紺色長ズボン、無地の灰色帽子着用、大きめのリュックサック所持)に後方をつきまとわれたもの。女児中学生が自宅付近まで帰ると、再度、男と出会ったもの。,松山市土居田町,松山市土居田町,3,blue,38.0,愛媛県,エヒメケン,EHIME KEN,38201.0,松山市,マツヤマシ,MATSUYAMA SHI,382010195000.0,土居田町,33.823276,132.746488
150,松山西署管内,声かけ,令和2年8月27日(木)午後4時5分ころ,松山市西垣生町路上,女子中学生が道端で立ち話をしていたところ、バイク(スクーター型)に乗った男(50〜60歳位、フルフェイス型ヘルメット着用)に「お金使って遊べよ。」と声をかけられたのを、通行人が目撃したもの。,松山市西垣生町,松山市西垣生町,2,green,38.0,愛媛県,エヒメケン,EHIME KEN,38201.0,松山市,マツヤマシ,MATSUYAMA SHI,382010233000.0,西垣生町,33.813675,132.701207
151,松山南署管内,つきまとい,令和2年8月26日(水)午後6時30分ころ,松山市井門町路上,水色作業着様、半キャップ型ヘルメット着用)に後方を追従されているのを通行人が目撃したもの。,松山市井門町,松山市井門町,0,blue,38.0,愛媛県,エヒメケン,EHIME KEN,38201.0,松山市,マツヤマシ,MATSUYAMA SHI,382010029000.0,井門町,33.796879,132.77721499999998
152,松山東署管内,声かけ,令和2年8月26日(水)午後4時ころ,松山市吉藤四丁目路上,ズボン、眼鏡・髭なし)に呼び止められ、「パンツがずっと見えてますよ。」と声を掛けられたもの。,松山市吉藤四丁目,松山市吉藤四丁目,0,green,38.0,愛媛県,エヒメケン,EHIME KEN,38201.0,松山市,マツヤマシ,MATSUYAMA SHI,382010358004.0,吉藤四丁目,33.874108,132.75611999999998
153,今治署管内,声かけ,令和2年8月26日(水)午後3時ころ,今治市蒼社町路上,女子高校生が移動中、車(白色、ワンボックスタイプ)に乗った男(20〜30歳位)、後部座席に同乗していた男性(黒髪短髪、白色シャツ着用)らに後部座席の窓から「わーっ。」と大声をかけられたもの。,今治市蒼社町,今治市蒼社町,0,green,,,,,,,,,,,,
154,西条西署管内,身体露出,令和2年8月26日(水)午後1時30分ころ,西条市丹原町池田路上,薄茶色七部丈ズボン、眼鏡着用、マスク・帽子なし、色黒)がすれ違い様にズボンのファスナーを下ろしたもの。,西条市丹原町池田,西条市丹原町池田,1,orange,38.0,愛媛県,エヒメケン,EHIME KEN,38206.0,西条市,サイジョウシ,SAIJO SHI,382060065000.0,丹原町池田,33.912892,133.059078
155,松山東署管内,身体露出,令和2年8月26日(水)午後0時40分ころ,松山市高砂町四丁目路上,作業服様長ズボン、眼鏡着用)が繰り返し自転車(前かごなし、少し壊れており、カチャカチャと音が鳴っていた)で目の前を走行したもの。その際、男は女児小学生らの前で止まり、女児小学生を見ながら笑みを浮かべた。,松山市高砂町四丁目,松山市高砂町四丁目,0,orange,38.0,愛媛県,エヒメケン,EHIME KEN,38201.0,松山市,マツヤマシ,MATSUYAMA SHI,382010167004.0,高砂町四丁目,33.855057,132.76226200000002
156,今治署管内,声かけ,令和2年8月25日(火)午後8時50分ころ,今治市高部路上,女子高校生が自転車で走行中、後方から自転車で近づいてきた男(20歳位、黒色丸刈り)に呼び止められ、「胸を触らせてください。」と声を掛けられたもの。,今治市高部,今治市高部,0,green,38.0,愛媛県,エヒメケン,EHIME KEN,38202.0,今治市,イマバリシ,IMABARI SHI,382020110000.0,高部,34.095634999999994,132.96906299999998
157,松山東署管内,不審者,令和2年8月25日(水)午後5時ころ,松山市道後一万路上,住民が玄関先に出たところ、バイク(黒色様スクーター型、長方形ナンバー)に乗った男(50〜60歳位、身長160〜165センチ位、中肉、上下ベージュ色様の明るい色の服、ベージュ色様ナップサック所持、半キャップ型ヘルメット、軍手、青色レンズのサングラス着用、顔に白色タオルを巻いている)が降車して近隣の家の様子を一軒ずつ覗きながら徘徊するのを目撃したもの。,松山市道後一万,松山市道後一万,0,purple,38.0,愛媛県,エヒメケン,EHIME KEN,38201.0,松山市,マツヤマシ,MATSUYAMA SHI,382010198000.0,道後一万,33.848157,132.777269
158,八幡浜署管内,身体露出,令和2年8月25日(火)午後4時50分ころ,八幡浜市松柏丙路上,女子高校生2名が歩いていたところ、突然目の前に現れた男(50〜70歳位、身長165センチ位、やせ型、黒色短髪、眼鏡着用)がズボンを下ろし、下半身を露出したのを目撃したもの。,八幡浜市松柏丙,八幡浜市松柏,0,orange,38.0,愛媛県,エヒメケン,EHIME KEN,38204.0,八幡浜市,ヤワタハマシ,YAWATAHAMA SHI,382040034000.0,松柏,33.461662,132.439298
159,四国中央署管内,写真撮影,令和2年8月25日(火)午後4時40分ころ,四国中央市金生町山田井路上,黒色様のボーダー柄、携帯電話機所持)に車のサイドミラーに映った姿を携帯電話機で撮影されたもの。その後、女が車で女児小学生らを追い抜き、もう一度同じように女児小学生の姿を撮影した。,四国中央市金生町山田井,四国中央市金生町山田井,1,lightred,38.0,愛媛県,エヒメケン,EHIME KEN,38213.0,四国中央市,シコクチュウオウシ,SHIKOKUCHUO SHI,382130014000.0,金生町山田井,34.016639,133.616508
160,松山南署管内,不審者,令和2年8月25日(火)午前7時25分ころ,東温市田窪路上,灰色短パン、髪が立っている、髭あり)とすれ違ったもの。,東温市田窪,東温市田窪,0,purple,38.0,愛媛県,エヒメケン,EHIME KEN,38215.0,東温市,トウオンシ,TOON SHI,382150011000.0,田窪,33.79037,132.860296
161,愛南署管内,声かけ,令和2年8月24日(月)午前7時30分ころ,南宇和郡愛南町を走行中のバス車内,黒色ズボン、マスクを顎に掛けていた)に「(体操服を持っているのを見て)走るの?」などと声を掛けられたもの。その後、女児小学生の様子を窺う様子であった。,南宇和郡愛南町を走行中のバス車内,南宇和郡愛南町を走行中のバス車内,0,green,,,,,,,,,,,,
162,松山南署管内,不審者,令和2年8月21日(金)午前8時40分ころ,松山市北久米路上,黒色様ズボン、白髪混じりのポニーテールで肩くらいまでの長さ、緑色リュックサック所持、眼鏡なし、猫背)が徘徊しているのを住民が目撃したもの。,松山市北久米,松山市北久米,0,purple,,,,,,,,,,,,
163,四国中央署管内,のぞき・盗撮,令和2年8月19日(水)午前0時25分ころ,四国中央市妻鳥町一般住宅,女性が自宅浴室で入浴後、浴室の高窓を開けたところ、屋外に男(白色マスク着用、眼鏡なし)が立っており、入浴中の浴室を窓越しに覗かれていたもの。,四国中央市妻鳥町,四国中央市妻鳥町,3,pink,38.0,愛媛県,エヒメケン,EHIME KEN,38213.0,四国中央市,シコクチュウオウシ,SHIKOKUCHUO SHI,382130053000.0,妻鳥町,33.991779,133.572307
164,伊予署管内,身体露出,令和2年8月18日(火)午後9時15分ころ,伊予市尾崎公園内,高齢男性(小肥)が上半身裸で公園のベンチに座っているのを通行中の女性が目撃したもの。1週間程前にも、同じ男性が上半身裸でベンチに座っているのが目撃されている。,伊予市尾崎,伊予市尾崎,0,orange,38.0,愛媛県,エヒメケン,EHIME KEN,38210.0,伊予市,イヨシ,IYO SHI,382100006000.0,尾崎,33.74953,132.693569
165,松山東署管内,ちかん,令和2年8月13日(木)午後4時30分ころ,松山市永代町路上,赤色短パン)に胸を触られそうになったもの。,松山市永代町,松山市永代町,0,gray,38.0,愛媛県,エヒメケン,EHIME KEN,38201.0,松山市,マツヤマシ,MATSUYAMA SHI,382010047000.0,永代町,33.834486,132.761566
166,愛南署管内,不審者,令和2年8月7日(金)午後4時30分ころ,南宇和郡愛南町御荘平城路上,ベージュ色七分丈ズボン、ハット帽・サンダル着用、スーパーの買物袋2個所持、髭・眼鏡・マスクなし)がニヤニヤしながら、乱暴な言葉を一人でつぶやいているのを目撃したもの。,南宇和郡愛南町御荘平城,南宇和郡愛南町御荘平城,0,purple,38.0,愛媛県,エヒメケン,EHIME KEN,38506.0,南宇和郡愛南町,ミナミウワグンアイナンチョウ,MINAMIUWA GUN AINAN CHO,385060051000.0,御荘平城,32.961863,132.56274
167,松山東署管内,ちかん,令和2年8月7日(金)午前11時10分ころ,松山市桑原七丁目路上,黒色長ズボン、黄緑色キャップ帽着用、弁当様入りレジ袋所持、眼鏡なし)が女性の前を一旦通り過ぎた後反転し、女性の胸を触ったもの。,松山市桑原七丁目,松山市桑原七丁目,0,gray,38.0,愛媛県,エヒメケン,EHIME KEN,38201.0,松山市,マツヤマシ,MATSUYAMA SHI,382010115007.0,桑原七丁目,33.829267,132.792256
168,松山西署管内,声かけ,令和2年8月5日(水)午後8時20分ころ,松山市北斎院町路上,長ズボン、ロードバイク用ヘルメット着用)に、人気がなくなったところで近づいて来られ、卑猥な言葉をかけられた上、Tシャツを捲り、お腹を見せられたもの。,松山市北斎院町,松山市北斎院町,1,green,38.0,愛媛県,エヒメケン,EHIME KEN,38201.0,松山市,マツヤマシ,MATSUYAMA SHI,382010095000.0,北斎院町,33.839402,132.723636
169,松山東署管内,ちかん,令和2年8月5日(水)午前10時30分ころ,松山市三番町一丁目路上,黒色様スラックス、スマートフォン(黒色手帳型カバー、内側青色)所持、眼鏡・髭・マスクなし、酒臭あり、垂れ目)に呼び止められ、服のデザインについて聞かれた上、胸に触れたり、下品な言葉をかけられたもの。,松山市三番町一丁目,松山市三番町一丁目,0,gray,38.0,愛媛県,エヒメケン,EHIME KEN,38201.0,松山市,マツヤマシ,MATSUYAMA SHI,382010135001.0,三番町一丁目,33.838004,132.773579
170,松山西署管内,声かけ,令和2年8月4日(火)午後7時50分ころ,松山市北斎院町路上,女性が散歩中、男(15歳位、自転車利用)から「下半身を触って欲しい。」と声を掛けられたもの。,松山市北斎院町,松山市北斎院町,2,green,38.0,愛媛県,エヒメケン,EHIME KEN,38201.0,松山市,マツヤマシ,MATSUYAMA SHI,382010095000.0,北斎院町,33.839402,132.723636
171,四国中央署管内,声かけ,令和2年8月4日(火)午後4時ころ,四国中央市寒川町路上,濃緑色七分丈ズボン、眼鏡なし、携行品なし)に呼び止められ、「キミ、いくつ。」「年いくつ。」としつこく声をかけられたもの。,四国中央市寒川町,四国中央市寒川町,0,green,38.0,愛媛県,エヒメケン,EHIME KEN,38213.0,四国中央市,シコクチュウオウシ,SHIKOKUCHUO SHI,382130016000.0,寒川町,33.952462,133.50771699999999
172,松山東署管内,暴行,令和2年8月3日(月)午後3時ころ,松山市余戸中六丁目路上,黒色長ズボン、黒色ニット帽・黒色サングラス・白色マスク着用、携行品なし)が道を譲る仕草をしたことから自転車を進めたところ、男とぶつかりそうになり、立腹した男に自転車ごと押し倒されたもの。,松山市余戸中六丁目,松山市余戸中六丁目,0,red,38.0,愛媛県,エヒメケン,EHIME KEN,38201.0,松山市,マツヤマシ,MATSUYAMA SHI,382010351006.0,余戸中六丁目,33.81758,132.73367199999998
173,大洲署管内,つきまとい,令和2年8月2日(日)午後7時ころ,大洲市阿蔵路上,女子高校生がランニング中、黒色軽四自動車に乗った男(20〜30歳位、短髪)に横に停車された後、一度追い抜かれるも再び停車して待ち伏せされるように、つきまとわれたもの。,大洲市阿蔵,大洲市阿蔵,0,blue,38.0,愛媛県,エヒメケン,EHIME KEN,38207.0,大洲市,オオズシ,OZU SHI,382070001000.0,阿蔵,33.512059,132.532018
174,松山東署管内,つきまとい,令和2年8月2日(日)午後5時30分ころ,松山市湊町四丁目路上,紺色ジーパン、マスク着用、帽子・眼鏡なし、上部が黒色で下部が青色のリュックサック所持)に後方をつきまとわれ、移動先の店舗内でも付近を徘徊されたり、離れた場所から監視するように見られたもの。,松山市湊町四丁目,松山市湊町四丁目,2,blue,38.0,愛媛県,エヒメケン,EHIME KEN,38201.0,松山市,マツヤマシ,MATSUYAMA SHI,382010310004.0,湊町四丁目,33.835795000000005,132.76589199999998
175,松山南署管内,不審者,令和2年8月2日(日)午後5時ころ,松山市北梅本町路上,黄土色短パン)がニヤニヤしながら見つめているのを付近住民が目撃したもの。,松山市北梅本町,松山市北梅本町,0,purple,38.0,愛媛県,エヒメケン,EHIME KEN,38201.0,松山市,マツヤマシ,MATSUYAMA SHI,382010093000.0,北梅本町,33.824484999999996,132.860568
176,新居浜署管内,写真撮影,令和2年8月2日(日)午前11時50分ころ,新居浜市萩生路上,青緑色半袖チェック柄シャツ)にスマートフォンを向けられたもの。,新居浜市萩生,新居浜市萩生,0,lightred,38.0,愛媛県,エヒメケン,EHIME KEN,38205.0,新居浜市,ニイハマシ,NIIHAMA SHI,382050083000.0,萩生,33.911838,133.268311
177,松山東署管内,写真撮影,令和2年8月2日(日)午前9時40分ころ,松山市湊町四丁目店舗から同市湊町三丁目店舗までの間,黒色短パン、黒色靴・黒色マスク着用、スマートフォン・ウエストポーチ所持)に後をつけられたことから店外へ出たところ、その後も男に後をつけられたり、スマートフォンを向けられたりしたもの。,松山市湊町四丁目,松山市湊町四丁目,3,lightred,38.0,愛媛県,エヒメケン,EHIME KEN,38201.0,松山市,マツヤマシ,MATSUYAMA SHI,382010310004.0,湊町四丁目,33.835795000000005,132.76589199999998
178,松山東署管内,身体露出,令和2年8月1日(土)午後0時20分ころ,松山市小栗六丁目路上,黒色様長ズボン、切れ長の目、色黒)が女性の面前で止まり、自転車に跨ったままの状態で、ズボンとパンツを下ろし、下半身を露出した上、下品な言葉をかけてきたもの。,松山市小栗六丁目,松山市小栗六丁目,0,orange,38.0,愛媛県,エヒメケン,EHIME KEN,38201.0,松山市,マツヤマシ,MATSUYAMA SHI,382010060006.0,小栗六丁目,33.827071000000004,132.755874
179,伊予署管内,声かけ,令和2年7月31日(金)午後3時ころ,伊予市大平路上,女子小学生が遊んでいたところ、ワンボックスタイプの白色軽四自動車に乗った男(40〜50歳位、白髪混じり短髪、眼鏡あり)に「お菓子食べない。」「車に乗っていかない。」と声をかけられたもの。,伊予市大平,伊予市大平,0,green,38.0,愛媛県,エヒメケン,EHIME KEN,38210.0,伊予市,イヨシ,IYO SHI,382100005000.0,大平,33.71682,132.705197
180,松山西署管内,つきまとい,令和2年7月31日(金)午前7時40分ころ,松山市空港通三丁目から同市山西町までの路上,緑色ズボン、縁の太い黒色眼鏡着用、携行品なし)にぴったりと後をつけられたもの。,松山市空港通三丁目から同市山西町までの,松山市空港通三丁目から同市山西町まで,0,blue,,,,,,,,,,,,
181,西条署管内,のぞき・盗撮,令和2年7月30日(木)午後7時50分ころ,西条市喜多川一般住宅敷地内,半ズボン)が窓越しに、家の中を覗いているのを目撃したもの。,西条市喜多川,西条市喜多川,0,pink,38.0,愛媛県,エヒメケン,EHIME KEN,38206.0,西条市,サイジョウシ,SAIJO SHI,382060025000.0,喜多川,33.922610999999996,133.17011399999998
182,松山南署管内,つきまとい,令和2年7月30日(木)午後6時25分ころ,松山市森松町路上,女子高校生が自転車で走行中、バイク(黒色スクーター型)に乗った人物に後をつきまとわれたもの。,松山市森松町,松山市森松町,2,blue,38.0,愛媛県,エヒメケン,EHIME KEN,38201.0,松山市,マツヤマシ,MATSUYAMA SHI,382010337000.0,森松町,33.789207,132.791713
183,松山南署管内,つきまとい,令和2年7月30日(木)午後6時ころ,松山市南高井町路上,青色スウェットパンツ、携帯電話機所持、半キャップ型ヘルメット着用、不潔な印象)に後をつきまとわれたもの。,松山市南高井町,松山市南高井町,0,blue,38.0,愛媛県,エヒメケン,EHIME KEN,38201.0,松山市,マツヤマシ,MATSUYAMA SHI,382010317000.0,南高井町,33.788893,132.81303400000002
184,新居浜署管内,写真撮影,令和2年7月30日(木)午前7時15分ころ,新居浜市庄内町三丁目路上,女子中学生が自転車で走行中、空き地に立った男(中肉、上下黒色の服、黒色ニット帽様・黒色サングラス・黒色靴・マスク着用)にスマートフォンを向けられたもの。男の傍に軽快兼用自転車が停まっていた。,新居浜市庄内町三丁目,新居浜市庄内町三丁目,0,lightred,38.0,愛媛県,エヒメケン,EHIME KEN,38205.0,新居浜市,ニイハマシ,NIIHAMA SHI,382050046003.0,庄内町三丁目,33.955969,133.296355
185,松山東署管内,つきまとい,令和2年7月30日(木)午前1時40分ころ,松山市樽味四丁目路上,長ズボン、半キャップ型ヘルメット着用)に歩行速度に合わせて後方をつきまとわれ、その後、男がバイクを降車して自身のベルトを外し、ズボンを下ろすような素振りをしながら、走ってつきまとってきたもの。,松山市樽味四丁目,松山市樽味四丁目,0,blue,38.0,愛媛県,エヒメケン,EHIME KEN,38201.0,松山市,マツヤマシ,MATSUYAMA SHI,382010184004.0,樽味四丁目,33.83876,132.788625
186,松山東署管内,つきまとい,令和2年7月29日(水)午後6時30分ころ,松山市勝山町二丁目路上から同市此花町までの路上,半ズボン、マスク・スリッパ着用、スマートフォン所持)に買い物を終えるまで待ち伏せされたり、後方をつきまとわれたりしたもの。,松山市勝山町二丁目,松山市勝山町二丁目,0,blue,38.0,愛媛県,エヒメケン,EHIME KEN,38201.0,松山市,マツヤマシ,MATSUYAMA SHI,382010073002.0,勝山町二丁目,33.844402,132.77543500000002
187,松山南署管内,つきまとい,令和2年7月28日(火)午後6時45分ころ,松山市井門町路上から同市森松町までの路上,青色様ズボン、眼鏡着用)に先回りされたり、後を追従されるなどして、つきまとわれたもの。,松山市井門町,松山市井門町,1,blue,38.0,愛媛県,エヒメケン,EHIME KEN,38201.0,松山市,マツヤマシ,MATSUYAMA SHI,382010029000.0,井門町,33.796879,132.77721499999998
188,松山南署管内,声かけ,令和2年7月28日(火)午後6時40分ころ,松山市古川西二丁目路上,黒色作業着様長ズボン、眼鏡・マスクなし)に「飴ちゃんあげるけんおいで。」などと声をかけられ、腕を掴まれた。その後、男が自身のズボンのポケットから飴を出し、「毒入ってないけん。」などと言いながら飴を握らされたもの。,松山市古川西二丁目,松山市古川西二丁目,0,green,38.0,愛媛県,エヒメケン,EHIME KEN,38201.0,松山市,マツヤマシ,MATSUYAMA SHI,382010274002.0,古川西二丁目,33.808664,132.757795
189,新居浜署管内,写真撮影,令和2年7月28日(火)午後1時10分ころ,新居浜市久保田町一丁目路上,黒色長ズボン、シャツをズボンの中に入れている、ベルト・白色マスク・黒色革靴着用、黒色スマートフォン・ベージュ色の小さな手提げ袋所持)が立ち、スマートフォンで容姿を撮影されたもの。,新居浜市久保田町一丁目,新居浜市久保田町一丁目,0,lightred,38.0,愛媛県,エヒメケン,EHIME KEN,38205.0,新居浜市,ニイハマシ,NIIHAMA SHI,382050026001.0,久保田町一丁目,33.956818,133.28341
190,新居浜署管内,写真撮影,令和2年7月27日(月)午後3時45分ころ,新居浜市多喜浜六丁目路上,女児小学生2名が歩いていたところ、道路向かいに停車する車(白色、普通乗用車、虹色ナンバープレート)に乗った男(白髪混じりの短髪、帽子・眼鏡・マスクなし)に窓越しに一眼レフ様のカメラを向けられたもの。,新居浜市多喜浜六丁目,新居浜市多喜浜六丁目,0,lightred,38.0,愛媛県,エヒメケン,EHIME KEN,38205.0,新居浜市,ニイハマシ,NIIHAMA SHI,382050059006.0,多喜浜六丁目,33.979602,133.343692
191,松山南署管内,身体露出,令和2年7月27日(月)午前7時30分ころ,東温市田窪路上,黒と青が混ざったような色のズボン、無精ひげあり、眼鏡・マスクなし、白色レジ袋2個所持)が上衣をたくし上げ、上半身を露出したもの。男は、笑顔で付近を徘徊していたが、声かけや身体接触はなし。,東温市田窪,東温市田窪,1,orange,38.0,愛媛県,エヒメケン,EHIME KEN,38215.0,東温市,トウオンシ,TOON SHI,382150011000.0,田窪,33.79037,132.860296
192,松山南署管内,つきまとい,令和2年7月26日(日)午後9時40分ころ,松山市久米窪田町路上,紫色作業着様、髭あり)を追い抜いたところ、後をつきまとわれたもの。その後、男子中学生が信号待ちのため停車したところ、男に鼻で笑われた上、睨みつけられたもの。,松山市久米窪田町,松山市久米窪田町,0,blue,38.0,愛媛県,エヒメケン,EHIME KEN,38201.0,松山市,マツヤマシ,MATSUYAMA SHI,382010114000.0,久米窪田町,33.804652000000004,132.811203
193,松山南署管内,不審者,令和2年7月26日(日)午前8時30分ころ,東温市牛渕店舗駐車場内,迷彩柄短パン、灰色サンダル着用、黄色のプラスチック製バッド所持)を目撃したもの。,東温市牛渕,東温市牛渕,0,purple,38.0,愛媛県,エヒメケン,EHIME KEN,38215.0,東温市,トウオンシ,TOON SHI,382150003000.0,牛渕,33.790706,132.848621
194,四国中央署管内,つきまとい,令和2年7月25日(土)午後5時ころ,四国中央市川之江町路上,黒色長ズボン、半キャップ型ヘルメット(縦に白黒の縞模様入り)着用、黒色ボディバッグ所持)に追い抜かれた後、速度を合わせる様に前方を走られたもの。その後、男は、路上に停車して女性を凝視したもの。,四国中央市川之江町,四国中央市川之江町,2,blue,38.0,愛媛県,エヒメケン,EHIME KEN,38213.0,四国中央市,シコクチュウオウシ,SHIKOKUCHUO SHI,382130008000.0,川之江町,34.014303999999996,133.57968200000002
195,愛南署管内,声かけ,令和2年7月22日(水)午後5時05分ころ,南宇和郡愛南町一本松路上,黒色長ズボン)に「どこまで帰るの。家はどこ。」などと声をかけられたもの。,南宇和郡愛南町一本松,南宇和郡愛南町一本松,0,green,38.0,愛媛県,エヒメケン,EHIME KEN,38506.0,南宇和郡愛南町,ミナミウワグンアイナンチョウ,MINAMIUWA GUN AINAN CHO,385060005000.0,一本松,32.961864,132.64876999999998
196,八幡浜署管内,不審者,令和2年7月19日(日)午後4時10分ころ,八幡浜市栗野浦共同住宅敷地内,黒色短パン、頭に黒色タオルを巻いている、黒色サングラス・黒色マスク着用、茶色の軽四自動車利用)を目撃したもの。以前にも同様の男を別の住民が共同住宅内で目撃している。,八幡浜市栗野浦共同,八幡浜市栗野浦共同,0,purple,,,,,,,,,,,,
197,松山東署管内,声かけ,令和2年7月17日(金)午後7時ころ,松山市大街道二丁目路上,青色ジーパン、サンダル履き、緑色リュックサック所持)に「喫茶店に行かない。」と声をかけられたもの。女性が断ると、男は付近の女性に対し、手当たり次第に声をかけていた。,松山市大街道二丁目,松山市大街道二丁目,0,green,38.0,愛媛県,エヒメケン,EHIME KEN,38201.0,松山市,マツヤマシ,MATSUYAMA SHI,382010052002.0,大街道二丁目,33.839723,132.770173
198,松山東署管内,のぞき・盗撮,令和2年7月17日(金)午前6時45分ころ,松山市三町一丁目アパート,白色Tシャツ、眼鏡・マスクなし)が立っており、家の中の様子を覗き見ていたもの。,松山市三町一丁目,松山市三町一丁目,0,pink,38.0,愛媛県,エヒメケン,EHIME KEN,38201.0,松山市,マツヤマシ,MATSUYAMA SHI,382010134001.0,三町一丁目,33.828109999999995,132.795003
199,四国中央署管内,不審者,令和2年7月16日(木)午後9時45分ころ,四国中央市金田町金川の橋上,赤色と青色のチェック柄長袖)がアンテナ付きのリモコン様のものを持ち、橋の欄干に指で何かを書いているのを散歩中の男性が目撃したもの。付近でラジコン等動いておらず不審であったもの。,四国中央市金田町金川の橋上,四国中央市金田町金川の橋上,0,purple,,,,,,,,,,,,
200,松山東署管内,声かけ,令和2年7月16日(木)午後3時30分ころ,松山市空港通二丁目付近路上,女児小学生が歩いていたところ、後方から近づいてきた車(白色)に乗った男(40〜50歳位、中肉、黒色短髪、眼鏡・マスク着用)に「何年生。」と声をかけられたもの。,松山市空港通二丁目,松山市空港通二丁目,0,green,38.0,愛媛県,エヒメケン,EHIME KEN,38201.0,松山市,マツヤマシ,MATSUYAMA SHI,382010106002.0,空港通二丁目,33.828423,132.742354
201,西条西署管内,声かけ,令和2年7月15日(水)午後6時10分ころ,西条市三津屋南路上,長ズボン、キャップ帽・眼鏡着用、リュックサック所持)に「どこに行くのですか。」「高校生ですか。」「一緒に遊びませんか。」などと声をかけられたもの。,西条市三津屋南,西条市三津屋南,0,green,38.0,愛媛県,エヒメケン,EHIME KEN,38206.0,西条市,サイジョウシ,SAIJO SHI,382060151000.0,三津屋南,33.9311,133.089322
202,松山東署管内,つきまとい,令和2年7月15日(水)午前8時50分ころ,松山市新石手路上から同市石手白石路上までの間,茶色のハーフパンツ(チノパン様)、ベージュ色キャップ帽・眼鏡・白色と黒色のサンダル・白色マスク着用)につきまとわれたもの。,松山市新石手,松山市新石手,1,blue,38.0,愛媛県,エヒメケン,EHIME KEN,38201.0,松山市,マツヤマシ,MATSUYAMA SHI,382010151000.0,新石手,33.845483,132.799744
203,松山東署管内,声かけ,令和2年7月14日(火)午後1時ころ,松山市湊町五丁目路上,半ズボン、黒縁眼鏡着用、紺色エナメルバッグ所持)に「何で学校早く終わったの。」「一緒に行こう。」等と声をかけられ、同じ電車に乗られたもの。,松山市湊町五丁目,松山市湊町五丁目,0,green,38.0,愛媛県,エヒメケン,EHIME KEN,38201.0,松山市,マツヤマシ,MATSUYAMA SHI,382010310005.0,湊町五丁目,33.835933000000004,132.762679
204,四国中央署管内,つきまとい,令和2年7月10日(金)午後6時30分ころ,四国中央市三島宮川四丁目路上,女性が散歩中、移動の先々に車(後部のスペアタイヤカバーが白地に黒字で「4駆」と記載)に乗った男(65歳位、白色短髪、白色様の上衣)が現れ、つきまとわれたもの。,四国中央市三島宮川四丁目,四国中央市三島宮川四丁目,0,blue,38.0,愛媛県,エヒメケン,EHIME KEN,38213.0,四国中央市,シコクチュウオウシ,SHIKOKUCHUO SHI,382130051004.0,三島宮川四丁目,33.981173999999996,133.549809
205,伊予署管内,声かけ,令和2年7月10日(金)午後4時30分ころ,伊予郡松前町大字西古泉路上,白色Tシャツ、口の周りに髭あり、黒色傘所持、灰色自転車利用)に、追い越しざまに暴言を吐かれたもの。,伊予郡松前町大字西古泉,伊予郡松前町大字西古泉,0,green,38.0,愛媛県,エヒメケン,EHIME KEN,38401.0,伊予郡松前町,イヨグンマサキチョウ,IYO GUN MASAKI CHO,384010015000.0,大字西古泉,33.794521,132.713929
206,松山東署管内,のぞき・盗撮,令和2年7月7日(火)午後9時05分ころ,松山市祇園町アパート,女性が在宅中、ベランダに侵入してきた大柄な男に網戸越しに室内をのぞき見られたもの。,松山市祇園町,松山市祇園町,0,pink,38.0,愛媛県,エヒメケン,EHIME KEN,38201.0,松山市,マツヤマシ,MATSUYAMA SHI,382010089000.0,祇園町,33.830628999999995,132.774078
207,松山東署管内,ちかん,令和2年7月6日(月)午後6時ころ,松山市岩崎町二丁目路上,ジーパン)に追い越しざま身体を触られたもの。,松山市岩崎町二丁目,松山市岩崎町二丁目,0,gray,38.0,愛媛県,エヒメケン,EHIME KEN,38201.0,松山市,マツヤマシ,MATSUYAMA SHI,382010037002.0,岩崎町二丁目,33.846113,132.784088
208,四国中央署管内,身体露出,令和2年7月6日(月)午後1時50分ころ,四国中央市中之庄町施設駐車場,ミニスカート)が箱バンタイプの普通車に乗って現れ、降車後、女性が見える位置で下半身を触っていたもの。,四国中央市中之庄町,四国中央市中之庄町,2,orange,38.0,愛媛県,エヒメケン,EHIME KEN,38213.0,四国中央市,シコクチュウオウシ,SHIKOKUCHUO SHI,382130046000.0,中之庄町,33.963258,133.536488
209,西条西署管内,声かけ,令和2年7月4日(土)午前10時30分ころ,西条市小松町北川路上,ハーフパンツ(膝丈)、サンダル着用)に道を尋ねられ、付近に駐車中の車(白色、ワンボックスカー型)の傍まで誘われた。すると、男は自身のズボンに手を入れながら「歳はいくつ。」「学生なの。」と被害者に声をかけてきたことから、被害者はその場から逃げ出したもの。,西条市小松町北川,西条市小松町北川,0,green,38.0,愛媛県,エヒメケン,EHIME KEN,38206.0,西条市,サイジョウシ,SAIJO SHI,382060035000.0,小松町北川,33.900683,133.090509
210,松山南署管内,つきまとい,令和2年7月3日(金)午後5時30分ころ,松山市南高井町路上,女子高校生が自転車で移動中、信号待ちで停車したところ、隣に停車した男(40歳位、中肉、上下紫色合羽、ジェット型ヘルメット(シールドなし)着用、眼鏡・マスクなし、顎ひげあり、黒色様のオートバイ利用)に顔を覗き込むように見られ、付近を何度も走行されたもの。,松山市南高井町,松山市南高井町,1,blue,38.0,愛媛県,エヒメケン,EHIME KEN,38201.0,松山市,マツヤマシ,MATSUYAMA SHI,382010317000.0,南高井町,33.788893,132.81303400000002
211,松山東署管内,つきまとい,令和2年7月3日(金)午後4時30分ころ,松山市祝谷三丁目路上,男児小学生が歩いていたところ、道端に立った男(40〜50歳位、中肉、黒色短髪、上下黒色の服、黒色サングラス、黒色マスク着用、背中が曲がっている)の前を通り過ぎると、小走りで後をつけられたもの。,松山市祝谷三丁目,松山市祝谷三丁目,0,blue,38.0,愛媛県,エヒメケン,EHIME KEN,38201.0,松山市,マツヤマシ,MATSUYAMA SHI,382010033003.0,祝谷三丁目,33.855494,132.77583700000002
212,松山南署管内,声かけ,令和2年7月3日(金)午後3時ころ,松山市今在家二丁目路上,男児小学生が歩いていたところ、男(60〜70歳位、中肉、身長170〜180センチ位、上下白色合羽、眼鏡着用、白色の犬を散歩させている)に「名前なんて言うの。」と声をかけられ、名札を見られたもの。,松山市今在家二丁目,松山市今在家二丁目,0,green,38.0,愛媛県,エヒメケン,EHIME KEN,38201.0,松山市,マツヤマシ,MATSUYAMA SHI,382010031002.0,今在家二丁目,33.806922,132.791754
213,松山西署管内,声かけ,令和2年7月2日(木)午後5時ころ,松山市高岡町アパート敷地内,黒色様の服、オートバイ(青色と黒色、スクータータイプ)利用)にスマートフォンの画面を見せられ、「この女知っているか。」などと声をかけられたもの。,松山市高岡町,松山市高岡町,0,green,38.0,愛媛県,エヒメケン,EHIME KEN,38201.0,松山市,マツヤマシ,MATSUYAMA SHI,382010165000.0,高岡町,33.830861999999996,132.720361
214,四国中央署管内,つきまとい,令和2年7月2日(木)午後0時ころ,四国中央市三島中央四丁目路上,黒色長ズボン、黒色セカンドバッグ所持)にスマートフォンで容姿を撮影されたもの。その後、男性は女に後をつけられ、再度、容姿を撮影された。,四国中央市三島中央四丁目,四国中央市三島中央四丁目,0,blue,38.0,愛媛県,エヒメケン,EHIME KEN,38213.0,四国中央市,シコクチュウオウシ,SHIKOKUCHUO SHI,382130050004.0,三島中央四丁目,33.98072,133.540573
215,今治署管内,写真撮影,令和2年7月2日(木)午前7時20分ころ,今治市大西町新町路上,男子中学生が自転車で移動中、正面から歩いてきた男(40〜50歳位、身長170センチ位、短髪、灰色作業着、黒色カメラを首にかけている)にすれ違いざまにカメラで容姿を撮影されたもの。,今治市大西町新町,今治市大西町新町,0,lightred,38.0,愛媛県,エヒメケン,EHIME KEN,38202.0,今治市,イマバリシ,IMABARI SHI,382020024000.0,大西町新町,34.065189000000004,132.93073
216,今治署管内,建造物侵入,令和2年7月1日(水)午後5時ころ,今治市蔵敷町一丁目施設内,ズボン、青色キャップ帽着用、額中央にホクロ)が無断で立ち入り、無言で両手を上げて女子中学生らを驚かそうとする仕草をしたもの。その後は男は立ち去った。,今治市蔵敷町一丁目,今治市蔵敷町一丁目,0,darkred,38.0,愛媛県,エヒメケン,EHIME KEN,38202.0,今治市,イマバリシ,IMABARI SHI,382020076001.0,蔵敷町一丁目,34.058469,132.99973899999998
217,四国中央署管内,つきまとい,令和2年7月1日(水)午後4時15分ころ,四国中央市三島中央三丁目路上,女子高校生が歩行中、バイク(スクーター型、第一種原付)に乗った男(50歳位、上下紺色様の服、黒色ヘルメット、マスク着用)に並走されたり、停車して様子を窺われたりしたもの。女子高校生が男の容姿を撮影しようとしたところ、男は走り去った。,四国中央市三島中央三丁目,四国中央市三島中央三丁目,0,blue,38.0,愛媛県,エヒメケン,EHIME KEN,38213.0,四国中央市,シコクチュウオウシ,SHIKOKUCHUO SHI,382130050003.0,三島中央三丁目,33.981476,133.542925
218,四国中央署管内,声かけ,令和2年6月29日(月)午後5時20分ころ,四国中央市内走行中の電車内,女子中学生が電車内で座席に座って友人と談笑していたところ、男(40〜50歳位、中肉、身長165センチ位、黒色短髪、上下黒色様の服、黒縁眼鏡着用、黒色リュック所持、自転車利用)に近づかれ、「肩当たりましたか。」と声をかけられたもの。男は、下車後、自転車で立ち去った。,四国中央市内走行中の電車内,四国中央市内走行中の電車内,0,green,,,,,,,,,,,,
219,松山西署管内,声かけ,令和2年6月29日(月)午後5時ころ,松山市石風呂町路上,灰色短パン、黒色靴、黒色帽子(キャラクターの絵柄入り))に「名前なんぞ、学校どこぞ。」などと怒鳴られ、暴言を吐かれたもの。,松山市石風呂町,松山市石風呂町,0,green,38.0,愛媛県,エヒメケン,EHIME KEN,38201.0,松山市,マツヤマシ,MATSUYAMA SHI,382010020000.0,石風呂町,33.875987,132.717067
220,松山東署管内,つきまとい,令和2年6月29日(月)午後4時20分ころ,松山市道後喜多町から同市祝谷二丁目までの路上,白色Tシャツ、黒色マスク着用)に後をつきまとわれたもの。女子中学生が男に追い抜かれた際、男のスマートフォンを見るとカメラ機能が起動していた。,松山市道後喜多町から同市祝谷二丁目までの,松山市道後喜多町から同市祝谷二丁目まで,0,blue,,,,,,,,,,,,
221,伊予署管内,声かけ,令和2年6月29日(月)午後4時ころ,伊予郡松前町大字鶴吉路上,短パン、帽子なし)に「よう。」と軽く声をかけられ、無視すると、土の塊のような物を持って近づいてこられたもの。,伊予郡松前町大字鶴吉,伊予郡松前町大字鶴吉,0,green,38.0,愛媛県,エヒメケン,EHIME KEN,38401.0,伊予郡松前町,イヨグンマサキチョウ,IYO GUN MASAKI CHO,384010011000.0,大字鶴吉,33.782538,132.73879499999998
222,伊予署管内,身体露出,令和2年6月29日(月)午前8時15分ころ,伊予市稲荷甲一般住宅敷地内,黒色ズボン、黒色キャップ帽着用)を近隣住民が目撃したもの。,伊予市稲荷甲,伊予市稲荷,0,orange,38.0,愛媛県,エヒメケン,EHIME KEN,38210.0,伊予市,イヨシ,IYO SHI,382100002000.0,稲荷,33.741984,132.716554
223,松山南署管内,声かけ,令和2年6月28日(日)午後2時ころ,東温市牛渕公園内,黒色か灰色ズボン、黒色キャップ帽着用、財布所持)に「2千円あげるから、ジュース買ってきなさい。」等と声をかけられたもの。,東温市牛渕,東温市牛渕,1,green,38.0,愛媛県,エヒメケン,EHIME KEN,38215.0,東温市,トウオンシ,TOON SHI,382150003000.0,牛渕,33.790706,132.848621
224,西条署管内,のぞき・盗撮,令和2年6月27日(土)午後9時ころ,西条市新田字北新田店舗内,黒色長ズボン)に背後から下半身付近を撮影されたもの。,西条市新田字北新田,西条市新田,0,pink,38.0,愛媛県,エヒメケン,EHIME KEN,38206.0,西条市,サイジョウシ,SAIJO SHI,382060048000.0,新田,33.928917999999996,133.195214
225,今治署管内,つきまとい,令和2年6月26日(金)午後6時ころ,今治市東村一丁目店舗敷地内,女児小学生が母親と買い物中、女児小学生の後をつきまとう男(30〜40歳位、小肥、身長160センチ位、黒色短髪、上下灰色作業着、黒色リュックサック所持)の姿を母親が目撃したもの。母親が男をにらみつけたところ、男は立ち去った。,今治市東村一丁目,今治市東村一丁目,0,blue,38.0,愛媛県,エヒメケン,EHIME KEN,38202.0,今治市,イマバリシ,IMABARI SHI,382020175001.0,東村一丁目,34.043233,133.028504
226,新居浜署管内,つきまとい,令和2年6月25日(木)午後4時30分ころ,新居浜市庄内町四丁目路上,青色ジャージ)に後方をつきまとわれたもの。6月11日には、同じ男に「お嬢ちゃん。」と声をかけられている。,新居浜市庄内町四丁目,新居浜市庄内町四丁目,0,blue,38.0,愛媛県,エヒメケン,EHIME KEN,38205.0,新居浜市,ニイハマシ,NIIHAMA SHI,382050046004.0,庄内町四丁目,33.952338,133.28902
227,四国中央署管内,写真撮影,令和2年6月25日(木)午後4時15分ころ,四国中央市土居町野田乙路上,男児小学生3人が歩いていたところ、銀色の普通乗用自動車に乗った何者かにスマートフォンを向けられたもの。,四国中央市土居町野田乙,四国中央市土居町野田,0,lightred,38.0,愛媛県,エヒメケン,EHIME KEN,38213.0,四国中央市,シコクチュウオウシ,SHIKOKUCHUO SHI,382130034000.0,土居町野田,33.963837,133.464495
228,松山南署管内,写真撮影,令和2年6月25日(木)午後2時50分ころ,松山市平井町児童施設路上,若い、上下灰色ジャージ、茶髪、黒色マスク着用、黒色ショルダーバッグ・カメラ所持)を付近にいた保護者が目撃したもの。,松山市平井町,松山市平井町,0,lightred,38.0,愛媛県,エヒメケン,EHIME KEN,38201.0,松山市,マツヤマシ,MATSUYAMA SHI,382010260000.0,平井町,33.824694,132.83615600000002
229,松山東署管内,声かけ,令和2年6月25日(木)午後1時15分ころ,松山市余戸中六丁目路上,女性が徒歩で帰宅中、徒歩で近づいてきた男(30歳位、やせ型、身長160センチ位、上下黒色様の服、色黒、細めの顔、アゴが尖っている、野球帽着用、眼鏡なし)に下品な言葉をかけられたもの。,松山市余戸中六丁目,松山市余戸中六丁目,1,green,38.0,愛媛県,エヒメケン,EHIME KEN,38201.0,松山市,マツヤマシ,MATSUYAMA SHI,382010351006.0,余戸中六丁目,33.81758,132.73367199999998
230,伊予署管内,のぞき・盗撮,令和2年6月23日(火)午後9時20分ころ,伊予郡松前町大字神崎一般住宅,住民が庭先に出たところ、浴室の高窓付近に立っている男(30〜50歳位、中肉、身長170センチ位、上下黒色の服、靴着用)を発見したもの。住民に気が付いた男は走って逃走した。,伊予郡松前町大字神崎,伊予郡松前町大字神崎,0,pink,38.0,愛媛県,エヒメケン,EHIME KEN,38401.0,伊予郡松前町,イヨグンマサキチョウ,IYO GUN MASAKI CHO,384010004000.0,大字神崎,33.789132,132.74111399999998
231,松山南署管内,写真撮影,令和2年6月23日(火)午後4時30分ころ,松山市平井町施設内,ベージュ色ハーフパンツ、サングラス、黒色マスク着用、黒色又は灰色肩掛けカバン)を目撃したもの。その後、同じ男が施設付近にいるのを保護者が見つけたところ、男は走り去った。,松山市平井町,松山市平井町,1,lightred,38.0,愛媛県,エヒメケン,EHIME KEN,38201.0,松山市,マツヤマシ,MATSUYAMA SHI,382010260000.0,平井町,33.824694,132.83615600000002
232,松山南署管内,写真撮影,令和2年6月19日(金)午後5時50分ころ,松山市水泥町路上,黒色ズボン、黒縁眼鏡着用、黒色リュックサック(多数のキーホルダー付)・スマートフォン所持)にすれ違いざまスマートフォンを向けられたもの。その際、女子中学生が男のスマートフォンを見たところカメラ機能が起動していた。,松山市水泥町,松山市水泥町,0,lightred,38.0,愛媛県,エヒメケン,EHIME KEN,38201.0,松山市,マツヤマシ,MATSUYAMA SHI,382010308000.0,水泥町,33.803309999999996,132.826475
233,新居浜署管内,不審者,令和2年6月19日(金)午後5時30分ころ,新居浜市新須賀町一丁目駐輪場,黒色様の上着、眼鏡着用、ペン・メモ帳所持、髭なし)が女子中学生の方を見ながらメモをしていたもの。,新居浜市新須賀町一丁目,新居浜市新須賀町一丁目,0,purple,38.0,愛媛県,エヒメケン,EHIME KEN,38205.0,新居浜市,ニイハマシ,NIIHAMA SHI,382050048001.0,新須賀町一丁目,33.965438,133.287243
234,松山西署管内,声かけ,令和2年6月19日(金)午後2時ころ,松山市勝岡町路上,男児小学生が自転車で走行中、停車中の銀色軽四自動車に乗っていた男(40〜50歳位、やせ型、白髪混じり、黒色ニット帽様着用、眼鏡なし)に「こっち来て。」等と声をかけられたもの。数分後、男が乗る車の近くを通るも声はかけられなかった。,松山市勝岡町,松山市勝岡町,0,green,38.0,愛媛県,エヒメケン,EHIME KEN,38201.0,松山市,マツヤマシ,MATSUYAMA SHI,382010072000.0,勝岡町,33.900906,132.72248100000002
235,新居浜署管内,声かけ,令和2年6月19日(金)午前7時30分ころ,新居浜市一宮町一丁目路上,白色様ハーフパンツ、スマートフォン(自撮り棒付)・傘所持、眼鏡・マスクなし)が自撮り棒のついたスマートフォンを女児の足元付近に近づけていたことから、女児は「急いでますから。」と断り、立ち去った。,新居浜市一宮町一丁目,新居浜市一宮町一丁目,0,green,38.0,愛媛県,エヒメケン,EHIME KEN,38205.0,新居浜市,ニイハマシ,NIIHAMA SHI,382050006001.0,一宮町一丁目,33.959889000000004,133.282427
236,新居浜署管内,住居侵入,令和2年6月17日(水)午後10時15分ころ,新居浜市中萩町一般住宅,長ズボン、眼鏡・マスクなし)と鉢合わせしたもの。6月15日にものぞきの被害にあっている。,新居浜市中萩町,新居浜市中萩町,0,darkred,38.0,愛媛県,エヒメケン,EHIME KEN,38205.0,新居浜市,ニイハマシ,NIIHAMA SHI,382050073000.0,中萩町,33.928934000000005,133.28266100000002
237,四国中央署管内,写真撮影,令和2年6月17日(水)午後5時50分ころ,四国中央市具定町路上,保育園児が小学生2人と自宅庭先で遊んでいたところ、敷地に接する道を歩いていた男(上下黒色ジャージ、黒色帽子着用)に携帯電話機を向けられたもの。その後、男は車(灰色)に乗って走り去った。,四国中央市具定町,四国中央市具定町,0,lightred,38.0,愛媛県,エヒメケン,EHIME KEN,38213.0,四国中央市,シコクチュウオウシ,SHIKOKUCHUO SHI,382130015000.0,具定町,33.96085,133.52972
238,松山南署管内,暴行,令和2年6月17日(水)午前9時40分ころ,松山市東石井二丁目路上,女子中学生が歩いていたところ、向かいから歩いてきた男(50〜60歳位、中肉、短髪、眼鏡なし)が急に近づいてきて、すれ違いざまに肩をぶつけてきたもの。,松山市東石井二丁目,松山市東石井二丁目,0,red,38.0,愛媛県,エヒメケン,EHIME KEN,38201.0,松山市,マツヤマシ,MATSUYAMA SHI,382010248002.0,東石井二丁目,33.816515,132.77981200000002
239,松山西署管内,つきまとい,令和2年6月17日(水)午前7時10分ころ,松山市堀江町甲路上,黒色ジャージ、灰色ハット帽、白色マスク、黒色手袋着用)に後方をつきまとわれたもの。,松山市堀江町甲,松山市堀江町,1,blue,38.0,愛媛県,エヒメケン,EHIME KEN,38201.0,松山市,マツヤマシ,MATSUYAMA SHI,382010288000.0,堀江町,33.908885,132.75913799999998
240,新居浜署管内,つきまとい,令和2年6月17日(水)午前7時ころ,新居浜市萩生路上,薄茶色長ズボン、眼鏡なし)に後をつけられたもの。児童らは、6月12日にも後をつけられている。,新居浜市萩生,新居浜市萩生,1,blue,38.0,愛媛県,エヒメケン,EHIME KEN,38205.0,新居浜市,ニイハマシ,NIIHAMA SHI,382050083000.0,萩生,33.911838,133.268311
241,松山南署管内,つきまとい,令和2年6月16日(火)午後6時20分ころ,松山市枝松六丁目路上から同市福音寺町路上までの間,黒色様半ズボン、白色マスク着用、灰色チワワ様の小型犬を連れている)がおり、女子中学生が走ると、男も後方を走って追いかけてきたもの。,松山市枝松六丁目,松山市枝松六丁目,0,blue,38.0,愛媛県,エヒメケン,EHIME KEN,38201.0,松山市,マツヤマシ,MATSUYAMA SHI,382010048006.0,枝松六丁目,33.825415,132.784859
242,松山西署管内,不審者,令和2年6月16日(火)午後4時50分ころ,松山市北斎院町公園内,ズボン、帽子・眼鏡なし)が下半身を触りながらスマートフォン(オレンジ色又は赤色カバー付き)を向けてきたもの。,松山市北斎院町,松山市北斎院町,3,purple,38.0,愛媛県,エヒメケン,EHIME KEN,38201.0,松山市,マツヤマシ,MATSUYAMA SHI,382010095000.0,北斎院町,33.839402,132.723636
243,松山東署管内,不審者,令和2年6月16日(火)午後4時20分ころ,松山市下伊台町路上,白色襟付きシャツ、色白、眼鏡・マスクなし)に無言で手招きされたもの。,松山市下伊台町,松山市下伊台町,0,purple,38.0,愛媛県,エヒメケン,EHIME KEN,38201.0,松山市,マツヤマシ,MATSUYAMA SHI,382010140000.0,下伊台町,33.873539,132.799896
244,愛南署管内,声かけ,令和2年6月13日(土)午後5時ころ,南宇和郡愛南町平碆路上,女性が散策中、男(30〜40歳位、中肉、身長160センチ位、黒色短髪)から「すみません。」と声をかけられたが無視したところ、腕を引っ張られたもの。,南宇和郡愛南町平碆,南宇和郡愛南町平碆,0,green,38.0,愛媛県,エヒメケン,EHIME KEN,38506.0,南宇和郡愛南町,ミナミウワグンアイナンチョウ,MINAMIUWA GUN AINAN CHO,385060040000.0,平碆,33.046378000000004,132.473554
245,伊予署管内,写真撮影,令和2年6月12日(金)午後6時30分ころ,伊予市上野路上,緑色様ジャンパー様)からスマートフォン(茶色カバー付き)を向けられたもの。同車両は、その前日にも付近で停車しているのを目撃されている。,伊予市上野,伊予市上野,0,lightred,38.0,愛媛県,エヒメケン,EHIME KEN,38210.0,伊予市,イヨシ,IYO SHI,382100003000.0,上野,33.772114,132.748155
246,四国中央署管内,写真撮影,令和2年6月12日(金)午後6時30分ころ,四国中央市川之江町路上,黒色長ズボン)に黒色スマートフォンを向けられたもの。,四国中央市川之江町,四国中央市川之江町,3,lightred,38.0,愛媛県,エヒメケン,EHIME KEN,38213.0,四国中央市,シコクチュウオウシ,SHIKOKUCHUO SHI,382130008000.0,川之江町,34.014303999999996,133.57968200000002
247,新居浜署管内,つきまとい,令和2年6月12日(金)午後6時25分ころ,新居浜市神郷二丁目から同市垣生一丁目までの路上,黒色ジャージ、白色マスク着用)に自転車(銀色、軽快兼用車)で後をつきまとわれたもの。,新居浜市神郷二丁目から同市垣生一丁目までの,新居浜市神郷二丁目から同市垣生一丁目まで,0,blue,,,,,,,,,,,,
248,松山東署管内,身体露出,令和2年6月12日(金)午後0時30分ころ,松山市朝美一丁目路上,ジーパン)が下半身を露出していたもの。,松山市朝美一丁目,松山市朝美一丁目,0,orange,38.0,愛媛県,エヒメケン,EHIME KEN,38201.0,松山市,マツヤマシ,MATSUYAMA SHI,382010010001.0,朝美一丁目,33.843604,132.74538700000002
249,四国中央署管内,声かけ,令和2年6月11日(木)午後9時30分ころ,四国中央市三島中央三丁目路上,女子高校生2人が歩いていたところ、飲食店の店先にいた3人組の1人(男、20歳位、中肉、身長165センチ位、黒髪(髪が伸びて毛先が金色)、上下黒色ジャージ(金色ライン入り)、タバコ所持)から、「女子高生か。」「キャバクラどこにある。」と声をかけられたもの。,四国中央市三島中央三丁目,四国中央市三島中央三丁目,1,green,38.0,愛媛県,エヒメケン,EHIME KEN,38213.0,四国中央市,シコクチュウオウシ,SHIKOKUCHUO SHI,382130050003.0,三島中央三丁目,33.981476,133.542925
250,松山東署管内,声かけ,令和2年6月11日(木)午前7時10分ころ,松山市衣山四丁目の施設,濃いベージュ色パンツ、赤色スニーカー、コンビニ袋所持)を目撃したもの。,松山市衣山四丁目の,松山市衣山四丁目,0,green,38.0,愛媛県,エヒメケン,EHIME KEN,38201.0,松山市,マツヤマシ,MATSUYAMA SHI,382010101004.0,衣山四丁目,33.852359,132.736372
251,伊予署管内,写真撮影,令和2年6月10日(水)午後2時15分ころ,伊予市中村路上,女児小学生が友人と歩いていたところ、男(30〜40歳位、帽子着用)にスマートフォンを向けられたもの。,伊予市中村,伊予市中村,0,lightred,38.0,愛媛県,エヒメケン,EHIME KEN,38210.0,伊予市,イヨシ,IYO SHI,382100014000.0,中村,33.737128000000006,132.69213
252,松山南署管内,ちかん,令和2年6月8日(月)午後1時ころ,松山市朝生田町二丁目の路上,女性が自転車で帰宅中、後方から自転車(黄色、スポーツタイプ)に乗って近づいてきた男(50〜70歳位、身長170〜180センチ位、上下自転車用ウェア、自転車用ヘルメット、サングラス、マスク着用)に追い越しざま身体を触られたもの。,松山市朝生田町二丁目の,松山市朝生田町二丁目,0,gray,38.0,愛媛県,エヒメケン,EHIME KEN,38201.0,松山市,マツヤマシ,MATSUYAMA SHI,382010011002.0,朝生田町二丁目,33.823281,132.769552
253,伊予署管内,のぞき,令和2年6月7日(日)午後9時15分ころ,伊予郡松前町大字西古泉の一般住宅,女性が入浴中、風呂場の窓にかけてある簾を何者かが掴んで動かそうとするのを目撃したもの。,伊予郡松前町大字西古泉の,伊予郡松前町大字西古泉,1,pink,38.0,愛媛県,エヒメケン,EHIME KEN,38401.0,伊予郡松前町,イヨグンマサキチョウ,IYO GUN MASAKI CHO,384010015000.0,大字西古泉,33.794521,132.713929
254,新居浜署管内,つきまとい,令和2年6月7日(日)午後5時20分ころ,新居浜市中萩町河川敷,紺色半ズボン、携帯電話機所持、眼鏡・髭なし)が近づいてきたもの。,新居浜市中萩町,新居浜市中萩町,1,blue,38.0,愛媛県,エヒメケン,EHIME KEN,38205.0,新居浜市,ニイハマシ,NIIHAMA SHI,382050073000.0,中萩町,33.928934000000005,133.28266100000002
255,西条署管内,身体露出,令和2年6月7日(日)午後0時10分ころ,西条市新田の店舗,ズボン、眼鏡あり)が支払いの際に下半身を露出しているのを目撃したもの。,西条市新田の,西条市新田,1,orange,38.0,愛媛県,エヒメケン,EHIME KEN,38206.0,西条市,サイジョウシ,SAIJO SHI,382060048000.0,新田,33.928917999999996,133.195214
256,松山東署管内,つきまとい,令和2年6月6日(土)午後5時ころ,松山市立花四丁目から朝生田町二丁目までの路上,灰色チノパン様長ズボン、縁が大きめの黒色サングラス、マスク、灰色キャップ帽着用)に追い抜かれた。その後、再び現れた男に後をつけられたもの。,松山市立花四丁目から朝生田町二丁目までの,松山市立花四丁目から朝生田町二丁目まで,0,blue,,,,,,,,,,,,
257,松山西署管内,不審者,令和2年6月6日(土)午後4時50分ころ,松山市高岡町の路上,水色長ズボン、白色半キャップヘルメット、白色マスク着用、黒色バッグ所持、眼鏡なし、自転車利用(黒色様、軽快兼用車、前後にかご付))を目撃したもの。,松山市高岡町の,松山市高岡町,1,purple,38.0,愛媛県,エヒメケン,EHIME KEN,38201.0,松山市,マツヤマシ,MATSUYAMA SHI,382010165000.0,高岡町,33.830861999999996,132.720361
258,松山西署管内,声かけ,令和2年6月5日(金)午前8時ころ,松山市北条辻の路上,女子高校生数人が歩いていたところ、男(60〜70歳位、身長170センチ位)に「目が綺麗やね。」等と声をかけられたもの。,松山市北条辻の,松山市北条辻,1,green,38.0,愛媛県,エヒメケン,EHIME KEN,38201.0,松山市,マツヤマシ,MATSUYAMA SHI,382010282000.0,北条辻,33.968379,132.777843
259,松山東署管内,不審者,令和2年6月4日(木)午前7時35分ころ,松山市祝谷六丁目路上,長ズボン、手提げバッグ所持)に進路を塞がれ、避けたところ、すぐ前に近づいてこられたもの。,松山市祝谷六丁目,松山市祝谷六丁目,0,purple,38.0,愛媛県,エヒメケン,EHIME KEN,38201.0,松山市,マツヤマシ,MATSUYAMA SHI,382010033006.0,祝谷六丁目,33.863326,132.774303
260,松山南署管内,不審者,令和2年6月4日(木)午前7時15分ころ,伊予郡砥部町高尾田路上,黒色無地短パン、マスク、黒縁眼鏡着用)にじっと見られ、その後、徘徊するのを目撃したもの。,伊予郡砥部町高尾田,伊予郡砥部町高尾田,1,purple,38.0,愛媛県,エヒメケン,EHIME KEN,38402.0,伊予郡砥部町,イヨグントベチョウ,IYO GUN TOBE CHO,384020020000.0,高尾田,33.779877,132.795277
261,松山東署管内,つきまとい,令和2年6月2日(火)午後4時55分ころ,松山市平和通二丁目路上,ジャージズボン、髭あり、マスク・眼鏡なし、爪を噛んでいた)に帰宅経路で遭遇し、つきまとわれたもの。,松山市平和通二丁目,松山市平和通二丁目,0,blue,38.0,愛媛県,エヒメケン,EHIME KEN,38201.0,松山市,マツヤマシ,MATSUYAMA SHI,382010279002.0,平和通二丁目,33.847649,132.770418
262,四国中央署管内,つきまとい,令和2年6月1日(月)午後10時30分ころ,四国中央市三島中央三丁目施設内,黒色ジャージ(黄色様ライン入り)、髭あり、黒縁眼鏡着用)と施設内で遭遇し、つきまとわれたもの。,四国中央市三島中央三丁目,四国中央市三島中央三丁目,2,blue,38.0,愛媛県,エヒメケン,EHIME KEN,38213.0,四国中央市,シコクチュウオウシ,SHIKOKUCHUO SHI,382130050003.0,三島中央三丁目,33.981476,133.542925
263,松山西署管内,つきまとい,令和2年6月1日(月)午後4時40分ころ,松山市梅津寺町乙から松山市新浜町までの間の路上,灰色ズボン、浅黒い肌、細長い目、ホームベース顔、白色マスク着用、眼鏡なし)につきまとわれたもの。,松山市梅津寺町乙から松山市新浜町までの間の,松山市梅津寺町乙から松山市新浜町までの間,0,blue,,,,,,,,,,,,
264,大洲署管内,声かけ,令和2年5月30日(土)午前8時10分ころ,大洲市若宮路上,オレンジ色ベスト、ベストの下に緑色の長袖の服、帽子・マスクなし、薄い水色の電動自転車利用)に呼び止められ、下品な言葉をかけられたもの。男の近くに自転車が停められていた。,大洲市若宮,大洲市若宮,1,green,38.0,愛媛県,エヒメケン,EHIME KEN,38207.0,大洲市,オオズシ,OZU SHI,382070082000.0,若宮,33.521514,132.549221
265,松山南署管内,声かけ,令和2年5月29日(金)午後4時45分ころ,松山市朝生田町六丁目の公園,緑色とベージュ色のアロハシャツ様、丸縁サングラス、黒色様キャップ帽着用、黒色様リュックサック、ナイロン袋)がタブレット端末を取り出し「一緒に写真を撮ろう。」と声をかけながら近づいてきたもの。,松山市朝生田町六丁目の,松山市朝生田町六丁目,0,green,38.0,愛媛県,エヒメケン,EHIME KEN,38201.0,松山市,マツヤマシ,MATSUYAMA SHI,382010011006.0,朝生田町六丁目,33.820479999999996,132.767167
266,四国中央署管内,写真撮影,令和2年5月29日(金)午後4時20分ころ,四国中央市金田町金川路上,黒色様の服、白色マスク着用、ベージュ色様カバー付きのスマートフォン所持、眼鏡なし)にスマートフォンを向けられたもの。男は付近に停めてあったトラック(白色、屋号等の表記なし)の助手席に乗って走り去った。,四国中央市金田町金川,四国中央市金田町金川,0,lightred,38.0,愛媛県,エヒメケン,EHIME KEN,38213.0,四国中央市,シコクチュウオウシ,SHIKOKUCHUO SHI,382130001000.0,金田町金川,33.977056,133.595496
267,新居浜署管内,声かけ,令和2年5月28日(木)午後5時55分ころ,新居浜市政枝町一丁目路上,紺色半袖Tシャツ、白色帽子、白色軍手、白色マスク着用、眼鏡なし)に後方をつきまとわれ、一旦被害者が停止し、振り返ったところ、男に「お嬢ちゃん。」と声をかけられたもの。,新居浜市政枝町一丁目,新居浜市政枝町一丁目,0,green,38.0,愛媛県,エヒメケン,EHIME KEN,38205.0,新居浜市,ニイハマシ,NIIHAMA SHI,382050094001.0,政枝町一丁目,33.947459,133.286506
268,四国中央署管内,不審者,令和2年5月27日(水)午後6時ころ,四国中央市妻鳥町の駐車場,灰色ズボン)が店舗駐車場にやって来たことから従業員が声をかけたところ、男は無言で従業員を凝視して立ち去ったもの。2週間ほど前から男が店舗の様子を窺いながら自転車で走っているのを目撃している。,四国中央市妻鳥町の,四国中央市妻鳥町,4,purple,38.0,愛媛県,エヒメケン,EHIME KEN,38213.0,四国中央市,シコクチュウオウシ,SHIKOKUCHUO SHI,382130053000.0,妻鳥町,33.991779,133.572307
269,松山東署管内,暴行,令和2年5月27日(水)午後5時ころ,松山市藤原二丁目路上,白色ズボン)に「がんばれよ。」「ちゃんと走れよ。」と声をかけられながら背中を押されたもの。男児小学生は押された拍子に転倒した。,松山市藤原二丁目,松山市藤原二丁目,0,red,38.0,愛媛県,エヒメケン,EHIME KEN,38201.0,松山市,マツヤマシ,MATSUYAMA SHI,382010267002.0,藤原二丁目,33.830372,132.758659
270,松山西署管内,つきまとい,令和2年5月27日(水)午前7時40分ころ,松山市石風呂町路上,灰色短パン、睨み付けるような目付き)に後をつけられたもの。,松山市石風呂町,松山市石風呂町,1,blue,38.0,愛媛県,エヒメケン,EHIME KEN,38201.0,松山市,マツヤマシ,MATSUYAMA SHI,382010020000.0,石風呂町,33.875987,132.717067
271,松山西署管内,つきまとい,令和2年5月26日(火)午後4時ころ,松山市和気町二丁目路上,ベージュ色のズボン、帽子・マスク無し)に間隔をあけて後をつけられたもの。,松山市和気町二丁目,松山市和気町二丁目,0,blue,38.0,愛媛県,エヒメケン,EHIME KEN,38201.0,松山市,マツヤマシ,MATSUYAMA SHI,382010362002.0,和気町二丁目,33.899122,132.734604
272,松山西署管内,不審者,令和2年5月26日(火)午前10時ころ,松山市西長戸町のアパート,女性が在宅中、浄化槽の点検業者を名乗る男が訪ねてきたため、インターホン越しに対応したところ、「会って話をしませんか、玄関に出てきてください。」等と面会を要求をされたもの。管理会社に確認するも、契約業者の訪問事実はなかった。,松山市西長戸町の,松山市西長戸町,0,purple,38.0,愛媛県,エヒメケン,EHIME KEN,38201.0,松山市,マツヤマシ,MATSUYAMA SHI,382010231000.0,西長戸町,33.867813,132.741949
273,四国中央署管内,不審者,令和2年5月26日(火)午前7時20分ころ,四国中央市下柏町路上,長ズボン、柴犬様の犬を連れている)に近づかれ、制服の襟を軽く引っ張られたもの。,四国中央市下柏町,四国中央市下柏町,0,purple,38.0,愛媛県,エヒメケン,EHIME KEN,38213.0,四国中央市,シコクチュウオウシ,SHIKOKUCHUO SHI,382130018000.0,下柏町,33.98585,133.566343
274,松山南署管内,つきまとい,令和2年5月25日(月)午後5時ころ,松山市市坪北一丁目路上,灰色迷彩柄七分丈ズボン、灰色マスク着用、眼鏡無し)を歩いて追い越したところ、男に追い抜かれた後、停車して様子を窺われたもの。女子高校生が不審に思い、男に携帯電話機を向けたところ、男は立ち去った。,松山市市坪北一丁目,松山市市坪北一丁目,0,blue,38.0,愛媛県,エヒメケン,EHIME KEN,38201.0,松山市,マツヤマシ,MATSUYAMA SHI,382010023001.0,市坪北一丁目,33.81357,132.753668
275,四国中央署管内,不審者,令和2年5月25日(月)午前7時20分ころ,四国中央市下柏町路上,長ズボン、白色様の犬を連れている)に後方をつきまとわれ、信号待ちで立ち止まったところで近づかれ、制服の襟部分を触られたうえ、左肩をポンポンと叩かれたもの。,四国中央市下柏町,四国中央市下柏町,1,purple,38.0,愛媛県,エヒメケン,EHIME KEN,38213.0,四国中央市,シコクチュウオウシ,SHIKOKUCHUO SHI,382130018000.0,下柏町,33.98585,133.566343
276,今治署管内,声かけ,令和2年5月23日(土)午後4時30分ころ,今治市宮ヶ崎甲路上,女児中学生がランニング中、銀色の軽四乗用車で近づいてきた男(60歳位、小肥、身長低め、スキンヘッド、眼鏡着用)に「頑張ってるね、これでお茶か何か買ってね。」と言って千円札1枚を渡されたもの。別の日にも同様に声かけされている。,今治市宮ヶ崎甲,今治市宮ヶ崎,0,green,38.0,愛媛県,エヒメケン,EHIME KEN,38202.0,今治市,イマバリシ,IMABARI SHI,382020194000.0,宮ヶ崎,34.014382,133.011501
277,松山東署管内,つきまとい,令和2年5月23日(土)午前3時35分ころ,松山市土居田町路上,灰色ジャージズボン)に執拗に車で後をつきまとわれたもの。,松山市土居田町,松山市土居田町,4,blue,38.0,愛媛県,エヒメケン,EHIME KEN,38201.0,松山市,マツヤマシ,MATSUYAMA SHI,382010195000.0,土居田町,33.823276,132.746488
278,新居浜署管内,声かけ,令和2年5月22日(金)午後5時ころ,新居浜市宮西町路上,黒色様長ズボン、黒色長めのボサボサ髪、口元に青髭、眼鏡・マスク無し、茶色手帳型ケースのスマートフォン、茶色ショルダーバック所持、前かご付軽快兼用自転車利用)に「コンビニのある道を教えて下さい。」「友達になってください。」と声をかけられたもの。,新居浜市宮西町,新居浜市宮西町,0,green,38.0,愛媛県,エヒメケン,EHIME KEN,38205.0,新居浜市,ニイハマシ,NIIHAMA SHI,382050102000.0,宮西町,33.960891,133.276819
279,新居浜署管内,声かけ,令和2年5月22日(金)午後4時50分ころ,新居浜市清水町路上,女性が道を歩いていたところ、後方から男(30〜40歳位、小肥、マッシュルームカット様の黒髪、マスク着用、眼鏡無し、自転車利用(水色、軽快兼用車、前かご付き))に「お嬢さん。」と声をかけられたもの。5月26日午後5時ころにも自転車で帰宅していたところ、新居浜市庄内町で、同じ様な男につきまとわれ、「お嬢さん。」と声をかけられた。,新居浜市清水町,新居浜市清水町,0,green,38.0,愛媛県,エヒメケン,EHIME KEN,38205.0,新居浜市,ニイハマシ,NIIHAMA SHI,382050044000.0,清水町,33.978401,133.29124299999998
280,松山南署管内,不審者,令和2年5月22日(金)午前10時30分ころ,松山市朝生田路上,黒色ジャージ、マスク・白色手袋着用)が施設のドアをガチャガチャとし始めたため、職員が声をかけたところ、男は「何もないが。」と怒鳴り、徒歩で立ち去ったもの。,松山市朝生田,松山市朝生田,0,purple,,,,,,,,,,,,
281,松山東署管内,つきまとい,令和2年5月21日(木)午後9時10分ころ,松山市堀之内から松山市二番町三丁目までの路上,黒色長ズボン、細長たれ目、色白)に「一緒に帰ろう。」等声をかけられ、後方をつきまとわれた後に、腕を3回掴まれたもの。,松山市堀之内から松山市二番町三丁目までの,松山市堀之内から松山市二番町三丁目まで,0,blue,,,,,,,,,,,,
282,四国中央署管内,写真撮影,令和2年5月20日(水)午後3時45分ころ,四国中央市中之庄町の児童施設,不明、黒色短髪、メガネ着用、銀色セダン型自動車利用)が、児童施設にカメラを向けているのを、その場に居合わせた保護者が目撃したもの。,四国中央市中之庄町の,四国中央市中之庄町,3,lightred,38.0,愛媛県,エヒメケン,EHIME KEN,38213.0,四国中央市,シコクチュウオウシ,SHIKOKUCHUO SHI,382130046000.0,中之庄町,33.963258,133.536488
283,松山東署管内,ちかん,令和2年5月20日(水)午後0時ころ,松山市室町一丁目の緑地,ジーンズ、キャップ帽子、眼鏡着用、ガラケー所持、自転車利用)に進路に立ちふさがられ「どうやったらスカートってずれ落ちんようにしている。」などと声をかけられながらスカートを捲られたもの。,松山市室町一丁目の,松山市室町一丁目,0,gray,38.0,愛媛県,エヒメケン,EHIME KEN,38201.0,松山市,マツヤマシ,MATSUYAMA SHI,382010332001.0,室町一丁目,33.828795,132.765308
284,松山南署管内,つきまとい,令和2年5月20日(水)午前8時ころ,松山市古川南三丁目から伊予郡松前町大字恵久美までの路上,ベージュ色七分丈ズボン、短髪、黒色キャップ帽子、白色マスク着用、赤色リュックサック所持、軽快兼用自転車利用)に追い抜かれたり、待ち伏せされたりして、つきまとわれたもの。,松山市古川南三丁目から伊予郡松前町大字恵久美までの,松山市古川南三丁目から伊予郡松前町大字恵久美まで,0,blue,,,,,,,,,,,,
285,西条西署管内,声かけ,令和2年5月19日(火)午後0時50分ころ,西条市三津屋の駐輪場,黒色ジャージ様長ズボン、白色マスク着用)に身体を見られながら、下品な言葉を言われ、腕を掴まれたもの。,西条市三津屋の,西条市三津屋,2,green,38.0,愛媛県,エヒメケン,EHIME KEN,38206.0,西条市,サイジョウシ,SAIJO SHI,382060149000.0,三津屋,33.934752,133.086945
286,四国中央署管内,声かけ,令和2年5月18日(月)午後3時ころ,四国中央市中曽根町路上,女児小学生が友人1人と歩行中、茶色の軽四乗用自動車に乗った男(30〜40歳位、中肉、眼鏡着用)に窓越しに「乗って帰る?」と声をかけられたもの。女児小学生が「大丈夫です。」と断ると行為者は走り去った。,四国中央市中曽根町,四国中央市中曽根町,1,green,38.0,愛媛県,エヒメケン,EHIME KEN,38213.0,四国中央市,シコクチュウオウシ,SHIKOKUCHUO SHI,382130045000.0,中曽根町,33.965099,133.54918600000002
287,八幡浜署管内,声かけ,令和2年5月18日(月)午前7時40分ころ,八幡浜市路上,灰色様ズボン、帽子着用)に後ろから「気持ち悪い。」と叫ばれたもの。,八幡浜市,八幡浜市,0,green,,,,,,,,,,,,
288,松山南署管内,不審者,令和2年5月16日(土)午後3時30分ころ,松山市久米窪田町路上,自転車(黒色様、ハンドルが横一文字タイプ)に乗車した男(40歳位、やせ型、身長165〜170センチ位、茶色短髪、紺色のつなぎの作業着)が、家をジロジロ見ながら徘徊するのを付近住民が目撃したもの。,松山市久米窪田町,松山市久米窪田町,1,purple,38.0,愛媛県,エヒメケン,EHIME KEN,38201.0,松山市,マツヤマシ,MATSUYAMA SHI,382010114000.0,久米窪田町,33.804652000000004,132.811203
289,松山西署管内,身体露出,令和2年5月15日(金)午前9時30分ころ,松山市府中路上,黒色ズボン、ニット帽着用)を女性が目撃したもの。男は目撃者の様子を窺っているようであった。,松山市府中,松山市府中,1,orange,38.0,愛媛県,エヒメケン,EHIME KEN,38201.0,松山市,マツヤマシ,MATSUYAMA SHI,382010270000.0,府中,33.955365,132.77572800000002
290,新居浜署管内,身体露出,令和2年5月14日(木)午後7時10分ころ,新居浜市八幡二丁目路上,青色ジーパン、帽子・眼鏡・マスク・髭無し)とすれ違ったもの。,新居浜市八幡二丁目,新居浜市八幡二丁目,0,orange,38.0,愛媛県,エヒメケン,EHIME KEN,38205.0,新居浜市,ニイハマシ,NIIHAMA SHI,382050084002.0,八幡二丁目,33.982083,133.30971499999998
291,新居浜署管内,声かけ,令和2年5月14日(木)午後6時ころ,新居浜市高津町路上,女性が庭で散水していたところ、自転車(軽快兼用自転車)で付近を徘徊していた男(20歳位、中肉、身長170センチ位、黒色長髪、上下暗い色の服、黒色キャップ帽着用、眼鏡・マスク無し)に「これって変ですかね。」と髪形について尋ねられたもの。男はしつこく同じことを尋ねてきたが、女性の家族が帰宅すると立ち去った。,新居浜市高津町,新居浜市高津町,0,green,38.0,愛媛県,エヒメケン,EHIME KEN,38205.0,新居浜市,ニイハマシ,NIIHAMA SHI,382050057000.0,高津町,33.972074,133.299506
292,松山南署管内,声かけ,令和2年5月13日(水)午後9時40分ころ,松山市北土居一丁目路上,紺色ジーパン、黒色ボクサーパンツ、黒色の細い長方形フレームの眼鏡着用、マスク無し)に「一回だけ、一回だけ」と声をかけられたもの。女子中学生は直前に男が車(白色、セダン型)から降りてきたのを目撃している。,松山市北土居一丁目,松山市北土居一丁目,0,green,38.0,愛媛県,エヒメケン,EHIME KEN,38201.0,松山市,マツヤマシ,MATSUYAMA SHI,382010097001.0,北土居一丁目,33.806292,132.787584
293,松山南署管内,のぞき・盗撮,令和2年5月12日(火)午後0時00分ころ,東温市北方路上,女子高校生が自転車で走行中、前方にいた男(50〜60歳位、黒色短髪、上下暗色のピッチリした服、マスク・眼鏡・帽子なし)にしゃがみ込まれスカート内を覗かれたもの。,東温市北方,東温市北方,0,pink,38.0,愛媛県,エヒメケン,EHIME KEN,38215.0,東温市,トウオンシ,TOON SHI,382150006000.0,北方,33.820826000000004,132.91541
294,大洲署管内,身体露出,令和2年5月12日(火)午前8時20分ころ,喜多郡内子町大瀬中央路上,路上に全裸で立っている男(40歳位、小肥)を女子高校生が目撃したもの。,喜多郡内子町大瀬中央,喜多郡内子町大瀬中央,0,orange,38.0,愛媛県,エヒメケン,EHIME KEN,38422.0,喜多郡内子町,キタグンウチコチョウ,KITA GUN UCHIKO CHO,384220008000.0,大瀬中央,33.600221999999995,132.734117
295,松山西署管内,つきまとい,令和2年5月11日(月)午後2時50分ころ,松山市西垣生町路上,黒色長ズボン、黒色軽快兼用自転車利用)の脇を通りすぎたところ、後をつけられたもの。,松山市西垣生町,松山市西垣生町,3,blue,38.0,愛媛県,エヒメケン,EHIME KEN,38201.0,松山市,マツヤマシ,MATSUYAMA SHI,382010233000.0,西垣生町,33.813675,132.701207
296,宇和島署管内,写真撮影,令和2年5月11日(月)午後0時10分ころ,宇和島市内走行中の列車内,女子高校生2人が列車に乗っていたところ、乗り合わせた男(50〜60歳位、小肥、身長160センチ位、上下紺色様作業着(左胸に刺繍あり)、白色マスク、黒色キャップ帽着用、リュックサック所持)にスマートフォンで容姿を撮影されたもの。男の行為を別の乗客が目撃していた。,宇和島市内走行中の列車内,宇和島市内走行中の列車内,0,lightred,,,,,,,,,,,,
297,松山東署管内,声かけ,令和2年5月9日(土)午後0時30分ころ,松山市湊町五丁目路上,紺色様ジーンズ、二重で目が大きい)に「昨日会ったやろうが。」等と呼び止められたもの。さらに男から「相手せえや。」等と声をかけられながら、背負っていたリュックサックに手をかけられたもの。,松山市湊町五丁目,松山市湊町五丁目,1,green,38.0,愛媛県,エヒメケン,EHIME KEN,38201.0,松山市,マツヤマシ,MATSUYAMA SHI,382010310005.0,湊町五丁目,33.835933000000004,132.762679
298,松山西署管内,暴行,令和2年5月8日(金)午後5時45分ころ,松山市鴨川三丁目路上,黒色様ズボン、眼鏡着用、ベージュ色トートバッグ所持)に石を投げつけられた上、無言のまま近づいて来られ、顔に手を押し当てられたもの。その後、男は、再度石を投げて立ち去った。,松山市鴨川三丁目,松山市鴨川三丁目,0,red,38.0,愛媛県,エヒメケン,EHIME KEN,38201.0,松山市,マツヤマシ,MATSUYAMA SHI,382010082003.0,鴨川三丁目,33.874015,132.74877800000002
299,四国中央署管内,住居侵入,令和2年5月3日(日)午後8時ころ,四国中央市金田町半田の住宅,灰色ズボン、スニーカー様の靴着用)を目撃したもの。近隣住民に発見されたところ男は逃走した。,四国中央市金田町半田の,四国中央市金田町半田,0,darkred,38.0,愛媛県,エヒメケン,EHIME KEN,38213.0,四国中央市,シコクチュウオウシ,SHIKOKUCHUO SHI,382130003000.0,金田町半田,33.989473,133.609
300,松山東署管内,写真撮影,令和2年5月2日(土)午後3時ころ,松山市湊町三丁目路上,緑色フライトジャケット様、眼鏡着用、赤色スマートフォン所持、面長)を目撃したもの。男のスマートフォンのカメラ機能が作動していたことから、通行人が女性に声をかけたところ、男は立ち去った。,松山市湊町三丁目,松山市湊町三丁目,1,lightred,38.0,愛媛県,エヒメケン,EHIME KEN,38201.0,松山市,マツヤマシ,MATSUYAMA SHI,382010310003.0,湊町三丁目,33.835677000000004,132.769073
301,松山東署管内,つきまとい,令和2年5月1日(金)午後5時10分ころ,松山市宮西一丁目路上,黒色ズボン)に後をつけられたもの。,松山市宮西一丁目,松山市宮西一丁目,1,blue,38.0,愛媛県,エヒメケン,EHIME KEN,38201.0,松山市,マツヤマシ,MATSUYAMA SHI,382010326001.0,宮西一丁目,33.845813,132.752728
302,松山南署管内,不審者,令和2年4月29日(水)午後3時30分ころ,東温市南方路上,青色長ズボン、黒色マスク着用)に「携帯を貸せ。」と呼び止められ、男に携帯電話を手渡すと、地面に投げつけられたもの。,東温市南方,東温市南方,0,purple,38.0,愛媛県,エヒメケン,EHIME KEN,38215.0,東温市,トウオンシ,TOON SHI,382150017000.0,南方,33.788918,132.902291
303,大洲署管内,写真撮影,令和2年4月28日(火)午後2時40分ころ,大洲市阿蔵付近路上,ピンク色ズボン、ピンク色様スマートフォン所持)に車の前からスマートフォンを向けられたもの。女は、車(灰色、セダンタイプ)に乗って走り去った。,大洲市阿蔵,大洲市阿蔵,1,lightred,38.0,愛媛県,エヒメケン,EHIME KEN,38207.0,大洲市,オオズシ,OZU SHI,382070001000.0,阿蔵,33.512059,132.532018
304,新居浜署管内,写真撮影,令和2年4月28日(火)午後2時20分ころ,新居浜市新須賀町二丁目店舗内,女性が店舗内を歩いていたところ、後方を追従してきた男(45〜50歳位、小肥、身長170センチ位、黒色短髪、上下黒又は紺色の作業着様、丸顔、色白、目が大きい)にスマートフォン様のものを向けられ、太股辺りを撮影されたもの。,新居浜市新須賀町二丁目,新居浜市新須賀町二丁目,0,lightred,38.0,愛媛県,エヒメケン,EHIME KEN,38205.0,新居浜市,ニイハマシ,NIIHAMA SHI,382050048002.0,新須賀町二丁目,33.967888,133.28605100000001
305,西条西署管内,不審者,令和2年4月17日(金)午後3時55分ころ,西条市小松町大頭路上,ベージュ色ロングコート、モデルガン所持)とすれ違ったもの。,西条市小松町大頭,西条市小松町大頭,0,purple,38.0,愛媛県,エヒメケン,EHIME KEN,38206.0,西条市,サイジョウシ,SAIJO SHI,382060034000.0,小松町大頭,33.875153999999995,133.07038899999998
306,松山西署管内,のぞき・盗撮,令和2年4月16日(木)午後10時20分ころ,松山市府中の住宅,女性が自宅で入浴中、何者かに屋外から浴室の窓を開かれたもの。,松山市府中の,松山市府中,2,pink,38.0,愛媛県,エヒメケン,EHIME KEN,38201.0,松山市,マツヤマシ,MATSUYAMA SHI,382010270000.0,府中,33.955365,132.77572800000002
307,松山南署管内,不審者,令和2年4月10日(金)午後6時ころ,松山市古川西二丁目路上,黒色長ズボン、白色マスク、眼鏡着用、黒色リュック所持、徒歩)がその様子を気にしながら周りをうろついていたもの。,松山市古川西二丁目,松山市古川西二丁目,1,purple,38.0,愛媛県,エヒメケン,EHIME KEN,38201.0,松山市,マツヤマシ,MATSUYAMA SHI,382010274002.0,古川西二丁目,33.808664,132.757795
308,松山東署管内,声かけ,令和2年4月8日(水)午前10時20分ころ,松山市生石町路上,ピンク色半ズボン、イヤフォン着用、布様のもの所持)に肩を2回叩かれ「ねえ、ねえ。」と声をかけられたもの。,松山市生石町,松山市生石町,0,green,38.0,愛媛県,エヒメケン,EHIME KEN,38201.0,松山市,マツヤマシ,MATSUYAMA SHI,382010017000.0,生石町,33.83307,132.74231699999999
309,松山東署管内,不審者,令和2年4月7日(火)午後8時30分ころ,松山市築山町マンション敷地内,短パン、髭が生えている、眼鏡着用、スリッパ)にお茶を吹きかけられたもの。,松山市築山町,松山市築山町,0,purple,38.0,愛媛県,エヒメケン,EHIME KEN,38201.0,松山市,マツヤマシ,MATSUYAMA SHI,382010188000.0,築山町,33.838629,132.779864
310,松山西署管内,声かけ,令和2年4月7日(火)午後6時00分ころ,松山市久万ノ台路上,赤色のベスト、杖をついていた)に卑わいな言葉をかけられた後、後方をつきまとわれたもの。,松山市久万ノ台,松山市久万ノ台,0,green,38.0,愛媛県,エヒメケン,EHIME KEN,38201.0,松山市,マツヤマシ,MATSUYAMA SHI,382010113000.0,久万ノ台,33.859432,132.74256699999998
311,四国中央署管内,身体露出,令和2年3月29日(日)午後6時10分ころ,四国中央市金田町金川付近集合住宅敷地内,住民が歩行中、マンション内を走っている全裸の男(身長160〜170センチ位、黒色短髪、高校生風、眼鏡有り)を目撃したもの。,四国中央市金田町金川,四国中央市金田町金川,1,orange,38.0,愛媛県,エヒメケン,EHIME KEN,38213.0,四国中央市,シコクチュウオウシ,SHIKOKUCHUO SHI,382130001000.0,金田町金川,33.977056,133.595496
312,今治署管内,つきまとい,令和2年3月27日(金)午前10時30分ころ,今治市国分一丁目付近路上,黒色ズボン、白色帽子着用、青色傘所持)に追いかけられたもの。,今治市国分一丁目,今治市国分一丁目,0,blue,38.0,愛媛県,エヒメケン,EHIME KEN,38202.0,今治市,イマバリシ,IMABARI SHI,382020090001.0,国分一丁目,34.031752000000004,133.022762
313,新居浜署管内,つきまとい,令和2年3月26日(木)午後3時20分ころ,新居浜市前田町付近路上,黒色ズボン)に後方をつきまとわれたもの。,新居浜市前田町,新居浜市前田町,0,blue,38.0,愛媛県,エヒメケン,EHIME KEN,38205.0,新居浜市,ニイハマシ,NIIHAMA SHI,382050093000.0,前田町,33.955668,133.266842
314,松山西署管内,のぞき・盗撮,令和2年3月25日(水)午後10時30分ころ,松山市北条辻の住宅,女性が入浴中、何者かに浴室の窓を開けられそうになったもの。,松山市北条辻の,松山市北条辻,2,pink,38.0,愛媛県,エヒメケン,EHIME KEN,38201.0,松山市,マツヤマシ,MATSUYAMA SHI,382010282000.0,北条辻,33.968379,132.777843
315,松山東署管内,不審者,令和2年3月21日(土)午後5時ころ,松山市南江戸付近路上,施設職員がフェンス越しに施設内で遊ぶ子供の様子を窺う男(40歳位、中肉、身長160センチ位、白髪混じりで耳が隠れるくらいの長さの髪)を目撃したもの。3月17日にも同様の目撃がある。,松山市南江戸,松山市南江戸,0,purple,,,,,,,,,,,,
316,八幡浜署管内,不審者,令和2年3月20日(金)午後0時45分ころ,八幡浜市栗野浦付近共同住宅敷地内,女性が、敷地内の通路を何度も往復している男(肥満、身長155〜165センチ位、上下灰色ジャージ(オレンジ色ライン入り)、フード、黒色サングラス、ネックウォーマー着用)を目撃したもの。,八幡浜市栗野浦,八幡浜市栗野浦,0,purple,38.0,愛媛県,エヒメケン,EHIME KEN,38204.0,八幡浜市,ヤワタハマシ,YAWATAHAMA SHI,382040013000.0,栗野浦,33.455914,132.42064399999998
317,松山西署管内,つきまとい,令和2年3月19日(木)午後4時25分ころ,松山市空港通七丁目付近路上,黒色長ズボン、黒色様キャップ帽着用)に無言で背後に立たれたことから通行人に助けを求めたもの。その後、通行人と近くの建物に逃げ込むまでつきまとわれたもの。,松山市空港通七丁目,松山市空港通七丁目,0,blue,38.0,愛媛県,エヒメケン,EHIME KEN,38201.0,松山市,マツヤマシ,MATSUYAMA SHI,382010106007.0,空港通七丁目,33.827801,132.727598
318,松山西署管内,写真撮影,令和2年3月18日(水)午後3時45分ころ,松山市大可賀付近公園,黒色デニムズボン、黒色帽子着用、バッグ・本・デジタルカメラ所持、ピンク色の自転車利用)にデジタルカメラを向けられたもの。,松山市大可賀,松山市大可賀,0,lightred,,,,,,,,,,,,
319,松山東署管内,不審者,令和2年3月17日(火)午後5時10分ころ,松山市南江戸付近路上,施設職員が、施設内で遊ぶ子供の様子を窺う男(30歳位、中肉、身長170センチ位、黒色短髪、上下灰色作業着、白色マスク着用、茶色ボディバッグ所持)を目撃したもの。職員が男に挨拶するも、男は用件を言うことなく不審であった。,松山市南江戸,松山市南江戸,1,purple,,,,,,,,,,,,
320,松山西署管内,不審者,令和2年3月13日(金)午後2時ころ,松山市善応寺付近公園,男子中学生が遊んでいたところ、脱げた靴が男(年配、中肉、上下灰色様の服、黒色様キャップ帽着用)に拾われ、手で引き裂かれたもの。,松山市善応寺,松山市善応寺,0,purple,38.0,愛媛県,エヒメケン,EHIME KEN,38201.0,松山市,マツヤマシ,MATSUYAMA SHI,382010162000.0,善応寺,33.950876,132.798087
321,今治署管内,不審者,令和2年3月10日(火)午前7時ころ,今治市朝倉北甲付近一般住宅,紺色ジャンパー、黒色キャップ帽着用)が「お母さんおるか。」と訪ねてきたもの。男は立ち去る際に独り言を言っており不審な様子であった。,今治市朝倉北甲,今治市朝倉北,0,purple,38.0,愛媛県,エヒメケン,EHIME KEN,38202.0,今治市,イマバリシ,IMABARI SHI,382020003000.0,朝倉北,33.993194,133.014454
322,伯方署管内,身体露出,令和2年3月9日(月)午後2時15分ころ,今治市宮窪町余所国付近駐車場,ベージュ色長ズボン、財布様のもの所持)につきまとわれたもの。,今治市宮窪町余所国,今治市宮窪町余所国,0,orange,38.0,愛媛県,エヒメケン,EHIME KEN,38202.0,今治市,イマバリシ,IMABARI SHI,382020199000.0,宮窪町余所国,34.185449,133.057805
323,松山東署管内,つきまとい,令和2年3月8日(日)午後8時55分ころ,松山市余戸西四丁目付近路上,女子高校生が歩行中、男(30〜40歳位、中肉、身長170センチ位、上下黒色様の服、ハット型帽子着用)に走って追いかけられたもの。,松山市余戸西四丁目,松山市余戸西四丁目,0,blue,38.0,愛媛県,エヒメケン,EHIME KEN,38201.0,松山市,マツヤマシ,MATSUYAMA SHI,382010352004.0,余戸西四丁目,33.817429,132.72046699999999
324,松山東署管内,動画撮影,令和2年3月8日(日)午後4時ころ,松山市持田町一丁目付近店舗駐車場,セーター、ピンク色様ニット帽着用)にスマートフォンを向けられたもの。,松山市持田町一丁目,松山市持田町一丁目,0,lightred,38.0,愛媛県,エヒメケン,EHIME KEN,38201.0,松山市,マツヤマシ,MATSUYAMA SHI,382010333001.0,持田町一丁目,33.842769,132.783629
325,西条西署管内,身体露出,令和2年3月8日(日)午後1時20分ころ,西条市丹原町願連寺付近路上,女性が車で走行中、下半身を露出した男(40〜70歳位、やせ型、小柄、上下青色作業服、紺色様目出し帽着用、目が大きい)を目撃したもの。,西条市丹原町願連寺,西条市丹原町願連寺,0,orange,,,,,,,,,,,,
326,西条署管内,不審者,令和2年3月5日(木)午後2時20分ころ,西条市古川甲付近路上,女性が子供達と遊んでいたところ、自転車(軽快兼用自転車)や徒歩で子供達の方を凝視しながら付近を徘徊する男(15〜25歳位、中肉、上下黒色の服、黒色キャップ帽(白色英字ロゴ入り))を目撃したもの。,西条市古川甲,西条市古川,1,purple,,,,,,,,,,,,
327,松山東署管内,住居侵入,令和2年3月3日(火)午前7時5分ころ,松山市竹原四丁目付近集合住宅敷地内,長ズボン、サラリーマン風、白色マフラー着用)に気付き、声をかけると「鍵をなくした。」と申し立て、ドアポストから他人の部屋の中を覗き見るなどしていたもの。,松山市竹原四丁目,松山市竹原四丁目,0,darkred,38.0,愛媛県,エヒメケン,EHIME KEN,38201.0,松山市,マツヤマシ,MATSUYAMA SHI,382010175004.0,竹原四丁目,33.831613,132.746509
328,今治署管内,写真撮影,令和2年2月28日(金)午後4時15分ころ,今治市朝倉上付近路上,女児小学生が歩行中、路上駐車中の車(白色、丸型)に乗った男(40歳位、小肥、黒縁眼鏡着用、赤色スマートフォン所持)が手と顔を出し、スマートフォンを向けてきたもの。,今治市朝倉上,今治市朝倉上,0,lightred,38.0,愛媛県,エヒメケン,EHIME KEN,38202.0,今治市,イマバリシ,IMABARI SHI,382020002000.0,朝倉上,33.971933,133.008027
329,松山南署管内,つきまとい,令和2年2月26日(水)午後3時05分ころ,松山市北土居四丁目付近路上,紺色ズボン、黒色キャップ帽、黒色の靴)に後方をつきまとわれたもの。,松山市北土居四丁目,松山市北土居四丁目,0,blue,38.0,愛媛県,エヒメケン,EHIME KEN,38201.0,松山市,マツヤマシ,MATSUYAMA SHI,382010097004.0,北土居四丁目,33.806611,132.78359
330,四国中央署管内,声かけ,令和2年2月25日(火)午後4時30分ころ,四国中央市寒川町付近路上,女子中学生が歩行中、道を尋ねてきた男(40〜50歳位、中肉、身長170センチ位、黒髪、上下黒色様の服)に凝視されたもの。,四国中央市寒川町,四国中央市寒川町,1,green,38.0,愛媛県,エヒメケン,EHIME KEN,38213.0,四国中央市,シコクチュウオウシ,SHIKOKUCHUO SHI,382130016000.0,寒川町,33.952462,133.50771699999999
331,今治署管内,写真撮影,令和2年2月24日(月)午後0時ころ,今治市東村南一丁目付近店舗敷地内,女児小学生らが、男(50〜60歳位、小肥、ピンク色と黒色のボーダー柄ニット帽着用、スマートフォン所持)にスマートフォンを向けられたもの。,今治市東村南一丁目,今治市東村南一丁目,0,lightred,38.0,愛媛県,エヒメケン,EHIME KEN,38202.0,今治市,イマバリシ,IMABARI SHI,382020176001.0,東村南一丁目,34.036434,133.03311000000002
332,松山東署管内,つきまとい,令和2年2月21日(金)午後4時ころ,松山市束本二丁目付近路上,黒色ズボン、赤色ニット帽着用)に後方をつきまとわれたもの。,松山市束本二丁目,松山市束本二丁目,0,blue,38.0,愛媛県,エヒメケン,EHIME KEN,38201.0,松山市,マツヤマシ,MATSUYAMA SHI,382010187002.0,束本二丁目,33.827807,132.787221
333,松山西署管内,声かけ,令和2年2月21日(金)午前11時ころ,松山市住吉一丁目付近路上,青色長ズボン)に「どこの中学校」等と声をかけられたもの。その後、同所付近を男が自転車で走行しているのを女子中学生の家族が目撃している。,松山市住吉一丁目,松山市住吉一丁目,0,green,38.0,愛媛県,エヒメケン,EHIME KEN,38201.0,松山市,マツヤマシ,MATSUYAMA SHI,382010161001.0,住吉一丁目,33.864233,132.71803799999998
334,松山西署管内,つきまとい,令和2年2月20日(木)午後7時15分ころ,松山市古三津四丁目付近路上,黒色ジャージ)に後方をつきまとわれたもの。,松山市古三津四丁目,松山市古三津四丁目,0,blue,38.0,愛媛県,エヒメケン,EHIME KEN,38201.0,松山市,マツヤマシ,MATSUYAMA SHI,382010276004.0,古三津四丁目,33.854745,132.732442
335,今治署管内,身体露出,令和2年2月20日(木)午後5時55分ころ,今治市宮下町三丁目付近路上,紺色ジーンズ、眼鏡着用、自転車利用)に露出した下半身を触っている姿を見せつけられたもの。,今治市宮下町三丁目,今治市宮下町三丁目,0,orange,38.0,愛媛県,エヒメケン,EHIME KEN,38202.0,今治市,イマバリシ,IMABARI SHI,382020200003.0,宮下町三丁目,34.067827,132.98560700000002
336,西条署管内,不審者,令和2年2月20日(木)午前9時ころ,西条市明屋敷付近路上,黒色の服、肩掛けバッグ所持)を呼び止めたところ、大声で「こりゃー。」と叫びながら立ち去ったもの。,西条市明屋敷,西条市明屋敷,0,purple,38.0,愛媛県,エヒメケン,EHIME KEN,38206.0,西条市,サイジョウシ,SAIJO SHI,382060002000.0,明屋敷,33.921259,133.178034
337,松山東署管内,声かけ,令和2年2月20日(木)午前7時55分ころ,松山市道後樋又一〇番付近路上,黒色ズボン、紺色キャップ帽、白色と黒色のスニーカー着用、黒色リュックサック所持)にすれ違いざまに「スカート」と大声で声をかけられたもの。,松山市道後樋又一〇番,松山市道後樋又一〇番,0,green,,,,,,,,,,,,
338,松山南署管内,つきまとい,令和2年2月18日(火)午後6時10分ころ,松山市井門町付近路上,女子高校生が徒歩で散歩中、バイク(スクーター型)に乗った男(20〜30歳位、小肥、上下黒色様の服、黒色ネックウォーマー、茶色縁眼鏡、白色半キャップ型ヘルメット着用)に執拗に後方をつきまとわれたもの。,松山市井門町,松山市井門町,2,blue,38.0,愛媛県,エヒメケン,EHIME KEN,38201.0,松山市,マツヤマシ,MATSUYAMA SHI,382010029000.0,井門町,33.796879,132.77721499999998
339,新居浜署管内,つきまとい,令和2年2月18日(火)午後6時ころ,新居浜市宇高町二丁目付近路上,灰色長ズボン)に駆け寄られたもの。,新居浜市宇高町二丁目,新居浜市宇高町二丁目,0,blue,38.0,愛媛県,エヒメケン,EHIME KEN,38205.0,新居浜市,ニイハマシ,NIIHAMA SHI,382050007002.0,宇高町二丁目,33.973091,133.304128
340,伊予署管内,写真撮影,令和2年2月18日(火)午後3時30分ころ,伊予市尾崎付近路上,黒色ズボン、スマートフォン所持)が笑いながらスマートフォンを向けたもの。,伊予市尾崎,伊予市尾崎,1,lightred,38.0,愛媛県,エヒメケン,EHIME KEN,38210.0,伊予市,イヨシ,IYO SHI,382100006000.0,尾崎,33.74953,132.693569
341,今治署管内,声かけ,令和2年2月17日(月)午後3時30分ころ,今治市国分二丁目付近路上,黒色又は灰色の服、黒色ニット帽の上にヘルメット着用、自転車利用)に「不審者ってどんなのか知っとる。」と呼び止められ、ズボンの中に手を入れ股間を触った後、握手するよう求められたもの。,今治市国分二丁目,今治市国分二丁目,0,green,38.0,愛媛県,エヒメケン,EHIME KEN,38202.0,今治市,イマバリシ,IMABARI SHI,382020090002.0,国分二丁目,34.031597,133.019575
342,四国中央署管内,不審者,令和2年2月15日(土)午後2時40分ころ,四国中央市土居町上野施設敷地内,女児小学生らが遊戯中、帽子を脱いで挨拶してきた男(30〜40歳位、中肉、身長170センチ位、上下黒色様の服、黒色様キャップ帽、白色マスク着用)が付近を徘徊し、木の陰に隠れているのを目撃したもの。,四国中央市土居町上野,四国中央市土居町上野,0,purple,38.0,愛媛県,エヒメケン,EHIME KEN,38213.0,四国中央市,シコクチュウオウシ,SHIKOKUCHUO SHI,382130025000.0,土居町上野,33.915363,133.384952
343,四国中央署管内,声かけ,令和2年2月13日(木)午後3時30分ころ,四国中央市金生町山田井付近路上,女児小学生が歩行中、男(80歳位)に「おうちどこ。」と声をかけられたもの。,四国中央市金生町山田井,四国中央市金生町山田井,2,green,38.0,愛媛県,エヒメケン,EHIME KEN,38213.0,四国中央市,シコクチュウオウシ,SHIKOKUCHUO SHI,382130014000.0,金生町山田井,34.016639,133.616508
344,四国中央署管内,声かけ,令和2年2月13日(木)午後3時ころ,四国中央市中曽根町付近路上,灰色ジャケット、目が大きい、銀色タブレット所持)に「写真撮らせて。」「おっぱいとらせて。」等と声をかけられ、所持していたタブレットで写真を撮られたもの。,四国中央市中曽根町,四国中央市中曽根町,2,green,38.0,愛媛県,エヒメケン,EHIME KEN,38213.0,四国中央市,シコクチュウオウシ,SHIKOKUCHUO SHI,382130045000.0,中曽根町,33.965099,133.54918600000002
345,松山西署管内,身体露出,令和2年2月13日(木)午後2時ころ,松山市堀江町付近路上,黒色半ズボン)を目撃したもの。男は車(黒色)で立ち去ったが、しばらく後に再度現れ、ズボンを膝まで下ろし「もう出ます。」と独り言を言いながら、立ち小便をしていたもの。,松山市堀江町,松山市堀江町,2,orange,38.0,愛媛県,エヒメケン,EHIME KEN,38201.0,松山市,マツヤマシ,MATSUYAMA SHI,382010288000.0,堀江町,33.908885,132.75913799999998
346,松山東署管内,つきまとい,令和2年2月11日(火)午後6時30分ころ,松山市宮田町付近路上,女子高校生が自転車で走行中、自転車に乗った男(40歳位、中肉、黒色短髪、上下黒色の服、パッチリした目)に顔をのぞきこまれた後、後方を執拗につきまとわれたもの。,松山市宮田町,松山市宮田町,0,blue,38.0,愛媛県,エヒメケン,EHIME KEN,38201.0,松山市,マツヤマシ,MATSUYAMA SHI,382010325000.0,宮田町,33.842382,132.752948
347,四国中央署管内,声かけ,令和2年2月11日(火)午後2時ころ,四国中央市土居町蕪崎付近路上,茶色の服、買い物袋所持)に近づいたところ、「自転車に乗せていってくれんの。」と声をかけられたもの。,四国中央市土居町蕪崎,四国中央市土居町蕪崎,0,green,38.0,愛媛県,エヒメケン,EHIME KEN,38213.0,四国中央市,シコクチュウオウシ,SHIKOKUCHUO SHI,382130027000.0,土居町蕪崎,33.978978999999995,133.43171
348,松山南署管内,つきまとい,令和2年2月10日(月)午後5時40分ころ,東温市北方付近路上,黒色ズボン、スマートフォン所持)に後方をつきまとわれたもの。,東温市北方,東温市北方,1,blue,38.0,愛媛県,エヒメケン,EHIME KEN,38215.0,東温市,トウオンシ,TOON SHI,382150006000.0,北方,33.820826000000004,132.91541
349,松山東署管内,不審者,令和2年2月8日(土)午後10時50分ころ,松山市宮田町付近路上,灰色様長ズボン)を目撃したもの。,松山市宮田町,松山市宮田町,1,purple,38.0,愛媛県,エヒメケン,EHIME KEN,38201.0,松山市,マツヤマシ,MATSUYAMA SHI,382010325000.0,宮田町,33.842382,132.752948
350,新居浜署管内,つきまとい,令和2年2月7日(金)午後9時45分ころ,新居浜市西の土居町一丁目付近路上,フード付ジージャン、白色ニット帽)に車(紫色又は紺色、軽四貨物車、箱型)で後方をつきまとわれたもの。,新居浜市西の土居町一丁目,新居浜市西の土居町一丁目,0,blue,38.0,愛媛県,エヒメケン,EHIME KEN,38205.0,新居浜市,ニイハマシ,NIIHAMA SHI,382050079001.0,西の土居町一丁目,33.951014,133.28231
351,松山東署管内,つきまとい,令和2年2月7日(金)午後4時ころ,松山市湊町三丁目付近路上,女子高校生らが歩行中、徒歩ですれ違った男(40歳位、中肉、身長170センチ位、黒色短髪(角刈り)、上下黒色スウェット、口ひげあり)に舌打ちされた後、しばらくの間、睨まれながら、後方をつきまとわれたもの。,松山市湊町三丁目,松山市湊町三丁目,2,blue,38.0,愛媛県,エヒメケン,EHIME KEN,38201.0,松山市,マツヤマシ,MATSUYAMA SHI,382010310003.0,湊町三丁目,33.835677000000004,132.769073
352,松山西署管内,つきまとい,令和2年2月7日(金)午後3時45分ころ,松山市西垣生町付近路上,黒色ズボン、傘所持)に後方をつきまとわれたもの。,松山市西垣生町,松山市西垣生町,4,blue,38.0,愛媛県,エヒメケン,EHIME KEN,38201.0,松山市,マツヤマシ,MATSUYAMA SHI,382010233000.0,西垣生町,33.813675,132.701207
353,松山南署管内,つきまとい,令和2年2月6日(木)午後5時30分ころ,東温市南野田付近路上,女子中学生らが自転車で走行中、バイク(暗色系)に乗った男(中肉、上下黒色の服、暗色系ハーフヘルメット着用)に後方をつきまとわれたもの。,東温市南野田,東温市南野田,0,blue,38.0,愛媛県,エヒメケン,EHIME KEN,38215.0,東温市,トウオンシ,TOON SHI,382150018000.0,南野田,33.787178000000004,132.835461
354,伊予署管内,声かけ,令和2年2月6日(木)午後4時30分ころ,伊予市森付近屋外施設内,"女児小学生らが遊んでいたところ、5,6人組の男(金色長髪、大学生風)に「一緒に遊ぼう、クスリ持ってるよ。」と声をかけられたもの。",伊予市森,伊予市森,0,green,38.0,愛媛県,エヒメケン,EHIME KEN,38210.0,伊予市,イヨシ,IYO SHI,382100031000.0,森,33.739379,132.68363200000002
355,松山西署管内,声かけ,令和2年2月6日(木)午後4時ころ,松山市東垣生町付近公園内,"黒色ズボン、補聴器様のものを耳につけている)に「1,000円あげるからついておいで。」等と声をかけられたもの。同一場所において、別の小学生も同様の声かけをされている。",松山市東垣生町,松山市東垣生町,1,green,38.0,愛媛県,エヒメケン,EHIME KEN,38201.0,松山市,マツヤマシ,MATSUYAMA SHI,382010255000.0,東垣生町,33.813134999999996,132.714338
356,松山西署管内,声かけ,令和2年2月6日(木)午後3時45分ころ,松山市西垣生町付近路上,男児小学生が歩行中、車(白色、軽四自動車)に乗った男(60歳位、中肉、身長165センチ位、眼鏡着用)にすれ違いざま「どこの子。」と声をかけられたもの。,松山市西垣生町,松山市西垣生町,5,green,38.0,愛媛県,エヒメケン,EHIME KEN,38201.0,松山市,マツヤマシ,MATSUYAMA SHI,382010233000.0,西垣生町,33.813675,132.701207
357,四国中央署管内,暴行,令和2年2月6日(木)午後3時20分ころ,四国中央市中曽根町付近路上,黒色ズボン(白色のライン入り))に後方から小走りで近付かれ、両脇を掴まれそうになったもの。なお、男児小学生が抵抗しその場を離れたため、怪我等無し。,四国中央市中曽根町,四国中央市中曽根町,3,red,38.0,愛媛県,エヒメケン,EHIME KEN,38213.0,四国中央市,シコクチュウオウシ,SHIKOKUCHUO SHI,382130045000.0,中曽根町,33.965099,133.54918600000002
358,松山西署管内,声かけ,令和2年2月6日(木)午前7時30分ころ,松山市新浜町付近路上,青色ジャンパー、帽子、黒色又は灰色ネックウォーマー着用)に挨拶して通り過ぎたところ、男がUターンして戻り、「今、何言うたんぞ。」と声をかけられた後、手を振り上げ殴る素振りをされたもの。,松山市新浜町,松山市新浜町,0,green,38.0,愛媛県,エヒメケン,EHIME KEN,38201.0,松山市,マツヤマシ,MATSUYAMA SHI,382010154000.0,新浜町,33.874977,132.71340800000002
359,新居浜署管内,声かけ,令和2年2月5日(水)午後7時ころ,新居浜市庄内町四丁目付近路上,女子高校生が自転車で走行中、自転車(暗色系)に乗った男(20〜30歳位、小肥、身長165センチ位、黒色短髪、上下暗い色のジャージ)に「コンタクトを落とした。一緒に探してくれ。」と声をかけられたもの。,新居浜市庄内町四丁目,新居浜市庄内町四丁目,1,green,38.0,愛媛県,エヒメケン,EHIME KEN,38205.0,新居浜市,ニイハマシ,NIIHAMA SHI,382050046004.0,庄内町四丁目,33.952338,133.28902
360,四国中央署管内,声かけ,令和2年2月5日(水)午後3時45分ころ,四国中央市土居町上野付近路上,黒色様ジャンパー、リュックサック所持(30cm位の竹2本在中))に肩を叩いて呼び止められ「お菓子いる。」と声をかけられたもの。,四国中央市土居町上野,四国中央市土居町上野,1,green,38.0,愛媛県,エヒメケン,EHIME KEN,38213.0,四国中央市,シコクチュウオウシ,SHIKOKUCHUO SHI,382130025000.0,土居町上野,33.915363,133.384952
361,松山西署管内,声かけ,令和2年2月5日(水)午後3時ころ,松山市青葉台付近路上,女性が車で作業をしていたところ、自転車(ママチャリ、前カゴ付き)に乗った男(50〜60歳位、中肉、身長170センチ位、坊主が伸びた感じの白色短髪、上下灰色ジャージ、サングラス様着用)に凝視されたため用件を聞くと、「きれいな人がおったけん、立ち止まってしまった。」と声をかけられたもの。,松山市青葉台,松山市青葉台,0,green,38.0,愛媛県,エヒメケン,EHIME KEN,38201.0,松山市,マツヤマシ,MATSUYAMA SHI,382010005000.0,青葉台,33.857724,132.73519199999998
362,西条西署管内,身体露出,令和2年2月4日(火)午後7時50分ころ,西条市小松町新屋敷付近路上,女子高校生が自転車で走行中、突然目の前に全裸の男(40歳位、中肉、黒色短髪、全裸)が現れたもの。,西条市小松町新屋敷,西条市小松町新屋敷,0,orange,38.0,愛媛県,エヒメケン,EHIME KEN,38206.0,西条市,サイジョウシ,SAIJO SHI,382060036000.0,小松町新屋敷,33.88816,133.111299
363,松山東署管内,つきまとい,令和2年2月4日(火)午前7時15分ころ,松山市勝山町二丁目付近路上,男児小学生が歩行中、男(35〜40歳位、身長170センチ位、茶髪又は黒髪、上下黒色の服)とすれ違う際に手を差し出され、少し離れた後、走って近づかれたもの。なお、他の小学生が大声で何かを叫んでいる同男を目撃している。,松山市勝山町二丁目,松山市勝山町二丁目,1,blue,38.0,愛媛県,エヒメケン,EHIME KEN,38201.0,松山市,マツヤマシ,MATSUYAMA SHI,382010073002.0,勝山町二丁目,33.844402,132.77543500000002
364,四国中央署管内,不審者,令和2年1月ころ,四国中央市上分町付近駐車場,黒色様パーカー)が走って逃げ去るのを目撃したもの。,四国中央市上分町,四国中央市上分町,1,purple,38.0,愛媛県,エヒメケン,EHIME KEN,38213.0,四国中央市,シコクチュウオウシ,SHIKOKUCHUO SHI,382130005000.0,上分町,33.989088,133.588503
365,四国中央署管内,つきまとい,令和2年1月下旬午後3時ころ,四国中央市川之江町付近路上,女児小学生が歩行中、車(灰色)に乗った男(60歳位、身長160センチ位、白髪、眼鏡着用、スマートフォン所持)に「○○さんって知ってる。」と声をかけられたため走ってその場を離れたが、後方を車でつきまとわれ、再度、同男に「○○さんって知ってる。」と聞かれ、スマートフォンで写真を撮影されたもの。,四国中央市川之江町,四国中央市川之江町,4,blue,38.0,愛媛県,エヒメケン,EHIME KEN,38213.0,四国中央市,シコクチュウオウシ,SHIKOKUCHUO SHI,382130008000.0,川之江町,34.014303999999996,133.57968200000002
366,今治署管内,つきまとい,令和2年1月30日(木)午後5時ころ,今治市常盤町四丁目付近路上,女子中学生が移動中、バイク(灰色様、後部に荷台付き)に乗った男(40〜60歳位、小肥、身長が低い、白色様ヘルメット、サングラス、マスク着用)に執拗に後方をつきまとわれたもの。,今治市常盤町四丁目,今治市常盤町四丁目,0,blue,38.0,愛媛県,エヒメケン,EHIME KEN,38202.0,今治市,イマバリシ,IMABARI SHI,382020140004.0,常盤町四丁目,34.063824,132.997761
367,松山東署管内,つきまとい,令和2年1月30日(木)午後4時30分ころ,松山市余戸東三丁目付近路上,濃灰色のズボン、半キャップ型ヘルメット着用)に行く先々に先回りされ、つきまとわれたもの。,松山市余戸東三丁目,松山市余戸東三丁目,0,blue,38.0,愛媛県,エヒメケン,EHIME KEN,38201.0,松山市,マツヤマシ,MATSUYAMA SHI,382010353003.0,余戸東三丁目,33.813564,132.732698
368,松山東署管内,つきまとい,令和2年1月30日(木)午後3時30分ころ,松山市東野二丁目付近路上,女子中学生が歩行中、自転車(青色、軽快兼用自転車)を押して歩いていた男(40〜60歳位、小肥、身長160センチ位、坊主頭、黒髪、上下灰色スウェット)に執拗に後方をつきまとわれたもの。,松山市東野二丁目,松山市東野二丁目,0,blue,38.0,愛媛県,エヒメケン,EHIME KEN,38201.0,松山市,マツヤマシ,MATSUYAMA SHI,382010254002.0,東野二丁目,33.842184,132.799244
369,松山東署管内,のぞき・盗撮,令和2年1月29日(水)午後8時ころ,松山市湊町五丁目付近路上,黒色様ジャンパー、スマートフォン所持)にスマートフォンをスカート内に差し入れられたもの。,松山市湊町五丁目,松山市湊町五丁目,2,pink,38.0,愛媛県,エヒメケン,EHIME KEN,38201.0,松山市,マツヤマシ,MATSUYAMA SHI,382010310005.0,湊町五丁目,33.835933000000004,132.762679
370,松山東署管内,声かけ,令和2年1月29日(水)午後7時50分ころ,松山市中央一丁目付近路上,紺色スラックス、灰色シニアカート使用、財布所持)に手招きで執拗に呼ばれたため店外路上に出て近付くと、「俺は、元警察官だ。」「家はどこら辺。お金を渡すから、やらせてくれないか。」と声をかけられ、お金を渡されそうになったもの。,松山市中央一丁目,松山市中央一丁目,0,green,38.0,愛媛県,エヒメケン,EHIME KEN,38201.0,松山市,マツヤマシ,MATSUYAMA SHI,382010186001.0,中央一丁目,33.853932,132.75153799999998
371,松山東署管内,つきまとい,令和2年1月28日(火)午後3時ころ,松山市道後多幸町付近路上,紺色ジーンズ、眼鏡着用、黒色リュックサック所持)に体を寄せられ、「悪いことはせんきん、お茶でもしませんか。」と声をかけられたもの。,松山市道後多幸町,松山市道後多幸町,0,blue,38.0,愛媛県,エヒメケン,EHIME KEN,38201.0,松山市,マツヤマシ,MATSUYAMA SHI,382010204000.0,道後多幸町,33.853526,132.78388700000002
372,四国中央署管内,声かけ,令和2年1月25日(土)午後3時ころ,四国中央市金田町半田付近路上,灰色ズボン、黒色野球帽子、マスク着用)に「きみら何歳。」「どこに住んどん。」と声をかけられたもの。,四国中央市金田町半田,四国中央市金田町半田,1,green,38.0,愛媛県,エヒメケン,EHIME KEN,38213.0,四国中央市,シコクチュウオウシ,SHIKOKUCHUO SHI,382130003000.0,金田町半田,33.989473,133.609
373,四国中央署管内,声かけ,令和2年1月24日(金)午後4時40分ころ,四国中央市土居町津根付近路上,女児小学生が歩行中、犬を散歩していた男(中肉、身長165センチ位、上下青色ジャージ、白色マスク、白色帽子、サングラス着用、大型犬を連れていた)に「鞄重そうだね。家までもって帰ってあげようか。」と声をかけられたもの。,四国中央市土居町津根,四国中央市土居町津根,1,green,38.0,愛媛県,エヒメケン,EHIME KEN,38213.0,四国中央市,シコクチュウオウシ,SHIKOKUCHUO SHI,382130030000.0,土居町津根,33.967002,133.45345
374,四国中央署管内,声かけ,令和2年1月23日(木)午後4時30分ころ,四国中央市三島朝日二丁目屋外施設内,青色ジーンズ、色黒、無地の茶色野球帽着用)に「楽しい、どこ中。」と声をかけられ、一度立ち去るも、再度現れ、携帯電話で写真撮影されたもの。,四国中央市三島朝日二丁目,四国中央市三島朝日二丁目,0,green,38.0,愛媛県,エヒメケン,EHIME KEN,38213.0,四国中央市,シコクチュウオウシ,SHIKOKUCHUO SHI,382130047002.0,三島朝日二丁目,33.987588,133.55820500000002
375,四国中央署管内,声かけ,令和2年1月22日(火)午後1時55分ころ,四国中央市寒川町付近路上,女児小学生が歩行中、2人組み男女(60歳位の男、60歳位の女)に肩を組まれ、「こんにちは。」と言いながら、学年や家を聞かれたもの。,四国中央市寒川町,四国中央市寒川町,2,green,38.0,愛媛県,エヒメケン,EHIME KEN,38213.0,四国中央市,シコクチュウオウシ,SHIKOKUCHUO SHI,382130016000.0,寒川町,33.952462,133.50771699999999
376,松山東署管内,写真撮影,令和2年1月20日(月)午後6時ころ,松山市湊町五丁目付近を走行中のバス内,黒色の服、スマートフォン、リュックサック所持)に「どこの小学校に通っているの。」等と声をかけられた後、スマートフォンを向けられ写真撮影されたもの。,松山市湊町五丁目,松山市湊町五丁目,3,lightred,38.0,愛媛県,エヒメケン,EHIME KEN,38201.0,松山市,マツヤマシ,MATSUYAMA SHI,382010310005.0,湊町五丁目,33.835933000000004,132.762679
377,四国中央署管内,つきまとい,令和2年1月19日(日)午後1時30分ころ,四国中央市具定町付近店舗内,ジーンズ、深緑色つば付き帽子、マスク着用)に無言で手を近づけられたり、店内で後方をつきまとわれたもの。,四国中央市具定町,四国中央市具定町,1,blue,38.0,愛媛県,エヒメケン,EHIME KEN,38213.0,四国中央市,シコクチュウオウシ,SHIKOKUCHUO SHI,382130015000.0,具定町,33.96085,133.52972
378,松山東署管内,声かけ,令和2年1月19日(日)午前8時15分ころ,松山市愛光町付近路上,男児小学生が歩行中、男(50歳位、中肉、身長170センチ位、上下黒色様の服、黒色サングラス、茶色様マスク着用、お菓子様が入った袋所持)に「お菓子あげるからこっちにおいで。」と声をかけられたもの。,松山市愛光町,松山市愛光町,0,green,38.0,愛媛県,エヒメケン,EHIME KEN,38201.0,松山市,マツヤマシ,MATSUYAMA SHI,382010001000.0,愛光町,33.846315999999995,132.749193
379,四国中央署管内,身体露出,令和2年1月17日(金)午後7時30分ころ,四国中央市上分町付近路上,女性が歩行中、下半身を露出した男(30〜50歳位、中肉、身長165センチ位、黒色短髪、上下黒色ジャージ(白色ライン入り)、白色マスク、黒色様ネックウォーマー着用)に「こんばんは。」と声をかけられたもの。,四国中央市上分町,四国中央市上分町,2,orange,38.0,愛媛県,エヒメケン,EHIME KEN,38213.0,四国中央市,シコクチュウオウシ,SHIKOKUCHUO SHI,382130005000.0,上分町,33.989088,133.588503
380,松山西署管内,写真撮影,令和2年1月17日(金)午後5時20分ころ,松山市東垣生町付近路上,黒色ジーンズ、携帯電話所持)に、携帯電話を向けられたもの。,松山市東垣生町,松山市東垣生町,2,lightred,38.0,愛媛県,エヒメケン,EHIME KEN,38201.0,松山市,マツヤマシ,MATSUYAMA SHI,382010255000.0,東垣生町,33.813134999999996,132.714338
381,八幡浜署管内,不審者,令和2年1月17日(金)午前1時10分ころ,八幡浜市五反田付近路上,付近住民が、長時間同じ場所を徘徊している男(40〜50歳位、中肉、身長160〜170センチ位、黒色短髪、上下黒色スウェット)を目撃したもの。,八幡浜市五反田,八幡浜市五反田,2,purple,38.0,愛媛県,エヒメケン,EHIME KEN,38204.0,八幡浜市,ヤワタハマシ,YAWATAHAMA SHI,382040016000.0,五反田,33.448822,132.44089
382,今治署管内,暴行,令和2年1月15日(水)午後6時ころ,今治市波方町樋口甲付近路上,男子中学生らが自転車で走行中、自転車に乗た男(30〜40歳位、小肥、黒色様ジャージ、眼鏡着用)とすれ違った後、因縁をつけられ胸倉を掴まれるなどしたもの。,今治市波方町樋口甲,今治市波方町樋口,0,red,38.0,愛媛県,エヒメケン,EHIME KEN,38202.0,今治市,イマバリシ,IMABARI SHI,382020154000.0,波方町樋口,34.096523,132.94319099999998
383,松山西署管内,不審者,令和2年1月15日(水)午後4時50分ころ,松山市北条辻付近路上,女子中学生らが歩行中、周囲を睨みながら徘徊している男(50歳位、黒色様の服、リュックサック、携帯電話所持)を目撃したもの。,松山市北条辻,松山市北条辻,3,purple,38.0,愛媛県,エヒメケン,EHIME KEN,38201.0,松山市,マツヤマシ,MATSUYAMA SHI,382010282000.0,北条辻,33.968379,132.777843
384,松山西署管内,つきまとい,令和2年1月15日(水)午後3時30分ころ,松山市北条辻付近路上,黒色ズボン、自転車利用)に後方をつきまとわれたもの。,松山市北条辻,松山市北条辻,4,blue,38.0,愛媛県,エヒメケン,EHIME KEN,38201.0,松山市,マツヤマシ,MATSUYAMA SHI,382010282000.0,北条辻,33.968379,132.777843
385,今治署管内,つきまとい,令和2年1月14日(火)午後6時30分ころ,今治市常盤町七丁目付近路上,女子中学生が歩行中、行為者(黒色様ジャージ、黒色キャップ帽着用)に後方をつきまとわれたもの。,今治市常盤町七丁目,今治市常盤町七丁目,0,blue,38.0,愛媛県,エヒメケン,EHIME KEN,38202.0,今治市,イマバリシ,IMABARI SHI,382020140007.0,常盤町七丁目,34.055931,132.98893700000002
386,新居浜署管内,つきまとい,令和2年1月14日(火)午後4時30分ころ,新居浜市一宮町一丁目付近路上,女子高校生が自転車で走行中、自転車(銀色)に乗った男(15〜25歳位、やせ型、長めの金色に近い茶髪、黒色カバー付きスマートフォン所持)に並走されながらスマートフォンを向けられたもの。,新居浜市一宮町一丁目,新居浜市一宮町一丁目,1,blue,38.0,愛媛県,エヒメケン,EHIME KEN,38205.0,新居浜市,ニイハマシ,NIIHAMA SHI,382050006001.0,一宮町一丁目,33.959889000000004,133.282427
387,松山南署管内,不審者,令和2年1月13日(月)午後5時10分ころ,松山市今在家三丁目付近路上,女子中学生らが遊んでいたところ、公園付近を徘徊する男(50〜60歳位、やせ型、身長160センチ位、黒色短髪、上下黒色の服、黄色ニット帽、眼鏡着用、茶色ロープ所持、自転車利用)を目撃したもの。,松山市今在家三丁目,松山市今在家三丁目,0,purple,38.0,愛媛県,エヒメケン,EHIME KEN,38201.0,松山市,マツヤマシ,MATSUYAMA SHI,382010031003.0,今在家三丁目,33.804874,132.791672
388,四国中央署管内,つきまとい,令和2年1月12日(日)午後2時30分ころ,四国中央市土居町津根付近路上,黒色ズボン、四角いもの所持)に後方をつきまとわれたもの。,四国中央市土居町津根,四国中央市土居町津根,2,blue,38.0,愛媛県,エヒメケン,EHIME KEN,38213.0,四国中央市,シコクチュウオウシ,SHIKOKUCHUO SHI,382130030000.0,土居町津根,33.967002,133.45345
389,大洲署管内,写真撮影,令和2年1月11日(土)午後3時30分ころ,大洲市中村付近店舗内,黒色長ズボン、黒色キャップ帽、黒縁眼鏡着用、スマートフォン様所持)にスマートフォン様の物を向けられたもの。,大洲市中村,大洲市中村,0,lightred,38.0,愛媛県,エヒメケン,EHIME KEN,38207.0,大洲市,オオズシ,OZU SHI,382070053000.0,中村,33.514703000000004,132.54232
390,今治署管内,声かけ,令和2年1月10日(金)午後5時30分ころ,今治市常盤町五丁目付近施設内,女子高校生らが勉強中、隣に座ってきた男(40〜50歳位、小肥、身長170センチ位、上下灰色スウェット風ジャージ、茶色眼鏡着用、斜めがけカバン所持)に、「男の子の事を考えてるんじゃないの?」と声をかけられ、その後も様子を窺うように付近をうろつかれたもの。,今治市常盤町五丁目,今治市常盤町五丁目,0,green,38.0,愛媛県,エヒメケン,EHIME KEN,38202.0,今治市,イマバリシ,IMABARI SHI,382020140005.0,常盤町五丁目,34.060959999999994,132.994766
391,大洲署管内,つきまとい,令和2年1月10日(金)午後5時00分ころ,大洲市徳森甲付近路上,白色様ズボン、帽子着用)に後方をつきまとわれたもの。,大洲市徳森甲,大洲市徳森,0,blue,38.0,愛媛県,エヒメケン,EHIME KEN,38207.0,大洲市,オオズシ,OZU SHI,382070035000.0,徳森,33.524891,132.585004
392,松山西署管内,つきまとい,令和2年1月10日(金)午後4時5分ころ,松山市北条辻付近路上,緑色ウインドブレーカー、帽子着用、スマートフォン所持)に後方をつきまとわれたもの。,松山市北条辻,松山市北条辻,5,blue,38.0,愛媛県,エヒメケン,EHIME KEN,38201.0,松山市,マツヤマシ,MATSUYAMA SHI,382010282000.0,北条辻,33.968379,132.777843
393,四国中央署管内,つきまとい,令和2年1月9日(木)夕方ころ,四国中央市土居町天満付近路上,灰色ズボン、白色軍手着用)に手招きされたため、離れようとしたところ、後方をつきまとわれたもの。,四国中央市土居町天満,四国中央市土居町天満,0,blue,38.0,愛媛県,エヒメケン,EHIME KEN,38213.0,四国中央市,シコクチュウオウシ,SHIKOKUCHUO SHI,382130031000.0,土居町天満,33.978484,133.406257
394,西条西署管内,声かけ,令和2年1月8日(水)午後5時30分ころ,西条市丹原町川根付近路上,黒色ジャージ様)に「お前ちょっとそこで待っとれ。」「顔覚えたけんな。」と声をかけられたもの。,西条市丹原町川根,西条市丹原町川根,0,green,38.0,愛媛県,エヒメケン,EHIME KEN,38206.0,西条市,サイジョウシ,SAIJO SHI,382060069000.0,丹原町川根,33.894816,133.027408
395,四国中央署管内,写真撮影,令和2年1月8日(水)午後3時45分ころ,四国中央市川之江町付近路上,白黒のボーダー柄シャツ、携帯電話所持)に、携帯電話で写真を撮られたもの。,四国中央市川之江町,四国中央市川之江町,5,lightred,38.0,愛媛県,エヒメケン,EHIME KEN,38213.0,四国中央市,シコクチュウオウシ,SHIKOKUCHUO SHI,382130008000.0,川之江町,34.014303999999996,133.57968200000002
396,松山西署管内,つきまとい,令和2年1月7日(火)午前7時40分ころ,松山市久万ノ台付近路上,紺色パーカー、眼鏡着用)に執拗につきまとわれたもの。,松山市久万ノ台,松山市久万ノ台,1,blue,38.0,愛媛県,エヒメケン,EHIME KEN,38201.0,松山市,マツヤマシ,MATSUYAMA SHI,382010113000.0,久万ノ台,33.859432,132.74256699999998
397,四国中央署管内,つきまとい,令和2年1月6日(月)午後9時ころ,四国中央市寒川町付近路上,青色ジーパン、マスク着用)に凝視されたり、走って追いかけられそうになったもの。,四国中央市寒川町,四国中央市寒川町,3,blue,38.0,愛媛県,エヒメケン,EHIME KEN,38213.0,四国中央市,シコクチュウオウシ,SHIKOKUCHUO SHI,382130016000.0,寒川町,33.952462,133.50771699999999
398,松山東署管内,不審者,令和2年1月6日(月)午後4時15分ころ,松山市花園町付近路上,男児小学生が歩行中、対向してきた男(50歳位、身長170センチ位、薄毛)に顔を覗き込まれた後、背負っていたリュックに手を入れられ、ゴミ入れ用のナイロン袋をとられたもの。男児小学生に怪我は無し。,松山市花園町,松山市花園町,0,purple,38.0,愛媛県,エヒメケン,EHIME KEN,38201.0,松山市,マツヤマシ,MATSUYAMA SHI,382010244000.0,花園町,33.837672999999995,132.761772
399,松山南署管内,つきまとい,令和2年1月2日(木)午後2時30分ころ,松山市今在家二丁目付近路上,紺色ジャンパー、ニット帽、白色マスク着用、スマートフォン所持)に後方をつきまとわれたもの。女性は12月28日に自転車に乗った同じ男から、すれ違いざま、体を触られそうになっていた。,松山市今在家二丁目,松山市今在家二丁目,1,blue,38.0,愛媛県,エヒメケン,EHIME KEN,38201.0,松山市,マツヤマシ,MATSUYAMA SHI,382010031002.0,今在家二丁目,33.806922,132.791754
