,管轄署,種別,日時,場所,状況,特徴,住所,address,count,color,都道府県コード,都道府県名,都道府県名カナ,都道府県名ローマ字,市区町村コード,市区町村名,市区町村名カナ,市区町村名ローマ字,大字町丁目名,大字町丁目名カナ,大字町丁目名ローマ字,小字・通称名,緯度,経度
0,松山東署管内,写真撮影等,令和6年2月9日(金)午後5時50分ころ,松山市志津川町の路上,女子中学生が徒歩で移動中、路上に立っていた男に一眼レフカメラを向けられ撮影されたもの。,60歳位、160cm位、やせ型、白髪交じりの角刈り、眼鏡着用,松山市志津川町の,松山市志津川町,0,写真撮影等,38.0,愛媛県,エヒメケン,EHIME KEN,38201.0,松山市,マツヤマシ,MATSUYAMA SHI,志津川町,シツカワマチ,SHITSUKAWAMACHI,,33.878989,132.747144
1,松山東署管内,声かけ,令和6年2月8日(木)午前7時40分ころ,松山市平和通六丁目の駅構内,小学生女児がベンチに座っていたところ、徒歩の男が向かい側のベンチに座り、「何書きよるんぞ。」と大声で声をかけられたもの。,50歳位、170-180cm位、中肉、ジャンパー(薄め)、黒色長ズボン、煙草所持,松山市平和通六丁目の駅構内,松山市平和通六丁目の駅構内,0,green,,,,,,,,,,,,,,
2,四国中央署管内,写真撮影等,令和6年2月7日(水)午後3時20分ころ,四国中央市金生町山田井の路上,小学生女児が徒歩で移動中、徒歩の男にスマートフォンを向けられたもの。,15-20歳位、160cm位、やせ型、黒色短髪、白色パーカー、黒色カーゴズボン,四国中央市金生町山田井の,四国中央市金生町山田井,0,写真撮影等,38.0,愛媛県,エヒメケン,EHIME KEN,38213.0,四国中央市,シコクチュウオウシ,SHIKOKUCHUO SHI,金生町山田井,キンセイチョウヤマダイ,KINSEICHO YAMADAI,,34.016639,133.616508
3,新居浜署管内,暴行,令和6年2月6日(火)午後3時30分ころ,新居浜市中筋町一丁目の路上,小学生男女児が徒歩で移動中、徒歩の男とすれ違う際に呼び止められ、「お母さんたちが座っている。」等と意味不明の言動で声をかけられた上、小学生がその場から離れようとしたところ、突然怒り始め、頭部を平手で1回叩かれたもの。,70-80歳位、160cm位、中肉、短髪灰色交じりの白髪、黄色様上衣、灰色様ズボン,新居浜市中筋町一丁目の,新居浜市中筋町一丁目,0,red,38.0,愛媛県,エヒメケン,EHIME KEN,38205.0,新居浜市,ニイハマシ,NIIHAMA SHI,中筋町一丁目,ナカスジチョウ 1,NAKASUJICHO 1,,33.926579,133.305471
4,松山東署管内,声かけ,令和6年2月5日(月)午後4時00分ころ,松山市土居田町の路上,小学生女児が徒歩で移動中、路上に立っていた男に「火事だと叫んでください。両手を挙げて言ってみよう。」等と声をかけられたもの。,40歳位、180cm位、中肉、オレンジ色長袖上着、黒色長ズボン、褐色様の肌、茶色ボディバッグ所持,松山市土居田町の,松山市土居田町,0,green,38.0,愛媛県,エヒメケン,EHIME KEN,38201.0,松山市,マツヤマシ,MATSUYAMA SHI,土居田町,ドイダマチ,DOIDAMACHI,,33.823276,132.746488
5,松山東署管内,身体露出,令和6年2月3日(土)午後6時50分ころ,松山市木屋町一丁目の路上,男が路上に立っている状態で、下半身を露出していたもの。,20-40歳位、170cm位、やせ型、スウェット様上衣、灰色スウェットズボン、黒色様パンツ着用,松山市木屋町一丁目の,松山市木屋町一丁目,0,orange,38.0,愛媛県,エヒメケン,EHIME KEN,38201.0,松山市,マツヤマシ,MATSUYAMA SHI,木屋町一丁目,キヤチョウ 1,KIYACHO 1,,33.848553,132.760285
6,松山西署管内,身体露出,令和6年2月1日(木)午後7時40分ころ,松山市東垣生町の路上,男が、自転車で走行していた女子高校生の前方で立ち止まり、ズボンを下げて下半身を露出したもの。,30-50歳位、170cm位、中肉、黒色スウェット(フード付き)、黒色スウェットズボン、フードを被っていた,松山市東垣生町の,松山市東垣生町,0,orange,38.0,愛媛県,エヒメケン,EHIME KEN,38201.0,松山市,マツヤマシ,MATSUYAMA SHI,東垣生町,ヒガシハブマチ,HIGASHIHABUMACHI,,33.813135,132.714338
7,松山西署管内,声かけ,令和6年1月29日(月)午後5時30分ころ,松山市太山寺町の路上,女子中学生が徒歩で移動中、後方から接近した徒歩の男に左肩をポンポンと叩かれた上、「ねえねえ。」と声をかけられたもの。女子中学生が逃げると、男は追いかけてきた。,40歳位、170cm位、中肉、黒色短髪、黒色又は紺色のパーカー、黒縁眼鏡着用,松山市太山寺町の,松山市太山寺町,0,green,38.0,愛媛県,エヒメケン,EHIME KEN,38201.0,松山市,マツヤマシ,MATSUYAMA SHI,太山寺町,タイサンジチョウ,TAISANJICHO,,33.887046,132.724298
8,松山東署管内,声かけ,令和6年1月28日(日)午後6時20分ころ,松山市持田町一丁目の店舗駐車場,小学生男女児が施錠中の車両に乗車中、徒歩の男に運転席ドアを開けられそうになった上、「開けて。」と声をかけられたもの。その後、男に携帯電話様のものを向けられた。,40-50歳位、小肥、黒色短髪、黒色様ジャンパー、黒色ズボン、肩掛けバッグ、黒色様靴所持,松山市持田町一丁目の,松山市持田町一丁目,0,green,38.0,愛媛県,エヒメケン,EHIME KEN,38201.0,松山市,マツヤマシ,MATSUYAMA SHI,持田町一丁目,モチダマチ 1,MOCHIDAMACHI 1,,33.842769,132.783629
9,松山南署管内,暴行,令和6年1月28日(日)午後0時20分ころ,松山市市坪西町の施設駐車場,小学生男児が徒歩で移動中、近づいてきた徒歩の男に腕を掴まれたもの。,40-50歳位、165cm位、中肉、上下黒色ジャージ(フード付き)、黒色野球帽着用,松山市市坪西町の,松山市市坪西町,0,red,38.0,愛媛県,エヒメケン,EHIME KEN,38201.0,松山市,マツヤマシ,MATSUYAMA SHI,市坪西町,イチツボニシマチ,ICHITSUBONISHIMACHI,,33.809432,132.744574
10,松山東署管内,声かけ,令和6年1月25日(木)午後3時00分ころ,松山市空港通一丁目の路上,小学生男児が徒歩で移動中、後方から近付いてきた徒歩の男に「どこの学校行きよん。」と声をかけられたもの。,上下暗色系服、暗色系野球帽子、白色マスク着用,松山市空港通一丁目の,松山市空港通一丁目,0,green,38.0,愛媛県,エヒメケン,EHIME KEN,38201.0,松山市,マツヤマシ,MATSUYAMA SHI,空港通一丁目,クウコウドオリ 1,KUKODORI 1,,33.828054,132.748481
11,新居浜署管内,つきまとい,令和6年1月22日(月)午後5時00分ころ,新居浜市高津町の路上,女子中学生が徒歩で移動中、徒歩の男に後方をつきまとわれたもの。,15-20歳位、165cm位、やせ型、黒色短髪、灰色スウェット様長袖上衣、黒色ジャージ様長ズボン、スマートフォン所持,新居浜市高津町の,新居浜市高津町,0,blue,38.0,愛媛県,エヒメケン,EHIME KEN,38205.0,新居浜市,ニイハマシ,NIIHAMA SHI,高津町,タカツチョウ,TAKATSUCHO,,33.972074,133.299506
12,松山南署管内,つきまとい,令和6年1月19日(金)午後4時30分ころ,松山市西石井四丁目から同市西石井五丁目までの路上,小学生男児が徒歩で移動中、路上に駐車していた車(黒色、ワンボックスタイプ)の横を通り過ぎた後、同車から降車した男に後方をつきまとわれたもの。,30-40歳位、170cm位、中肉、黒色短髪、黒色上衣、黒色ズボン,松山市西石井四丁目から同市西石井五丁目までの,松山市西石井四丁目から同市西石井五丁目まで,0,blue,,,,,,,,,,,,,,
13,松山西署管内,写真撮影等,令和6年1月18日(木)午後4時00分ころ,松山市河野別府から同市府中までの路上,小学生女児2人が徒歩で移動中、後方から近付いてきた車両(白色、ワンボックスカータイプ)の後部席に乗車の人物にデジタルカメラ様を向けられたもの。,性別不明、運転手の性別等不明,松山市河野別府から同市府中までの,松山市河野別府から同市府中まで,0,写真撮影等,,,,,,,,,,,,,,
14,松山西署管内,つきまとい,令和6年1月18日(木)午後3時10分ころ,松山市久万ノ台の路上,小学生男女児10人が徒歩で移動中、自転車(黒色、軽快自転車様)に乗車の男に後方を付いてこられたり、先回りされる等されたもの。,30歳位、170cm位、中肉、黒色パーカー(フード付き)、黒色長ズボン、黒色ネックウォーマーを鼻まで着用、フードを被っている,松山市久万ノ台の,松山市久万ノ台,0,blue,38.0,愛媛県,エヒメケン,EHIME KEN,38201.0,松山市,マツヤマシ,MATSUYAMA SHI,久万ノ台,クマノダイ,KUMANODAI,,33.859432,132.742567
15,松山南署管内,卑わいな言動,令和6年1月17日(水)午後7時00分ころ,東温市樋口の路上,女性が徒歩で移動中、道路脇から飛び出してきた男に「ちょっときて。」と声をかけられながら、自慰行為をするような仕草を見せつけられたもの。,20-30歳位、165cm位、中肉、黒色短髪、黒色様長袖上着、黒色ダウンベスト、紺色様デニムズボン着用,東温市樋口の,東温市樋口,0,卑わいな言動,38.0,愛媛県,エヒメケン,EHIME KEN,38215.0,東温市,トウオンシ,TOON SHI,樋口,ヒノクチ,HINOKUCHI,,33.822826,132.886589
16,西条署管内,写真撮影等,令和6年1月16日(火)午後4時00分ころ,西条市福武の路上,小学生男女児が徒歩で移動中、後方から近付いてきた車両(赤色、白色ナンバー)に乗車の男にスマートフォンを向けられたもの。,40歳位、小肥、茶色パーマ頭、外国人風、口周りに髭有り,西条市福武の,西条市福武,0,写真撮影等,,,,,,,,,,,,,,
17,新居浜署管内,つきまとい,令和6年1月15日(月)午後2時30分ころ,新居浜市船木の路上,女子高校生が徒歩で移動中、徒歩の男に後方をつきまとわれたもの。,40-50位、170cm位、やせ型、黒色短髪、黒色スウェット様上衣、黒色長ズボン,新居浜市船木の,新居浜市船木,0,blue,38.0,愛媛県,エヒメケン,EHIME KEN,38205.0,新居浜市,ニイハマシ,NIIHAMA SHI,船木,フナキ,FUNAKI,,33.925772,133.343366
18,新居浜署管内,つきまとい,令和6年1月15日(月)午後2時30分ころ,新居浜市船木の路上,女子高校生が徒歩で移動中、徒歩の男に後方をつきまとわれたもの。,40-50位、170cm位、やせ型、黒色短髪、黒色スウェット様上衣、黒色長ズボン,新居浜市船木の,新居浜市船木,0,blue,38.0,愛媛県,エヒメケン,EHIME KEN,38205.0,新居浜市,ニイハマシ,NIIHAMA SHI,船木,フナキ,FUNAKI,池田,33.939464,133.331824
19,新居浜署管内,つきまとい,令和6年1月15日(月)午後2時30分ころ,新居浜市船木の路上,女子高校生が徒歩で移動中、徒歩の男に後方をつきまとわれたもの。,40-50位、170cm位、やせ型、黒色短髪、黒色スウェット様上衣、黒色長ズボン,新居浜市船木の,新居浜市船木,0,blue,38.0,愛媛県,エヒメケン,EHIME KEN,38205.0,新居浜市,ニイハマシ,NIIHAMA SHI,船木,フナキ,FUNAKI,長野,33.94444,133.345723
20,新居浜署管内,つきまとい,令和6年1月14日(日)午後5時10分ころ,新居浜市船木から同市国領までの路上,小学生女児が徒歩で移動中、徒歩の男に後方をつきまとわれたもの。,40-50位、170cm位、中肉、黒色上衣、茶色インナー、長ズボン、茶色ニット帽着用,新居浜市船木から同市国領までの,新居浜市船木から同市国領まで,0,blue,,,,,,,,,,,,,,
21,松山東署管内,身体露出,令和6年1月13日(土)午後10時30分ころ,松山市立花五丁目の路上,男が、徒歩の女性に「すみません、ちょっといいですか。」と声をかけた後、下半身を露出したもの。,60-70位、170cm位、中肉、白髪交じりの黒色短髪、黒色ウインドブレーカー様、灰色様ジーパン、顎にマスク着用,松山市立花五丁目の,松山市立花五丁目,0,orange,38.0,愛媛県,エヒメケン,EHIME KEN,38201.0,松山市,マツヤマシ,MATSUYAMA SHI,立花五丁目,タチバナ 5,TACHIBANA 5,,33.827715,132.770744
22,今治署管内,声かけ,令和6年1月13日(土)午後4時30分ころ,今治市郷本町一丁目の公園,小学生男児3人が遊戯中、徒歩の男に「これみんなで使って。」と声をかけられた上、無理矢理1000円札を手渡されたもの。,40-50位、170cm位、中肉、黒色短髪、黒色ダウン様、黒色長ズボン,今治市郷本町一丁目の,今治市郷本町一丁目,0,green,38.0,愛媛県,エヒメケン,EHIME KEN,38202.0,今治市,イマバリシ,IMABARI SHI,郷本町一丁目,ゴウホンチョウ 1,GOHONCHO 1,,34.048052,132.996979
23,松山南署管内,声かけ,令和6年1月13日(土)午後0時50分ころ,松山市北梅本町の店舗駐車場,男子中学生が駐車場にいたところ、近づいてきた徒歩の男に「遊ばない?」「恋愛対象はどっちなの?」「僕は男でもいけるよ。」と話しかけられたもの。,20-30位、155cm位、中肉、スポーツ刈り、黒色ジャンパー、黒色長ズボン、革靴、眼鏡、マスク着用,松山市北梅本町の,松山市北梅本町,0,green,38.0,愛媛県,エヒメケン,EHIME KEN,38201.0,松山市,マツヤマシ,MATSUYAMA SHI,北梅本町,キタウメモトマチ,KITAUMEMOTOMACHI,,33.824485,132.860568
24,松山西署管内,身体露出,令和6年1月12日(金)午後7時50分ころ,松山市富久町の路上,男が、路上でズボンを下ろし、下半身を露出していたもの。,30-40位、170cm位、小肥、スキンヘッド、黒色パーカー、白色スウェットズボン,松山市富久町の,松山市富久町,0,orange,38.0,愛媛県,エヒメケン,EHIME KEN,38201.0,松山市,マツヤマシ,MATSUYAMA SHI,富久町,トミヒサマチ,TOMIHISAMACHI,,33.822368,132.728708
25,八幡浜署管内,声かけ,令和6年1月12日(金)午後6時30分ころ,八幡浜市江戸岡一丁目の路上,女子高校生が路上にいたところ、近づいてきた徒歩の男に「友達になってくれ。」「ライン交換をしませんか。」等と執拗に声をかけられたもの。,30-40位、170cm位、中肉、黒色短髪、緑色ジャケット、ズボン、色白、リュックサック所持,八幡浜市江戸岡一丁目の,八幡浜市江戸岡一丁目,0,green,38.0,愛媛県,エヒメケン,EHIME KEN,38204.0,八幡浜市,ヤワタハマシ,YAWATAHAMA SHI,江戸岡一丁目,エドオカ 1,EDOKA 1,,33.458085,132.434634
26,伯方署管内,声かけ,令和6年1月12日(金)午後4時00分ころ,越智郡上島町弓削上弓削の路上,小学生男児が徒歩で移動中、徒歩の男に「何て名前?」「どこに住んでいるの?」等と声をかけられたもの。,30-50歳位、160cm位、中肉、黒色様若しくは緑色様のパーカー、黒色サングラス、白色マスク着用,越智郡上島町弓削上弓削の,越智郡上島町弓削上弓削,0,green,38.0,愛媛県,エヒメケン,EHIME KEN,38356.0,越智郡上島町,オチグンカミジマチョウ,OCHI GUN KAMIJIMA CHO,弓削上弓削,ユゲカミユゲ,YUGE KAMIYUGE,,34.275825,133.212777
27,松山東署管内,身体露出,令和6年1月10日(水)午後4時45分ころ,松山市土居田町の公園,男が、公園のベンチに座り、スマートフォンを持ったまま、下半身を露出していたもの。,50-70歳位、160-170cm位、中肉、茶髪様短髪、長袖シャツ、ベスト、ベージュ色長ズボン、白色マスク着用、スマートフォン所持,松山市土居田町の,松山市土居田町,1,orange,38.0,愛媛県,エヒメケン,EHIME KEN,38201.0,松山市,マツヤマシ,MATSUYAMA SHI,土居田町,ドイダマチ,DOIDAMACHI,,33.823276,132.746488
28,松山西署管内,声かけ,令和6年1月10日(水)午後4時00分ころ,松山市和気町二丁目の路上,小学生女児が徒歩で移動中、すれ違った車両(黒色、軽四乗用車様)から降車した男に「何小?堀江?」「おじさんは和気小やったよ。」「ぬいぐるみいっぱいあるけんいる?おすすめはみきゃん。」等と所持していたリュックサックの中のぬいぐるみを見せられながら声をかけられたもの。,50-60歳位、やせ型、頭に黒色タオル着用、黒色リュックサック(ぬいぐるみ入り、多数のマスコット付き)所持,松山市和気町二丁目の,松山市和気町二丁目,0,green,38.0,愛媛県,エヒメケン,EHIME KEN,38201.0,松山市,マツヤマシ,MATSUYAMA SHI,和気町二丁目,ワケマチ 2,WAKEMACHI 2,,33.899122,132.734604
29,松山南署管内,つきまとい,令和6年1月9日(火)午後6時30分ころ,松山市古川北四丁目から同市和泉南五丁目までの路上,女子中学生が自転車で移動中、自転車(黒色、軽快自転車様)に乗車の男に後方をつきまとわれたもの。,50-60位、170cm位、小肥、上下黒色様服、黒色様野球帽、マスク着用,松山市古川北四丁目から同市和泉南五丁目までの,松山市古川北四丁目から同市和泉南五丁目まで,0,blue,,,,,,,,,,,,,,
30,今治署管内,声かけ,令和6年1月7日(日)午後4時00分ころ,今治市東鳥生町一丁目の店舗内,小学生女児2人が店舗内にいたところ、男に「2人は中学生?ウチに来んか?食べ物なんかも色々あるよ。」等と声をかけられたもの。男は声かけ後にバイク(小型バイク様)に乗車して立ち去った。,50-70歳位、170cm位、中肉、黒色薄毛、目が大きい、髭有り、スマートフォン所持,今治市東鳥生町一丁目の,今治市東鳥生町一丁目,0,green,38.0,愛媛県,エヒメケン,EHIME KEN,38202.0,今治市,イマバリシ,IMABARI SHI,東鳥生町一丁目,ヒガシトリウチョウ 1,HIGASHITORIUCHO 1,,34.057951,133.017398
31,松山東署管内,身体露出,令和6年1月6日(土)午後5時00分ころ,松山市味酒町三丁目の集合住宅駐輪場,男が、自転車(黒色か紺色、軽快自転車)で駐輪場に進入し、下半身を露出していたもの。,20-40歳位、中肉、オレンジ色のインナー、黒色か青色の上着、ジーンズ、灰色ニット帽着用、外国人風(東南アジア系),松山市味酒町三丁目の集合,松山市味酒町三丁目の集合,0,orange,,,,,,,,,,,,,,
