,管轄署,種別,日時,場所,状況,特徴,住所,address,count,color,都道府県コード,都道府県名,都道府県名カナ,都道府県名ローマ字,市区町村コード,市区町村名,市区町村名カナ,市区町村名ローマ字,大字町丁目名,大字町丁目名カナ,大字町丁目名ローマ字,小字・通称名,緯度,経度
0,松山南署管内,つきまとい,令和3年8月4日(水)午前8時25分ころ,松山市越智二丁目の路上から同市越智一丁目の路上までの間,小学生男児が歩行中、男に後方をつきまとわれ、一度立ち去るも、移動先で待ち伏せされたもの。,65〜80歳位、小肥、身長170センチ位、上下青色又は紺色の半袖半ズボンジャージ、明るめの眼鏡・白色のハット帽又は麦わら帽子着用、もじゃもじゃの白髭あり,松山市越智二丁目の,松山市越智二丁目,0,blue,38.0,愛媛県,エヒメケン,EHIME KEN,38201.0,松山市,マツヤマシ,MATSUYAMA SHI,越智二丁目,オチ 2,OCHI 2,,33.810089,132.784573
1,松山東署管内,声かけ,令和3年8月3日(火)午後6時30分ころ,松山市味酒町一丁目の路上から同市味酒町二丁目の路上までの間,女性が歩行中、男に後方をつきまとわれた上、「素敵ですね、恋人いますか?」と声を掛けられたもの。,30〜40歳位、中肉、身長175センチ位、茶色混じりのぼさっとした黒色短髪、白色半袖Tシャツ(ボーダー柄)、茶色長ズボン、色白、色不明のボディバッグ所持、履物不明、眼鏡・マスクなし,松山市味酒町一丁目の,松山市味酒町一丁目,0,green,38.0,愛媛県,エヒメケン,EHIME KEN,38201.0,松山市,マツヤマシ,MATSUYAMA SHI,味酒町一丁目,ミサケマチ 1,MISAKEMACHI 1,,33.841555,132.75583
2,松山西署管内,声かけ,令和3年8月3日(火)午後0時40分ころ,松山市東垣生町の路上,男子中学生が歩行中、バイクにまたがった男から「手のひら、赤ちゃんみたいやろ。」等と意味不明の声掛けをされたもの。,40歳位、肥満、黒色短髪、白色スクーター,松山市東垣生町の,松山市東垣生町,0,green,38.0,愛媛県,エヒメケン,EHIME KEN,38201.0,松山市,マツヤマシ,MATSUYAMA SHI,東垣生町,ヒガシハブマチ,HIGASHIHABUMACHI,,33.813135,132.714338
3,松山西署管内,声かけ,令和3年8月1日(日)午後5時30分ころ,松山市東垣生町の路上,女子高校生が歩行中、小型の車に乗った男から「車に乗らない?」と声を掛けられた上、自宅まで低速で後をつけられたもの。,50〜70歳位、自動車利用(黒色、小型車),松山市東垣生町の,松山市東垣生町,1,green,38.0,愛媛県,エヒメケン,EHIME KEN,38201.0,松山市,マツヤマシ,MATSUYAMA SHI,東垣生町,ヒガシハブマチ,HIGASHIHABUMACHI,,33.813135,132.714338
4,松山東署管内,声かけ,令和3年7月31日(土)午後5時ころ,松山市一番町二丁目の施設内,女子中学生が施設内にいたところ、横に座ってきた男から「どこに行くの?家の住所は分からんの?」等と声を掛けられたもの。,50〜70歳位、やせ型、身長160〜170センチ位、黒色短髪、暗い色の長袖ジャンパー、黒色長ズボン、白色マスク・黒色スニーカー着用、紙袋(茶色)2袋所持,松山市一番町二丁目の,松山市一番町二丁目,0,green,38.0,愛媛県,エヒメケン,EHIME KEN,38201.0,松山市,マツヤマシ,MATSUYAMA SHI,一番町二丁目,イチバンチョウ 2,ICHIBANCHO 2,,33.841222,132.771378
5,松山東署管内,写真撮影,令和3年7月30日(金)午後0時55分ころ,松山市南江戸四丁目の路上,女子高校生が自転車で進行中、後方から来た自転車乗車の男にスマートフォンを向けられたもの。,30歳位、中肉、身長175センチ位、黒色短髪、白色半袖シャツ、黒色チェック柄ズボン、自転車利用(緑色、クロスバイク様)、黒縁眼鏡着用、マスク・髭なし、白色スマートフォン・黒色リュックサック所持,松山市南江戸四丁目の,松山市南江戸四丁目,0,lightred,38.0,愛媛県,エヒメケン,EHIME KEN,38201.0,松山市,マツヤマシ,MATSUYAMA SHI,南江戸四丁目,ミナミエド 4,MINAMIEDO 4,,33.837758,132.741668
6,松山東署管内,身体露出,令和3年7月29日(木)午前8時10分ころ,松山市下伊台町の路上,路上に立っていた男が、陰部を露出していたもの。,20〜40歳位、中肉、中背、Tシャツ(色不明),松山市下伊台町の,松山市下伊台町,0,orange,38.0,愛媛県,エヒメケン,EHIME KEN,38201.0,松山市,マツヤマシ,MATSUYAMA SHI,下伊台町,シモイダイマチ,SHIMOIDAIMACHI,,33.873539,132.799896
7,四国中央署管内,公然わいせつ容疑,令和3年7月28日(水)午後9時40分ころ,四国中央市下柏町の路上,女性が友人と歩行中、男から後方をつきまとわれ、一旦離れたものの、同男がズボンを脱ぎ下半身を手で隠した状態で走り寄ってきたもの。,30〜50歳位、中肉、身長170センチ位、肩までの長さの黒髪、黒色様のタイトな服、ズボンを穿いていない(下着の着用は不明)、眼鏡・帽子なし,四国中央市下柏町の,四国中央市下柏町,0,公然わいせつ容疑,38.0,愛媛県,エヒメケン,EHIME KEN,38213.0,四国中央市,シコクチュウオウシ,SHIKOKUCHUO SHI,下柏町,シモガシワチョウ,SHIMOGASHIWACHO,,33.98585,133.566343
8,宇和島署管内,写真撮影等,令和3年7月28日(水)午後4時40分ころ,宇和島市錦町の路上,女子中学生2名が歩行中、路上にいた男から一眼レフカメラを向けられたもの。その後、男は付近をうろつき別の女性に対してもカメラを向けていた。,50〜60歳位、中肉、身長165センチ位、黒色短髪、黒地に茶色模様の襟付きシャツ、グレー色様長ズボン、薄い黒縁眼鏡・白色マスク着用、黒色様ショルダーバッグ2個・黒色一眼レフカメラ所持,宇和島市錦町の,宇和島市錦町,0,写真撮影等,38.0,愛媛県,エヒメケン,EHIME KEN,38203.0,宇和島市,ウワジマシ,UWAJIMA SHI,錦町,ニシキマチ,NISHIKIMACHI,,33.226647,132.568488
9,松山東署管内,つきまとい,令和3年7月28日(水)午後3時30分ころ,松山市六軒家町の路上,女性が路上にて目が合った男から、後方をつきまとわれたもの。,30〜40歳位、身長175センチ位、中肉、肩にかかる長さの黒色パーマ、透明レンズの眼鏡着用、空のペットボトルを2本所持,松山市六軒家町の,松山市六軒家町,0,blue,38.0,愛媛県,エヒメケン,EHIME KEN,38201.0,松山市,マツヤマシ,MATSUYAMA SHI,六軒家町,ロッケンヤチョウ,ROKKENYACHO,,33.851253,132.752283
10,今治署管内,声かけ,令和3年7月24日(土)午後6時20分ころ,今治市常盤町七丁目の路上,男子高校生2名が自転車で走行中、前方を自転車でフラフラしながら走行していた男が急にUターンし、同男から「お前らワシに勝てると思っとるんか。」等と言われたもの。,60歳位、小肥、白髪混じりの黒色短髪、灰色タンクトップ、水色ジーンズ(半ズボン)、銀色の自転車利用、灰色サンダル、マスク・帽子なし,今治市常盤町七丁目の,今治市常盤町七丁目,0,green,38.0,愛媛県,エヒメケン,EHIME KEN,38202.0,今治市,イマバリシ,IMABARI SHI,常盤町七丁目,トキワチョウ 7,TOKIWACHO 7,,34.055931,132.988937
11,今治署管内,声かけ,令和3年7月24日(土)午後3時40分ころ,今治市大西町の施設内,小学生女児が友人と遊んでいたところ、男から「こんにちは。」と声を掛けられた上、敬礼をされたもの。,30歳位、やせ型、身長150〜160センチ位、黒色短髪、黒色の服、一見して外国人風、眼鏡・マスク(色不明)着用,今治市大西町の,今治市大西町,0,green,,,,,,,,,,,,,,
12,松山東署管内,写真撮影,令和3年7月22日(木)午後7時50分ころ,松山市湊町七丁目の路上,女性が停止中の車両内にいたところ、近づいてきた男から一眼レフカメラを向けられたもの。,20〜30歳位、やせ型、身長170センチ位、黒色様の服、黒色様長ズボン、一眼レフカメラ所持、黒色ハット帽・マスク着用、眼鏡なし,松山市湊町七丁目の,松山市湊町七丁目,0,lightred,38.0,愛媛県,エヒメケン,EHIME KEN,38201.0,松山市,マツヤマシ,MATSUYAMA SHI,湊町七丁目,ミナトマチ 7,MINATOMACHI 7,,33.835713,132.755855
13,松山南署管内,住居侵入,令和3年7月20日(火)午前5時05分ころ,松山市東方町の一般住宅,女性が浴室の窓を開けたところ、敷地内にいた男が住宅の壁に張り付くようにして隠れていたもの。,身長165センチ位、桃色シャツ、からし色ズボン,松山市東方町の,松山市東方町,0,darkred,38.0,愛媛県,エヒメケン,EHIME KEN,38201.0,松山市,マツヤマシ,MATSUYAMA SHI,東方町,ヒガシガタマチ,HIGASHIGATAMACHI,,33.763088,132.820612
14,西条西署管内,ちかん,令和3年7月19日(月)午後3時10分ころ,西条市周布の店舗内,女性が店舗内にいたところ、男が後方を通過しながら、腰部や臀部等を服の上から触ってきたもの。,40〜50歳位、中肉、黒色短髪、紺色Tシャツ、紺色作業ズボン様、自転車利用、銀縁眼鏡・マスク・黒色運動靴様着用、白色トートバッグ所持,西条市周布の,西条市周布,0,gray,38.0,愛媛県,エヒメケン,EHIME KEN,38206.0,西条市,サイジョウシ,SAIJO SHI,周布,シュウ,SHU,,33.915576,133.079875
15,松山東署管内,写真撮影,令和3年7月19日(月)午後3時ころ,松山市余戸西一丁目の路上,小学生女児が友人と歩行中、自転車に乗った男から二度にわたってカメラで写真を撮られたうえ、逃げようとした際に後ろから近づいてこられたもの。,30〜50歳位、禿げている、上下黒色の服、青色マウンテンバイク様(カゴなし),松山市余戸西一丁目の,松山市余戸西一丁目,0,lightred,38.0,愛媛県,エヒメケン,EHIME KEN,38201.0,松山市,マツヤマシ,MATSUYAMA SHI,余戸西一丁目,ヨウゴニシ 1,YOGONISHI 1,,33.813536,132.725131
16,西条西署管内,暴行,令和3年7月17日(土)午前10時ころ,西条市三芳の路上,小学生女児が一人で歩行中、男に前方を立ち塞がれたことから、横をすり抜けようとしたところ、足を引っ掛けられたもの。,身長170センチ位、中肉、短髪、白色と黒色のキャップ帽・黒色マスク着用,西条市三芳の,西条市三芳,0,red,38.0,愛媛県,エヒメケン,EHIME KEN,38206.0,西条市,サイジョウシ,SAIJO SHI,三芳,ミヨシ,MIYOSHI,,33.953294,133.067329
17,松山東署管内,声かけ,令和3年7月16日(金)午後5時30分ころ,松山市空港通二丁目から三丁目までの間の路上,男子中学生が自転車で車道端を通行中、車に乗った男からクラクションを鳴らされたうえ、怒鳴られたもの。,30〜50歳位、黒髪、小肥、白色普通乗用車,松山市空港通二丁目から三丁目までの間の,松山市空港通二丁目から三丁目までの間,0,green,,,,,,,,,,,,,,
18,宇和島署管内,写真撮影,令和3年7月16日(金)午後5時30分ころ,宇和島市新田町二丁目の駐車場内,女子高校生2名が駐車場にいたところ、駐車中の車内にいた男から一眼レフカメラを向けられたもの。,40歳位、黒髪、普通乗用自動車利用(オレンジ色)、一眼レフカメラ所持,宇和島市新田町二丁目の,宇和島市新田町二丁目,0,lightred,38.0,愛媛県,エヒメケン,EHIME KEN,38203.0,宇和島市,ウワジマシ,UWAJIMA SHI,新田町二丁目,シンデンチョウ 2,SHINDENCHO 2,,33.213243,132.557992
19,伊予署管内,つきまとい,令和3年7月16日(金)午前5時20分ころ,伊予郡松前町大字北黒田の路上から同町大字南黒田の路上までの間,男性が徒歩で移動中、路上にいた男が「ふふふ。」と笑うなどしながら、周囲をつきまとってきたもの。,20〜30歳位、中肉、身長170センチ位、短髪、白色Tシャツ、短パン、裸足、眼鏡・髭なし,伊予郡松前町大字北黒田の,伊予郡松前町大字北黒田,0,blue,38.0,愛媛県,エヒメケン,EHIME KEN,38401.0,伊予郡松前町,イヨグンマサキチョウ,IYO GUN MASAKI CHO,大字北黒田,,,,33.781156,132.711217
20,松山西署管内,声かけ,令和3年7月15日(木)午後4時ころ,松山市南斎院町の屋外施設,小学生男女児4名が遊んでいたところ、歩いて来た男から学校名、学年、クラスを聞かれた上、ブランコで遊んでいた児童が、「後ろから押そうか?」と声を掛けられたもの。,70〜80歳位、中肉、身長170センチ位、白髪混じりの髪、水色Tシャツ、青色ズボン、青色帽子着用、眼鏡なし,松山市南斎院町の,松山市南斎院町,0,green,38.0,愛媛県,エヒメケン,EHIME KEN,38201.0,松山市,マツヤマシ,MATSUYAMA SHI,南斎院町,ミナミサヤチョウ,MINAMISAYACHO,,33.83303,132.731679
21,松山南署管内,暴行,令和3年7月15日(木)午前7時40分ころ,松山市西石井五丁目の路上,女子中学生が友人と徒歩で移動中、車両に乗った行為者から、すれ違いざまにブルーベリーを投げつけられたもの。,普通乗用自動車利用(白色、セダン車),松山市西石井五丁目の,松山市西石井五丁目,0,red,38.0,愛媛県,エヒメケン,EHIME KEN,38201.0,松山市,マツヤマシ,MATSUYAMA SHI,西石井五丁目,ニシイシイ 5,NISHIISHII 5,,33.813787,132.771416
22,松山東署管内,声かけ,令和3年7月15日(木)午前0時25分ころ,松山市味酒のエレベーター内,女性が路上にいた男に後をつけられ、同乗したマンションのエレベーター内で、ズボンに手をかけた状態で「お金あげるけん見て。」等と声を掛けられたもの。,30歳位、身長175センチ位、ベタついてもっさりした黒髪、薄手の白色シャツ、ベージュ色ズボン,松山市味酒のエレベーター内,松山市味酒のエレベーター内,0,green,,,,,,,,,,,,,,
23,松山南署管内,つきまとい,令和3年7月14日(水)午後7時30分ころから同日午後8時30分ころまでの間,松山市水泥町等の路上,女子高校生が自転車で移動中、自転車に乗った男から、約1時間にわたって後方をつきまとわれたもの。,18〜25歳位、マスク着用、白色リュックサックを背負っている、黒色ロードバイク様自転車使用,松山市水泥町等の,松山市水泥町等,0,blue,,,,,,,,,,,,,,
24,松山西署管内,声かけ,令和3年7月13日(火)午後3時ころ,松山市堀江町の路上,女性が歩行中、男から「覚えとる?」と声をかけられ、「分かりません。」と答えると、「あ、そうですか。」と言い、立ち去ったもの。,30歳位、身長170センチ位、中肉、やや長めの茶髪、黒色Tシャツ、ジーパン、マスク着用、眼鏡なし,松山市堀江町の,松山市堀江町,0,green,38.0,愛媛県,エヒメケン,EHIME KEN,38201.0,松山市,マツヤマシ,MATSUYAMA SHI,堀江町,ホリエチョウ,HORIECHO,,33.908885,132.759138
25,松山東署管内,不審者,令和3年7月12日(月)午後1時30分ころ,松山市北立花町の路上,男が折り畳み式様のナイフを持ち、歩いていたもの。,20〜30歳位、身長175センチ位、やせ型、黒色短髪、灰色長袖上衣、紺色長ズボン、眼鏡着用、コンパクトサイズの折り畳み式様のナイフ(柄が黒色)所持,松山市北立花町の,松山市北立花町,0,purple,38.0,愛媛県,エヒメケン,EHIME KEN,38201.0,松山市,マツヤマシ,MATSUYAMA SHI,北立花町,キタタチバナマチ,KITATACHIBANAMACHI,,33.834261,132.77277
26,松山東署管内,不審者,令和3年7月11日(日)午後0時40分ころ,松山市余戸東一丁目の歩道上,女子中学生が徒歩にて移動中、自転車に乗り対向してきた男が何かを呟きながら、すれ違いざまに手を振ってきたもの。,50〜60歳位、少し痩せている、薄汚れた作業着様の服、薄汚れた作業ズボン、自転車(銀色、ママチャリ、前カゴ付)、頭全体と鼻から下にタオルを巻いており目元しか見えない、眼鏡なし,松山市余戸東一丁目の歩道上,松山市余戸東一丁目の歩道上,0,purple,,,,,,,,,,,,,,
27,四国中央署管内,声かけ,令和3年7月11日(日)午前11時ころ,四国中央市寒川町の路上,小学生女児が路上にいたところ、自転車に乗った男から手招きされ、「お金をあげるけんおいで。」と声を掛けられたもの。,80歳位、小肥、身長165〜170センチ位、色不明の長袖、色不明の半ズボン、自転車利用、青色キャップ帽着用,四国中央市寒川町の,四国中央市寒川町,0,green,38.0,愛媛県,エヒメケン,EHIME KEN,38213.0,四国中央市,シコクチュウオウシ,SHIKOKUCHUO SHI,寒川町,サンガワチョウ,SANGAWACHO,,33.952462,133.507717
28,四国中央署管内,声かけ,令和3年7月11日(日)午前11時ころ,四国中央市寒川町の路上,小学生女児が路上にいたところ、自転車に乗った男から手招きされ、「お金をあげるけんおいで。」と声を掛けられたもの。,80歳位、小肥、身長165〜170センチ位、色不明の長袖、色不明の半ズボン、自転車利用、青色キャップ帽着用,四国中央市寒川町の,四国中央市寒川町,0,green,38.0,愛媛県,エヒメケン,EHIME KEN,38213.0,四国中央市,シコクチュウオウシ,SHIKOKUCHUO SHI,寒川町,サンガワチョウ,SANGAWACHO,大門,33.967211,133.503062
29,松山東署管内,つきまとい,令和3年7月9日(金)午前8時40分ころ,松山市和泉北三丁目の建物軒下,女性が軒下にいたところ、一旦通り過ぎた男が戻ってきて、何か小声で呟きながら近付いてきたもの。女性は同日午後3時ころにも、同所付近にて佇む男を目撃している。,30〜40歳位、やせ型、身長165〜170センチ位、黒色様のパーマ頭、黒色ジャージ(2回目の目撃時は白色半袖シャツ)、黒色ジャージ(白色ライン2本入り)、目つきが鋭い、透明ビニール傘所持,松山市和泉北三丁目の建物軒下,松山市和泉北三丁目の建物軒下,0,blue,,,,,,,,,,,,,,
30,松山南署管内,不審者,令和3年7月9日(金)午前7時40分ころ,松山市居相五丁目の路上,男がパンツ姿で、路上に面する一軒家の壁にもたれかかるようにして座り込んでいたもの。,50〜60歳位、小肥、黒色短髪、上半身裸、青色トランクス、赤茶色の靴,松山市居相五丁目の,松山市居相五丁目,0,purple,38.0,愛媛県,エヒメケン,EHIME KEN,38201.0,松山市,マツヤマシ,MATSUYAMA SHI,居相五丁目,イアイ 5,IAI 5,,33.807713,132.773921
31,松山東署管内,写真撮影,令和3年7月7日(水)午後2時45分ころ,松山市松前町三丁目の路上,小学生男女数人が歩行中、路上に立つ男にデジタルカメラで撮影されたうえ、後をつけられたもの。,30〜40歳位、中肉、パーマをかけたようなボサボサの茶髪、上下青色様の服、眼鏡あり、茶色の靴着用、マスクなし、白色デジタルカメラ所持,松山市松前町三丁目の,松山市松前町三丁目,0,lightred,38.0,愛媛県,エヒメケン,EHIME KEN,38201.0,松山市,マツヤマシ,MATSUYAMA SHI,松前町三丁目,マサキマチ 3,MASAKIMACHI 3,,33.846412,132.757657
32,松山西署管内,つきまとい,令和3年7月6日(火)午後9時15分ころ,松山市東長戸四丁目から同市問屋町の間の路上,女性が歩行中、男に後をつけられ、逃げ込んだ店舗内にて無言でスマートフォンを向けられたもの。,20〜30歳位、身長160〜165センチ位、中肉、センター分けで少し長めの黒髪、白色マスク着用、眼鏡・帽子なし、軽快兼用自転車使用,松山市東長戸四丁目から同市問屋町の間の,松山市東長戸四丁目から同市問屋町の間,0,blue,,,,,,,,,,,,,,
33,松山南署管内,不審者,令和3年7月6日(火)午後6時40分ころ,松山市森松町の施設付近,女性が施設の駐車場にいたところ、付近から施設内を何度も覗く男を発見し、女性が車で施設を出たところ、走って追いかけられたもの。,25〜30歳位、身長170〜175センチ位、中肉、白色半袖Tシャツ、灰色ハーフパンツ、灰色キャップ帽着用、マスク・眼鏡なし,松山市森松町の,松山市森松町,0,purple,38.0,愛媛県,エヒメケン,EHIME KEN,38201.0,松山市,マツヤマシ,MATSUYAMA SHI,森松町,モリマツマチ,MORIMATSUMACHI,,33.789207,132.791713
34,松山南署管内,声かけ,令和3年7月6日(火)午後5時ころ,松山市朝生田町六丁目の屋外施設,小学生男女数人が屋外施設にいたところ、車内にいた女から「おいで。おいで。」と言われ、手招きをされたもの。,40〜50歳位、黒色長髪、つり目、白色ボックスタイプの軽四自動車,松山市朝生田町六丁目の,松山市朝生田町六丁目,0,green,38.0,愛媛県,エヒメケン,EHIME KEN,38201.0,松山市,マツヤマシ,MATSUYAMA SHI,朝生田町六丁目,アソダマチ 6,ASODAMACHI 6,,33.82048,132.767167
35,松山東署管内,つきまとい,令和3年7月6日(火)午前8時40分ころ,松山市大街道二丁目の路上,女子高校生が友人と歩行中、自転車に乗った男から後をつけられ、スマートフォンを向けられたもの。なお、女子高校生は7月2日と5日にも同男から同様の行為を受けている。,20〜30歳位、やせ型、黒又は茶色の長髪、七三分け、黒色ノーカラーシャツ、青色ジーンズ、黒色リュックサック、タオル所持、眼鏡あり、マスクなし、軽快兼用自転車(黒色前カゴ、茶色ハンドルグリップ),松山市大街道二丁目の,松山市大街道二丁目,0,blue,38.0,愛媛県,エヒメケン,EHIME KEN,38201.0,松山市,マツヤマシ,MATSUYAMA SHI,大街道二丁目,オオカイドウ 2,OKAIDO 2,,33.839723,132.770173
36,松山東署管内,写真撮影,令和3年7月5日(月)午前8時20分ころ,松山市室町二丁目の路上,女子高校生が自転車で信号待ち中、自転車で後方に停車した男からスマートフォンで後ろ姿を動画撮影されたもの。,16〜20歳位、中肉、黒色短髪、えんじ色の長ズボン、自転車利用、黒縁様眼鏡、イヤホン着用、黒色様スマートフォン所持,松山市室町二丁目の,松山市室町二丁目,0,lightred,38.0,愛媛県,エヒメケン,EHIME KEN,38201.0,松山市,マツヤマシ,MATSUYAMA SHI,室町二丁目,ムロマチ 2,MUROMACHI 2,,33.82957,132.763921
37,西条署管内,暴行,令和3年7月5日(月)午前7時30分ころ,西条市樋之口の路上,女子中学生が友人と自転車で走行中、男と自転車同士が接触し、直ちに謝罪したにもかかわらず、追いかけてきた男から「先に謝るのが普通やろが。」等と言われ、ヘルメット越しに頭を一度叩かれたもの。,50〜60歳位、ボサボサの短髪、黒色タンクトップ、自転車利用(オレンジ色、ママチャリ)、眉毛が太い、黒色サングラス着用,西条市樋之口の,西条市樋之口,0,red,38.0,愛媛県,エヒメケン,EHIME KEN,38206.0,西条市,サイジョウシ,SAIJO SHI,樋之口,ヒノクチ,HINOKUCHI,,33.918738,133.165782
38,今治署管内,不審者,令和3年7月3日(土)午後1時30分ころ,今治市東門町五丁目の店舗内,小学生男児が移動中、女から突然、「邪魔じゃ。」「子供は泣くから嫌いなんじゃ。」等と怒鳴られたもの。,70〜80歳位、身長165センチ位、小肥、白髪混じり短髪、上下茶色の服、目が細く鋭い、眼鏡・マスクなし,今治市東門町五丁目の,今治市東門町五丁目,0,purple,38.0,愛媛県,エヒメケン,EHIME KEN,38202.0,今治市,イマバリシ,IMABARI SHI,東門町五丁目,ヒガシモンチョウ 5,HIGASHIMONCHO 5,,34.061825,133.015016
39,四国中央署管内,身体露出,令和3年7月2日(金)午後6時ころ,四国中央市下柏町の店舗駐車場,女性が駐車場内にいたところ、車両の運転席にいた男から、露出した下半身を触る様子を見せつけられたもの。,30〜40歳位、頭髪薄め、無精髭あり、眼鏡・マスクなし、黒色軽四乗用車使用,四国中央市下柏町の,四国中央市下柏町,1,orange,38.0,愛媛県,エヒメケン,EHIME KEN,38213.0,四国中央市,シコクチュウオウシ,SHIKOKUCHUO SHI,下柏町,シモガシワチョウ,SHIMOGASHIWACHO,,33.98585,133.566343
40,松山南署管内,声かけ,令和3年7月2日(金)午後3時ころ,松山市福音寺町の路上,小学生女児等が集団下校中、車を運転する男が並走し、窓から手を伸ばしたり、「お前らやめろ。」等と怒鳴ってきたもの。,50歳位、中肉、黒色半袖Tシャツ、黒色キャップ帽・黒色様の眼鏡・白色マスク着用、白色普通乗用車使用,松山市福音寺町の,松山市福音寺町,0,green,38.0,愛媛県,エヒメケン,EHIME KEN,38201.0,松山市,マツヤマシ,MATSUYAMA SHI,福音寺町,フクオンジマチ,FUKUONJIMACHI,,33.821822,132.790842
41,松山南署管内,不審者,令和3年7月1日(木)午前7時20分ころ,松山市平井町の駐車場,駐車場に立っていた男女2名が互いのズボン内に手を入れあっていたもの。前日の同時間帯にも同様の行為が目撃されている。,70歳位の男女,松山市平井町の,松山市平井町,0,purple,38.0,愛媛県,エヒメケン,EHIME KEN,38201.0,松山市,マツヤマシ,MATSUYAMA SHI,平井町,ヒライマチ,HIRAIMACHI,,33.824694,132.836156
42,新居浜署管内,つきまとい,令和3年6月30日(水)午後4時30分ころ,新居浜市上泉町の路上から同市岸の上町一丁目の路上までの間,小学生女児が歩行中、自転車に乗った男に後方からつきまとわれたもの。,40〜50歳位、ボサボサ頭の黒髪、上下黒色様スーツ、黒色自転車利用、眼鏡あり、黒色リュックサック所持,新居浜市上泉町の,新居浜市上泉町,0,blue,38.0,愛媛県,エヒメケン,EHIME KEN,38205.0,新居浜市,ニイハマシ,NIIHAMA SHI,上泉町,カミイズミチョウ,KAMIIZUMICHO,,33.936019,133.307329
43,松山東署管内,声かけ,令和3年6月30日(水)午前7時30分ころ,松山市立花一丁目の路上,自転車に乗った男が交差点に立つ女性に近づき、粗暴な言葉をつぶやいたもの。,赤色チェック柄の服、酒に酔っている様子、自転車使用,松山市立花一丁目の,松山市立花一丁目,0,green,38.0,愛媛県,エヒメケン,EHIME KEN,38201.0,松山市,マツヤマシ,MATSUYAMA SHI,立花一丁目,タチバナ 1,TACHIBANA 1,,33.831443,132.771511
44,今治署管内,声かけ,令和3年6月29日(火)午後1時30分ころ,今治市東村一丁目の店舗,女児が買い物をしていたところ、男が自身の下半身を指差し、「ここを触って。」等と声をかけてきたもの。,16歳位、一見して中高生風,今治市東村一丁目の,今治市東村一丁目,0,green,38.0,愛媛県,エヒメケン,EHIME KEN,38202.0,今治市,イマバリシ,IMABARI SHI,東村一丁目,ヒガシムラ 1,HIGASHIMURA 1,,34.043233,133.028504
45,四国中央署管内,声かけ,令和3年6月29日(火)午前7時15分ころ,四国中央市寒川町の路上,小学生男児が歩行中、車に乗って近づいてきた男から、学年と氏名を聞かれたもの。,70歳位、白髪混じり、白色軽四トラック使用,四国中央市寒川町の,四国中央市寒川町,1,green,38.0,愛媛県,エヒメケン,EHIME KEN,38213.0,四国中央市,シコクチュウオウシ,SHIKOKUCHUO SHI,寒川町,サンガワチョウ,SANGAWACHO,,33.952462,133.507717
46,四国中央署管内,声かけ,令和3年6月29日(火)午前7時15分ころ,四国中央市寒川町の路上,小学生男児が歩行中、車に乗って近づいてきた男から、学年と氏名を聞かれたもの。,70歳位、白髪混じり、白色軽四トラック使用,四国中央市寒川町の,四国中央市寒川町,1,green,38.0,愛媛県,エヒメケン,EHIME KEN,38213.0,四国中央市,シコクチュウオウシ,SHIKOKUCHUO SHI,寒川町,サンガワチョウ,SANGAWACHO,大門,33.967211,133.503062
47,松山南署管内,不審者,令和3年6月28日(月)午後3時55分ころ,松山市天山一丁目の路上から同市天山二丁目の路上までの間,女子中学生が自転車で走行中、前方を走る自転車乗車の男を追い抜こうとする際、同男から繰り返し進路を妨害されたもの。,50〜60歳位、青色ジャンパー、銀色自転車利用、白色マスク着用,松山市天山一丁目の,松山市天山一丁目,0,purple,38.0,愛媛県,エヒメケン,EHIME KEN,38201.0,松山市,マツヤマシ,MATSUYAMA SHI,天山一丁目,アマヤマ 1,AMAYAMA 1,,33.822489,132.778633
48,松山南署管内,不審者,令和3年6月27日(日)午後6時ころ,松山市市坪西町の路上,女性が歩行中、対向から徒歩にてニヤニヤしながら近づいてきた男から文言不明の言葉をかけられたうえ、肩を触られそうになったもの。男は、車に乗って立ち去った。,30〜40歳位、身長165センチ位、小肥、黒色短髪、白色半袖シャツ、黒色様半ズボン、白色サンダル着用、白色軽四乗用車使用,松山市市坪西町の,松山市市坪西町,0,purple,38.0,愛媛県,エヒメケン,EHIME KEN,38201.0,松山市,マツヤマシ,MATSUYAMA SHI,市坪西町,イチツボニシマチ,ICHITSUBONISHIMACHI,,33.809432,132.744574
49,四国中央署管内,のぞき・盗撮,令和3年6月26日(土)午後8時15分ころ,四国中央市三島朝日二丁目の一般住宅,女性が入浴中、屋外にいた者から、閉めていた窓を棒状の物で叩かれたうえ、同窓を約1センチ開けられたもの。,不審者像不明、色不明の合羽様着用,四国中央市三島朝日二丁目の,四国中央市三島朝日二丁目,0,pink,38.0,愛媛県,エヒメケン,EHIME KEN,38213.0,四国中央市,シコクチュウオウシ,SHIKOKUCHUO SHI,三島朝日二丁目,ミシマアサヒ 2,MISHIMA ASAHI 2,,33.987588,133.558205
50,松山東署管内,声かけ,令和3年6月25日(金)午後7時10分ころ,松山市緑町一丁目のマンション敷地内,女性がマンションを訪れていたところ、エレベーターホールにいた男がエレベーター前に立ちふさがり、同人から「電話番号教えて。」等としつこく声をかけられたもの。,20〜30歳位、ギンガムチェック柄の服,松山市緑町一丁目の,松山市緑町一丁目,0,green,38.0,愛媛県,エヒメケン,EHIME KEN,38201.0,松山市,マツヤマシ,MATSUYAMA SHI,緑町一丁目,ミドリマチ 1,MIDORIMACHI 1,,33.845975,132.770125
51,大洲署管内,写真撮影,令和3年6月25日(金)午後5時ころ,大洲市大洲の駐車場内,女子高校生が駐車場内にいたところ、徒歩で近づいてきた男から首に提げたままのカメラを向けられたもの。男は離れた場所で、撮影した写真を確認する素振りをしていた。,60〜70歳位、身長170センチ位、やせ型、青色カッターシャツ、紺色スラックス、麦わら帽子着用、一眼レフカメラ所持,大洲市大洲の,大洲市大洲,0,lightred,38.0,愛媛県,エヒメケン,EHIME KEN,38207.0,大洲市,オオズシ,OZU SHI,大洲,オオズ,OZU,,33.505549,132.542621
52,松山東署管内,声かけ,令和3年6月24日(木)午後0時50分ころ,松山市湊町五丁目の屋外施設,女子高校生が屋外施設のベンチに座っていたところ、隣に座ってきた男から卑わいな言葉を掛けられたもの。,60〜70歳位、中肉、身長170〜180センチ位、白色短髪、灰色半袖シャツ、深緑色長ズボン、白色マスク着用、白色様のトートバッグ所持、眼鏡・帽子なし、少し前屈みで歩く,松山市湊町五丁目の,松山市湊町五丁目,0,green,38.0,愛媛県,エヒメケン,EHIME KEN,38201.0,松山市,マツヤマシ,MATSUYAMA SHI,湊町五丁目,ミナトマチ 5,MINATOMACHI 5,,33.835933,132.762679
53,伊予署管内,声かけ,令和3年6月23日(水)午後5時50分ころ,伊予郡松前町大字筒井の屋外施設,小学生女児が友人と屋外施設で遊んでいたところ、路上を自転車で走行していた男から「小学生?中学生?」と声を掛けられ、さらに「胸が大きいね。」と言われたもの。,60〜70歳位、やせ型、身長160〜170センチ位、白色半袖Tシャツ、黒色様長ズボン、自転車利用(銀色、前カゴ・荷台あり)、白色キャップ帽、眼鏡なし、歯が抜けている,伊予郡松前町大字筒井の,伊予郡松前町大字筒井,0,green,38.0,愛媛県,エヒメケン,EHIME KEN,38401.0,伊予郡松前町,イヨグンマサキチョウ,IYO GUN MASAKI CHO,大字筒井,,,,33.790916,132.699561
54,伊予署管内,声かけ,令和3年6月23日(水)午後4時ころ,伊予市米湊の路上,女子中学生が歩行中、自転車に乗った男から「中学生?高校生?」と声を掛けられたもの。,50〜60歳位、やせ型、身長160センチ位、白髪混じりの短髪、青色半袖シャツ(ボタン付き)、黒色様ズボン、黒色の自転車利用、薄水色のキャップ帽、浅黒い,伊予市米湊の,伊予市米湊,0,green,38.0,愛媛県,エヒメケン,EHIME KEN,38210.0,伊予市,イヨシ,IYO SHI,米湊,コミナト,KOMINATO,,33.753461,132.703302
55,伊予署管内,声かけ,令和3年6月23日(水)午後4時ころ,伊予市米湊の路上,女子中学生が歩行中、自転車に乗った男から「中学生?高校生?」と声を掛けられたもの。,50〜60歳位、やせ型、身長160センチ位、白髪混じりの短髪、青色半袖シャツ(ボタン付き)、黒色様ズボン、黒色の自転車利用、薄水色のキャップ帽、浅黒い,伊予市米湊の,伊予市米湊,0,green,38.0,愛媛県,エヒメケン,EHIME KEN,38210.0,伊予市,イヨシ,IYO SHI,米湊,コミナト,KOMINATO,安広,33.757102,132.705117
56,松山西署管内,声かけ,令和3年6月23日(水)午後3時ころ,松山市古三津五丁目の路上,小学生男児が徒歩で信号待ちをしていたところ、道路の反対側で徒歩にて信号待ちをしていた男から「こっち来いコラ。」等と叫ばれたもの。男は付近に停車していた車の助手席に乗り込み立ち去った。,35歳位、中肉、身長170センチ位、黒色短髪、白色半袖、マスク・眼鏡なし、軽四乗用自動車利用(紫色、車の運転手:30-40歳位、黒髪短髪の男),松山市古三津五丁目の,松山市古三津五丁目,0,green,38.0,愛媛県,エヒメケン,EHIME KEN,38201.0,松山市,マツヤマシ,MATSUYAMA SHI,古三津五丁目,フルミツ 5,FURUMITSU 5,,33.855781,132.726709
57,伊予署管内,声かけ,令和3年6月23日(水)午後1時30分ころ,伊予郡松前町大字西古泉の路上,男子中学生2名が歩行中、後方から自転車に乗って近づいてきた男から暴言を吐かれたもの。,60歳位、赤色の服、自転車利用,伊予郡松前町大字西古泉の,伊予郡松前町大字西古泉,0,green,38.0,愛媛県,エヒメケン,EHIME KEN,38401.0,伊予郡松前町,イヨグンマサキチョウ,IYO GUN MASAKI CHO,大字西古泉,,,,33.794521,132.713929
58,伊予署管内,不審者,令和3年6月22日(火)午後4時30分ころ,伊予郡松前町大字東古泉の路上,女子高校生が自転車で進行中、自転車に乗った男に手を振られたもの。,40〜50歳位、身長160センチ位、やせ型、白髪混じりの短髪、上下黒色様ジャージ、マスク着用、軽快兼用自転車使用,伊予郡松前町大字東古泉の,伊予郡松前町大字東古泉,0,purple,38.0,愛媛県,エヒメケン,EHIME KEN,38401.0,伊予郡松前町,イヨグンマサキチョウ,IYO GUN MASAKI CHO,大字東古泉,,,,33.787475,132.720514
59,松山南署管内,不審者,令和3年6月22日(火)午後1時20分ころ,松山市和泉南一丁目の路上,男がズボンを下ろし、パンツ姿で歩いていたもの。,65〜70歳位、身長165センチ位、やせ型、白髪短髪、黒色Tシャツ、ベージュ色ズボン、黒地に赤色柄のパンツ、白色様マスク着用,松山市和泉南一丁目の,松山市和泉南一丁目,0,purple,38.0,愛媛県,エヒメケン,EHIME KEN,38201.0,松山市,マツヤマシ,MATSUYAMA SHI,和泉南一丁目,イズミミナミ 1,IZUMIMINAMI 1,,33.818264,132.764546
60,松山東署管内,声かけ,令和3年6月21日(月)午後4時ころ,松山市桑原一丁目の路上,小学生らが歩いていたところ、男に意味不明な言葉をかけられたり、頭を触られたりしたもの。,60〜70歳位、自転車(前カゴ付き、荷台に「フルーツ」と記載の段ボールを積載)使用、白色マスク・麦わら帽子着用、眼鏡なし,松山市桑原一丁目の,松山市桑原一丁目,0,green,38.0,愛媛県,エヒメケン,EHIME KEN,38201.0,松山市,マツヤマシ,MATSUYAMA SHI,桑原一丁目,クワバラ 1,KUWABARA 1,,33.835855,132.788967
61,伊予署管内,不審者,令和3年6月20日(日)ころから,伊予郡松前町大字筒井の店舗,買い物等を全くしない男が、度々店舗を訪れ、店内を徘徊したり、店舗利用の女性客への声かけや、つきまといを行っているもの。,50〜70歳位、黒色軽四乗用車使用,伊予郡松前町大字筒井の,伊予郡松前町大字筒井,1,purple,38.0,愛媛県,エヒメケン,EHIME KEN,38401.0,伊予郡松前町,イヨグンマサキチョウ,IYO GUN MASAKI CHO,大字筒井,,,,33.790916,132.699561
62,松山南署管内,不審者,令和3年6月,松山市浄瑠璃町の路上,男が朝夕の時間帯に、2か所の寺付近の路上で駐車したり移動したりを繰り返しているもの。,40〜50歳位、中肉、色黒、白色の軽四乗用自動車利用,松山市浄瑠璃町の,松山市浄瑠璃町,0,purple,38.0,愛媛県,エヒメケン,EHIME KEN,38201.0,松山市,マツヤマシ,MATSUYAMA SHI,浄瑠璃町,ジョウルリマチ,JORURIMACHI,,33.749282,132.815242
63,松山南署管内,声かけ,令和3年6月18日(金)午後3時30分ころ,東温市北方の路上,小学生男児が歩いていたところ、車に乗った男から「家遠いん。」と声を掛けられたもの。,25〜35歳位、中肉、身長170センチ位、黒色パーカー、白色の普通車利用、フードを目深に被っている、黒色マスク着用,東温市北方の,東温市北方,0,green,38.0,愛媛県,エヒメケン,EHIME KEN,38215.0,東温市,トウオンシ,TOON SHI,北方,キタガタ,KITAGATA,,33.820826,132.91541
64,松山東署管内,身体接触,令和3年6月17日(木)午後4時30分ころ,松山市中村三丁目の屋外施設,小学生女児3名が屋外施設にいたところ、内2名が男に肩や髪の毛を触られたもの。,70歳位、中肉、身長160〜170センチ位、白髪混じりの短髪、黒色Tシャツ、黒色シャツを羽織っている、黒色長ズボン、高齢者風、ショルダーバッグ(暗めのクリーム色)・黒色杖所持、眼鏡・帽子・マスクなし,松山市中村三丁目の,松山市中村三丁目,0,身体接触,38.0,愛媛県,エヒメケン,EHIME KEN,38201.0,松山市,マツヤマシ,MATSUYAMA SHI,中村三丁目,ナカムラ 3,NAKAMURA 3,,33.830733,132.777186
65,西条西署管内,声かけ,令和3年6月15日(火)午後7時ころ,西条市北条の路上,女子高校生が歩いていたところ、自転車に乗った男に「高校どこ行きよん。」「名前は。」「おじさん前から見よったよ。」「ジュース買ってあげる。」「電話番号教えて。」「次会ったときにまた声かけるね。」等と声を掛けられたもの。,50〜60歳位、やせ型、青色半袖Tシャツ、黒色長ジャージ、黒色自転車使用,西条市北条の,西条市北条,0,green,38.0,愛媛県,エヒメケン,EHIME KEN,38206.0,西条市,サイジョウシ,SAIJO SHI,北条,ホウジョウ,HOJO,,33.930116,133.101932
66,伊予署管内,声かけ,令和3年6月15日(火)午後2時ころ,伊予市下吾川の店舗駐車場内,女性が車に乗り込もうとしたところ、近づいてきた男から「今いいですか。時間潰したいのでお茶をしましょう。」と声を掛けられたもの。,60歳位、やせ型、身長165センチ位、白髪混じりの七三分け、白色ワイシャツ、黒色スラックス、黒色長財布所持,伊予市下吾川の,伊予市下吾川,0,green,38.0,愛媛県,エヒメケン,EHIME KEN,38210.0,伊予市,イヨシ,IYO SHI,下吾川,シモアガワ,SHIMOAGAWA,,33.767149,132.708137
67,伊予署管内,声かけ,令和3年6月15日(火)午後2時ころ,伊予市下吾川の店舗駐車場内,女性が車に乗り込もうとしたところ、近づいてきた男から「今いいですか。時間潰したいのでお茶をしましょう。」と声を掛けられたもの。,60歳位、やせ型、身長165センチ位、白髪混じりの七三分け、白色ワイシャツ、黒色スラックス、黒色長財布所持,伊予市下吾川の,伊予市下吾川,0,green,38.0,愛媛県,エヒメケン,EHIME KEN,38210.0,伊予市,イヨシ,IYO SHI,下吾川,シモアガワ,SHIMOAGAWA,馬塚,33.772775,132.708144
68,西条署管内,のぞき・盗撮,令和3年6月14日(月)午後8時35分ころ,西条市樋之口の一般住宅敷地内,女子高校生が在宅中、敷地内に侵入した男から窓越しに室内を覗かれたもの。,30〜40歳位、中肉、身長170センチ位、黒色半袖,西条市樋之口の,西条市樋之口,1,pink,38.0,愛媛県,エヒメケン,EHIME KEN,38206.0,西条市,サイジョウシ,SAIJO SHI,樋之口,ヒノクチ,HINOKUCHI,,33.918738,133.165782
69,松山東署管内,のぞき・盗撮,令和3年6月14日(月)午後7時30分ころ,松山市祝谷二丁目の一般住宅,女子中学生が服を着た状態で浴室内にいたところ、浴室の窓から何者かにスマートフォンを差し向けられたもの。,不審者像不明、スマートフォン(ボロボロのカバー)所持,松山市祝谷二丁目の,松山市祝谷二丁目,0,pink,38.0,愛媛県,エヒメケン,EHIME KEN,38201.0,松山市,マツヤマシ,MATSUYAMA SHI,祝谷二丁目,イワイダニ 2,IWAIDANI 2,,33.855782,132.780457
70,西条署管内,写真撮影,令和3年6月12日(土)午後4時30分ころ,西条市禎瑞の路上,男性が車を運転中、徒歩で移動する男の横を通り過ぎたところ、男からカメラを向けられたもの。,50歳位、眼鏡あり、カメラ所持,西条市禎瑞の,西条市禎瑞,0,lightred,38.0,愛媛県,エヒメケン,EHIME KEN,38206.0,西条市,サイジョウシ,SAIJO SHI,禎瑞,テイズイ,TEIZUI,,33.915518,133.143844
71,伊予署管内,身体露出,令和3年6月12日(土)午後2時ころ,伊予市上野の路上,女子中学生が施設敷地内にいたところ、路上にいた男から下半身を見せつけられたもの。,上下黒色様の服,伊予市上野の,伊予市上野,0,orange,38.0,愛媛県,エヒメケン,EHIME KEN,38210.0,伊予市,イヨシ,IYO SHI,上野,ウエノ,UENO,,33.772114,132.748155
72,松山東署管内,のぞき・盗撮,令和3年6月12日(土)午後0時50分ころ,松山市宮田町の屋外施設内,女性が施設敷地内にいたところ、背後にてしゃがみ込んだ男から、レンズ様の物を向けられたもの。,50歳位、やせ型、茶色様チェック柄長袖シャツ、長ズボン、マスク着用、眼鏡なし、取っ手のない黒色長方形の箱に入ったレンズ様の物所持,松山市宮田町の,松山市宮田町,0,pink,38.0,愛媛県,エヒメケン,EHIME KEN,38201.0,松山市,マツヤマシ,MATSUYAMA SHI,宮田町,ミヤタマチ,MIYATAMACHI,,33.842382,132.752948
73,松山南署管内,つきまとい,令和3年6月8日(火)午後6時20分ころ,松山市和泉北四丁目から同市市坪北二丁目までの路上,女子高校生が自転車で走行中、空き地内に駐車されていた車が移動の先々で現れ、接近されるなどして、つきまとわれたもの。,男、ハッチバックタイプの白色普通自動車,松山市和泉北四丁目から同市市坪北二丁目までの,松山市和泉北四丁目から同市市坪北二丁目まで,0,blue,,,,,,,,,,,,,,
74,四国中央署管内,つきまとい,令和3年6月7日(月)午後7時ころ,四国中央市川之江町の路上から同市金生町の路上までの間,女子中学生2名が自転車で走行中、自転車に乗った男から外国語のような言葉で声をかけられ、追いかけられたもの。,20〜40歳位、やせ型、身長170センチ位、黒色短髪、黒色ポロシャツ、黒色ズボン、黒色スニーカー(ロゴが白色)、口髭あり、マスクなし、アジア系外国人風、スマートフォン所持、黒色軽快兼用自転車使用,四国中央市川之江町の,四国中央市川之江町,0,blue,38.0,愛媛県,エヒメケン,EHIME KEN,38213.0,四国中央市,シコクチュウオウシ,SHIKOKUCHUO SHI,川之江町,カワノエチョウ,KAWANOECHO,,34.014304,133.579682
75,四国中央署管内,つきまとい,令和3年6月7日(月)午後7時ころ,四国中央市川之江町の路上から同市金生町の路上までの間,女子中学生2名が自転車で走行中、自転車に乗った男から外国語のような言葉で声をかけられ、追いかけられたもの。,20〜40歳位、やせ型、身長170センチ位、黒色短髪、黒色ポロシャツ、黒色ズボン、黒色スニーカー(ロゴが白色)、口髭あり、マスクなし、アジア系外国人風、スマートフォン所持、黒色軽快兼用自転車使用,四国中央市川之江町の,四国中央市川之江町,0,blue,38.0,愛媛県,エヒメケン,EHIME KEN,38213.0,四国中央市,シコクチュウオウシ,SHIKOKUCHUO SHI,川之江町,カワノエチョウ,KAWANOECHO,横田,34.003925,133.565172
76,四国中央署管内,つきまとい,令和3年6月7日(月)午後7時ころ,四国中央市川之江町の路上から同市金生町の路上までの間,女子中学生2名が自転車で走行中、自転車に乗った男から外国語のような言葉で声をかけられ、追いかけられたもの。,20〜40歳位、やせ型、身長170センチ位、黒色短髪、黒色ポロシャツ、黒色ズボン、黒色スニーカー(ロゴが白色)、口髭あり、マスクなし、アジア系外国人風、スマートフォン所持、黒色軽快兼用自転車使用,四国中央市川之江町の,四国中央市川之江町,0,blue,38.0,愛媛県,エヒメケン,EHIME KEN,38213.0,四国中央市,シコクチュウオウシ,SHIKOKUCHUO SHI,川之江町,カワノエチョウ,KAWANOECHO,塚田,34.000158,133.566627
77,松山東署管内,声かけ,令和3年6月7日(月)午後3時10分ころ,松山市味酒町二丁目の路上,小学生女児が建物の前にいたところ、車に乗った男から「ねえねえ。」と声をかけられたもの。,50〜60歳位、キャップ帽(つばが赤色、帽子の部分が黒色)着用、マスク・眼鏡なし、白色セダン様自動車使用,松山市味酒町二丁目の,松山市味酒町二丁目,0,green,38.0,愛媛県,エヒメケン,EHIME KEN,38201.0,松山市,マツヤマシ,MATSUYAMA SHI,味酒町二丁目,ミサケマチ 2,MISAKEMACHI 2,,33.844027,132.755574
78,伊予署管内,不審者,令和3年6月7日(月)午後1時30分ころ,伊予郡松前町大字浜の施設非常階段,男が階段の踊り場から、建物内を覗き込んでいたもの。,20〜30歳位、中肉中背、上下ジャージ、眼鏡・マスクなし,伊予郡松前町大字浜の,伊予郡松前町大字浜,0,purple,38.0,愛媛県,エヒメケン,EHIME KEN,38401.0,伊予郡松前町,イヨグンマサキチョウ,IYO GUN MASAKI CHO,大字浜,,,,33.789199,132.701735
79,大洲署管内,つきまとい,令和3年6月6日(日)午後4時20分ころ,喜多郡内子町内子の店舗から同町五十崎の路上までの間,女子中学生3名が店舗内にいたところ、男に凝視され、その後移動していると二度にわたり、付近を車で走行され、つきまとわれたもの。,40〜50歳位、中肉、身長170センチ位、肩位の長さの黒髪、白色上衣、黒色下衣、マスク・眼鏡着用、灰色軽四自動車使用,喜多郡内子町内子の,喜多郡内子町内子,0,blue,38.0,愛媛県,エヒメケン,EHIME KEN,38422.0,喜多郡内子町,キタグンウチコチョウ,KITA GUN UCHIKO CHO,内子,ウチコ,UCHIKO,,33.551735,132.647879
80,松山東署管内,身体露出,令和3年6月6日(日)午後4時ころ,松山市南江戸一丁目の路上,男がズボンを下ろし、道路に向かって下半身を露出していたもの。,30歳位、中肉、身長170センチ位、スポーツ刈り風の黒色短髪、青色様半袖上衣、青色様半ズボン,松山市南江戸一丁目の,松山市南江戸一丁目,0,orange,38.0,愛媛県,エヒメケン,EHIME KEN,38201.0,松山市,マツヤマシ,MATSUYAMA SHI,南江戸一丁目,ミナミエド 1,MINAMIEDO 1,,33.838208,132.75005
81,伊予署管内,声かけ,令和3年6月5日(土)午後3時30分ころ,伊予郡松前町大字北川原の空き地,小学生男女2名が空き地にいたところ、男から住所、氏名、学年を尋ねられたもの。,60〜70歳位、中肉、身長170センチ位、上下茶色様の服、緑色ハット帽着用,伊予郡松前町大字北川原の空き地,伊予郡松前町大字北川原の空き地,0,green,,,,,,,,,,,,,,
82,松山東署管内,声かけ,令和3年6月5日(土)午前10時ころ,松山市宮西一丁目の路上から同市宮田町の店舗までの間,女子中学生が自転車で走行中、自転車に乗った男に「自転車はどこで買ったの。」「○○中学校ってどこにあるの。」等と声をかけられ、後をつけられたもの。,70歳位、やせ型、身長180センチ位、白色半袖Tシャツ、黒色ニット帽着用、顔の彫りが深い、黒色の古い軽快兼用自転車使用,松山市宮西一丁目の,松山市宮西一丁目,0,green,38.0,愛媛県,エヒメケン,EHIME KEN,38201.0,松山市,マツヤマシ,MATSUYAMA SHI,宮西一丁目,ミヤニシ 1,MIYANISHI 1,,33.845813,132.752728
83,松山東署管内,身体露出,令和3年6月4日(金)午後7時15分ころ,松山市永木町二丁目の路上,女子高校生が自転車で走行中、前方で背を向けて立っていた男から、振り向きざまに、ズボンチャックから露出した下半身を見せつけられ、さらに接近されたもの。,30〜40歳位、中肉、身長165〜170センチ位、肩位の長さの黒髪、黒色上衣、黒色スラックス、荷物の所持なし,松山市永木町二丁目の,松山市永木町二丁目,0,orange,38.0,愛媛県,エヒメケン,EHIME KEN,38201.0,松山市,マツヤマシ,MATSUYAMA SHI,永木町二丁目,ナガキマチ 2,NAGAKIMACHI 2,,33.835355,132.774791
84,松山東署管内,不審者,令和3年6月4日(金)午後7時ころ,松山市永木町一丁目の路上,男がズボンの上から、下半身を触りながら路上を歩いていたもの。,40〜50歳位、中肉、身長が低い、もさっとした黒髪、黒色スーツ、白色シャツ、黒色スラックス,松山市永木町一丁目の,松山市永木町一丁目,0,purple,38.0,愛媛県,エヒメケン,EHIME KEN,38201.0,松山市,マツヤマシ,MATSUYAMA SHI,永木町一丁目,ナガキマチ 1,NAGAKIMACHI 1,,33.836412,132.776874
85,松山南署管内,つきまとい,令和3年6月4日(金)午後4時20分ころ,東温市北方甲の路上,小学生女児が歩いていたところ、後方にいた男に走って追いかけられたもの。,30歳位、黒色半袖上衣、黒色半ズボン、黒色帽子・白色マスク着用,東温市北方甲の,東温市北方,1,blue,38.0,愛媛県,エヒメケン,EHIME KEN,38215.0,東温市,トウオンシ,TOON SHI,北方,キタガタ,KITAGATA,,33.820826,132.91541
86,松山東署管内,声かけ,令和3年6月2日(水)午後7時30分ころ,松山市味酒一丁目の路上,女性が歩いていたところ、男から「お姉さんLINE教えてよ。」と声をかけられ、それを拒むと「家に帰るまでお話しませんか。」「手をつないで欲しい。」等と言われたもの。,20〜30歳位、中肉、身長170センチ位、短髪、白又は黄色の上衣、スマートフォン所持,松山市味酒一丁目の,松山市味酒一丁目,0,green,,,,,,,,,,,,,,
87,松山東署管内,ちかん,令和3年6月2日(水)午後3時40分ころ,松山市保免上一丁目の路上,小学生女児が歩いていたところ、男から「スカートにゴミがついている。」と声を掛けられ、スカートを触られたもの。,20〜30歳位、中肉、身長165〜170センチ位、黒色短髪、白色シャツ、黒色長ズボン、黒色マスク着用,松山市保免上一丁目の,松山市保免上一丁目,0,gray,38.0,愛媛県,エヒメケン,EHIME KEN,38201.0,松山市,マツヤマシ,MATSUYAMA SHI,保免上一丁目,ホウメンカミ 1,HOMENKAMI 1,,33.818466,132.752079
88,松山南署管内,声かけ,令和3年6月1日(火)午後8時ころ,松山市鷹子町の路上,女性が歩いていたところ、自転車に乗った男に「エッチしませんか。」と声をかけられたもの。,15〜20歳位、中肉、黒色短髪、白色ワイシャツ、黒色長ズボン、学生風、大容量の四角いリュックサック所持、眼鏡なし、ママチャリ使用,松山市鷹子町の,松山市鷹子町,0,green,38.0,愛媛県,エヒメケン,EHIME KEN,38201.0,松山市,マツヤマシ,MATSUYAMA SHI,鷹子町,タカノコマチ,TAKANOKOMACHI,,33.819919,132.813414
89,松山東署管内,のぞき・盗撮,令和3年6月1日(火)午後6時10分ころ,松山市真砂町の路上,女子高校生が建物の窓を閉める際、外にいた男から注視され、付近を徘徊されたもの。,30〜40歳位、やせ型、身長170センチ位、黒色短髪、赤色Tシャツ、ベージュ色長ズボン、軽快兼用自転車利用(銀色、前カゴ付)、白色マスク着用、眼鏡なし,松山市真砂町の,松山市真砂町,0,pink,38.0,愛媛県,エヒメケン,EHIME KEN,38201.0,松山市,マツヤマシ,MATSUYAMA SHI,真砂町,マサゴチョウ,MASAGOCHO,,33.832591,132.760831
90,松山南署管内,声かけ,令和3年5月31日(月)午後6時30分ころ,松山市南梅本町の路上,女子中学生が歩いていたところ、男に道を尋ねられたため地理教示をすると、握手を求められ手首付近を掴まれたもの。,40〜50歳位、身長170センチ位、小肥、耳にかかる位の黒髪、上下白色様作業着、白色不織布マスク着用、眉毛が濃い、髭あり,松山市南梅本町の,松山市南梅本町,0,green,38.0,愛媛県,エヒメケン,EHIME KEN,38201.0,松山市,マツヤマシ,MATSUYAMA SHI,南梅本町,ミナミウメモトマチ,MINAMIUMEMOTOMACHI,,33.800612,132.840061
91,松山東署管内,声かけ,令和3年5月31日(月)午前11時ころ,松山市宮田町の歩道上,女性が徒歩にて信号待ち中、直近にいた男から顔を覗かれながら、卑わいな声掛けをされたもの。,20〜30歳位、身長160センチ位、短髪、ジーパン様ズボン、左手にスマートフォン所持,松山市宮田町の歩道上,松山市宮田町の歩道上,0,green,,,,,,,,,,,,,,
92,松山東署管内,つきまとい,令和3年5月30日(日)午後2時5分ころ,松山市本町三丁目の交差点から同市平和通一丁目の路上までの間,女子中学生が自転車にて移動中、すれ違い様に目が合った男から待ち伏せされる等して、何度もつきまとわれたもの。,30〜40歳位、中肉、被った帽子から若干出る程度の長さの黒髪、水色作業着様の長袖、水色作業着様の長ズボン、白色キャップ帽、丸眼鏡、白色軍手、白色マスク、目が小さく目線が鋭い、自転車利用(銀色、前カゴ付、荷台なし),松山市本町三丁目の交差点から同市平和通一丁目の,松山市本町三丁目の交差点から同市平和通一丁目,0,blue,,,,,,,,,,,,,,
93,松山南署管内,暴行,令和3年5月30日(日)午後1時20分ころ,松山市朝生田町五丁目の路上,女子高校生が自転車を押して移動中、自転車に乗り外国語を叫びながら進む男と目が合ったにもかかわらず、男がそのまま進行したことにより、両名の自転車が衝突したもの。,40〜60歳位、やせ型、身長180センチ位、黒色半袖Tシャツ、灰色スキニーパンツ、銀色の自転車利用、東南アジア系の外国人風、目がくりっとしている、右手に金属バット所持,松山市朝生田町五丁目の,松山市朝生田町五丁目,0,red,38.0,愛媛県,エヒメケン,EHIME KEN,38201.0,松山市,マツヤマシ,MATSUYAMA SHI,朝生田町五丁目,アソダマチ 5,ASODAMACHI 5,,33.820663,132.771511
94,愛南署管内,声かけ,令和3年5月29日(土)午後0時ころ,南宇和郡愛南町御荘平城の橋上,小学生女児2名が歩いていたところ、橋上にいた男から「おい、こらぁ。」と声を掛けられたもの。,70歳位、中肉、白色短髪(頭頂部がハゲている)、灰色長袖の服、茶色ズボン、自転車利用,南宇和郡愛南町御荘平城の橋上,南宇和郡愛南町御荘平城の橋上,0,green,,,,,,,,,,,,,,
95,大洲署管内,写真撮影,令和3年5月29日(土)午前10時30分ころ,大洲市柚木の公園,小学生女児3名が公園で遊んでいたところ、公園の周りを自転車で徘徊していた男から木の陰に隠れるようにして、デジタルカメラ様の物を向けられたもの。,50〜60歳位、中肉、身長175センチ位、黒髪、白色Tシャツ、ジャージ、自転車利用(前後のカゴに大量の荷物を積載)黄色デジタルカメラ様(タブレットの可能性もあり)所持、眼鏡・マスクなし,大洲市柚木の,大洲市柚木,0,lightred,38.0,愛媛県,エヒメケン,EHIME KEN,38207.0,大洲市,オオズシ,OZU SHI,柚木,ユノキ,YUNOKI,,33.503637,132.553007
96,八幡浜署管内,不審者,令和3年5月28日(金)午後9時20分ころ,八幡浜市大門の路上,男子中学生が自転車に跨って友人と会話中、男に何かを叫ばれながら自転車を一度足蹴りされたもの。,50〜60歳位、中肉、上下黒色作業着,八幡浜市大門の,八幡浜市大門,0,purple,38.0,愛媛県,エヒメケン,EHIME KEN,38204.0,八幡浜市,ヤワタハマシ,YAWATAHAMA SHI,大門,ダイモン,DAIMON,,33.461624,132.426877
97,四国中央署管内,不審者,令和3年5月27日(木)午後5時10分ころ,四国中央市金田町金川の歩道上,女子高校生が自転車で走行中、前方を歩いていた男から何度も振り返って見られた上、横を通り過ぎる際に進路を妨害するように足を踏み出してこられたもの。,40歳位、小肥、身長160センチ位、黒色短髪、黒色様長袖の服(白色ライン入り)、ガラケーを首に掛けている、首を左右どちらかに傾けて歩く、眼鏡なし,四国中央市金田町金川の歩道上,四国中央市金田町金川の歩道上,0,purple,,,,,,,,,,,,,,
98,四国中央署管内,声かけ,令和3年5月27日(木)午後3時ころ,四国中央市寒川町の路上,小学生男児が徒歩にて移動中、車両から降りてきた男に、「何人で住んでるの。」と声を掛けられたもの。,60歳位、灰色の長袖作業着、自動車利用(白色、車両には会社名等の記載なし)、灰色ハット帽様の帽子、眼鏡着用、メモ帳様の物所持,四国中央市寒川町の,四国中央市寒川町,2,green,38.0,愛媛県,エヒメケン,EHIME KEN,38213.0,四国中央市,シコクチュウオウシ,SHIKOKUCHUO SHI,寒川町,サンガワチョウ,SANGAWACHO,,33.952462,133.507717
99,四国中央署管内,声かけ,令和3年5月27日(木)午後3時ころ,四国中央市寒川町の路上,小学生男児が徒歩にて移動中、車両から降りてきた男に、「何人で住んでるの。」と声を掛けられたもの。,60歳位、灰色の長袖作業着、自動車利用(白色、車両には会社名等の記載なし)、灰色ハット帽様の帽子、眼鏡着用、メモ帳様の物所持,四国中央市寒川町の,四国中央市寒川町,2,green,38.0,愛媛県,エヒメケン,EHIME KEN,38213.0,四国中央市,シコクチュウオウシ,SHIKOKUCHUO SHI,寒川町,サンガワチョウ,SANGAWACHO,大門,33.967211,133.503062
100,大洲署管内,声かけ,令和3年5月26日(水)午後3時30分ころ,大洲市若宮の路上,小学生女児が歩いていたところ、歩いて近づいてきた男から「お姉さん、お姉さん、この道知っとるやろ。」と声をかけられたもの。,45〜50歳位、上下黒色ジャージ、黒色マスク着用,大洲市若宮の,大洲市若宮,0,green,38.0,愛媛県,エヒメケン,EHIME KEN,38207.0,大洲市,オオズシ,OZU SHI,若宮,ワカミヤ,WAKAMIYA,,33.521514,132.549221
101,松山東署管内,つきまとい,令和3年5月25日(火)午後6時30分ころ,松山市泉町の遊歩道上,女子高校生が自転車で停車中、Uターンしてきた自転車乗車の男から横並びの状態で独り言を言われた上、後をつけられたもの。,40〜50歳位、やせ型、身長180センチ位、黒色短髪、白色Tシャツ、軽快兼用自転車利用、彫が深い顔、眼鏡なし、マスクなし、黒色のエナメル様バッグ(ピンクや黄色のボールの柄3つ位あり)を自転車の前カゴに積載,松山市泉町の遊歩道上,松山市泉町の遊歩道上,0,blue,,,,,,,,,,,,,,
102,西条署管内,つきまとい,令和3年5月25日(火)午後6時ころ,西条市大町から同市樋之口までの間,女子中学生が自転車で信号待ちをしていたところ、自転車に乗った男から「バカでアホ」と声をかけられ、つきまとわれたもの。,50歳位、中肉、身長170センチ位、黒髪(前髪は目が隠れる位、後髪は肩位)、上下黒色様の服、眼鏡なし、黒色マスク着用、黒色携帯電話、黒色マウンテンバイク様,西条市大町から同市樋之口までの間,西条市大町から同市樋之口までの間,0,blue,,,,,,,,,,,,,,
103,伊予署管内,声かけ,令和3年5月25日(火)午前7時30分ころ,伊予郡松前町大字出作の路上,小学生男児2名がじゃれ合いながら横断歩道を渡ろうとしたところ、その内1名が、車から降りてきた男から「お前何しよんぞ。」と怒鳴られた上、頭を掴まれたもの。,60〜70歳位、白髪混じりの短髪、銀色の軽四乗用自動車利用,伊予郡松前町大字出作の,伊予郡松前町大字出作,0,green,38.0,愛媛県,エヒメケン,EHIME KEN,38401.0,伊予郡松前町,イヨグンマサキチョウ,IYO GUN MASAKI CHO,大字出作,,,,33.789567,132.751819
104,四国中央署管内,写真撮影,令和3年5月21日(金)午後3時ころ,四国中央市上分町の橋上,小学生男児が複数人で歩いていたところ、後方から近づいてきた女から追い抜きざまにスマートフォンを向けられたもの。,25歳位、やせ型、焦げ茶色の長髪、ズボン、自転車利用、スマートフォン所持,四国中央市上分町の橋上,四国中央市上分町の橋上,0,lightred,,,,,,,,,,,,,,
105,伊予署管内,不審者,令和3年5月21日(金)午前10時ころ,伊予郡松前町筒井の共同住宅敷地内,女性が自宅にいたところ、男に玄関ドアのドアノブをガチャガチャと回されたもの。,50〜60歳位、中肉、身長170センチ位、白髪混じりの坊主に近い短髪、上下黒色ジャージ、足を引きずっているように見えた,伊予郡松前町筒井の共同,伊予郡松前町筒井の共同,0,purple,,,,,,,,,,,,,,
106,松山西署管内,不審者,令和3年5月19日(水)午後3時30分ころ,松山市南吉田町歩道上,小学生女児が複数人で歩いていたところ、自転車に乗車した男からすれ違いざまに、ひょっとこのような顔で息を吹きかけられたもの。,60〜70歳位、ぼさぼさ頭の白髪、自転車利用(薄い黄色がかかった白色、カゴなし)、マスク・眼鏡・髭なし,松山市南吉田町歩道上,松山市南吉田町歩道上,0,purple,,,,,,,,,,,,,,
107,松山西署管内,不審者,令和3年5月19日(水)午後3時15分ころ,松山市南吉田町歩道上,小学生男児が複数人で歩いていたところ、自転車に乗車した男からすれ違いざまに、いきなり息を吹きかけられたもの。,70歳位、やせ型、身長165センチ位、白色短髪、白色半袖Tシャツ、下衣:不明、軽快兼用自転車利用(白色、銀色の前カゴ付き、荷台なし)、マスクなし,松山市南吉田町歩道上,松山市南吉田町歩道上,1,purple,,,,,,,,,,,,,,
108,松山西署管内,声かけ,令和3年5月17日(月)午後6時15分ころ,松山市内浜町アパート敷地内,小学生女児が迎えを待っていたところ、女に「誰を待っているの。おうちはどこ。」等と声を掛けられたもの。,50〜60歳位、中肉、身長160センチ位、肩くらいの黒髪ウェーブ、上衣:ブラウス様、下衣:柄物のスカート、ベージュ色厚底サンダル着用、ベージュ色トートバッグ所持,松山市内浜町,松山市内浜町,0,green,38.0,愛媛県,エヒメケン,EHIME KEN,38201.0,松山市,マツヤマシ,MATSUYAMA SHI,内浜町,ウチハマチョウ,UCHIHAMACHO,,33.86603,132.726942
109,西条署管内,声かけ,令和3年5月16日(日)午後5時20分ころ,西条市福武路上,小学生女児が現金を持って信号待ちをしていたところ、近寄ってきた男に「お金。」と金銭を要求されたもの。,50〜60歳位、中肉、黒色短髪、黒色上衣、灰色ズボン、白色マスク着用,西条市福武,西条市福武,0,green,,,,,,,,,,,,,,
110,松山南署管内,声かけ,令和3年5月15日(土)午前8時30分ころ,松山市天山一丁目店舗内,小学生女児が買い物中、男に「ガチャガチャをしに行こう。」と声をかけられたもの。,50〜70歳位、身長160〜170センチ位、中肉、黒色と白色のボーダーシャツ、帽子・眼鏡なし,松山市天山一丁目,松山市天山一丁目,1,green,38.0,愛媛県,エヒメケン,EHIME KEN,38201.0,松山市,マツヤマシ,MATSUYAMA SHI,天山一丁目,アマヤマ 1,AMAYAMA 1,,33.822489,132.778633
111,西条署管内,つきまとい,令和3年5月14日(金)午後8時40分ころ,西条市氷見路上,女子高校生が友人と自転車で帰宅中、オートバイに乗車の男に後方から低速で接近され、その後、男は車両のライトを消し、女子高校生等から隠れるような素振りをしたもの。,原付様利用,西条市氷見,西条市氷見,0,blue,,,,,,,,,,,,,,
112,松山西署管内,声かけ,令和3年5月14日(金)午後2時55分ころ,松山市北条辻路上,小学生女児が徒歩で下校中、男に「誰待っとるん。」「幼稚園の帰りなん。」等と声をかけられ、後ろから手を回されそうになり、「自転車がないから一緒に探してほしい。」と言われたもの。,60〜70歳位、身長160センチ位、やせ型、白髪混じり、上下灰色ジャージ、頬が真っ赤、眼鏡・マスクなし、黒色様セカンドバッグ様所持,松山市北条辻,松山市北条辻,0,green,38.0,愛媛県,エヒメケン,EHIME KEN,38201.0,松山市,マツヤマシ,MATSUYAMA SHI,北条辻,ホウジョウツジ,HOJO TSUJI,,33.968379,132.777843
113,松山西署管内,声かけ,令和3年5月13日(木)午後5時30分ころ,松山市山西町から同市古三津六丁目まで,女子高校生が徒歩で帰宅中、男に「この近くにあるスーパーの場所を知らないか。」と声をかけられ、後をつけられ、さらに「家はどこ。どこ行くの。」等と声をかけられたもの。,65歳位、身長170センチ以上、やせ型、灰色長袖Tシャツ、黒色長ズボン、黒色様帽子、歯が2〜3本しかない,松山市山西町から同市古三津六丁目まで,松山市山西町から同市古三津六丁目まで,0,green,,,,,,,,,,,,,,
114,松山南署管内,写真撮影,令和3年5月13日(木)午後5時ころ,松山市土居町屋外施設,小学生女児が友人2人と遊んでいたところ、男女2人のうちの女からスマートフォンを向けられたもの。,男:特徴不明、女:17〜20歳位、身長155〜160センチ位、やせ型、ひとつ結びの茶髪、白色様半袖Tシャツ、茶色のワイドパンツ、薄茶色の肩掛けバッグ所持、イヤリング・白色マスク・白色ヘルメット着用、自転車利用,松山市土居町,松山市土居町,0,lightred,38.0,愛媛県,エヒメケン,EHIME KEN,38201.0,松山市,マツヤマシ,MATSUYAMA SHI,土居町,ドイマチ,DOIMACHI,,33.798272,132.790757
115,松山西署管内,不審者,令和3年5月13日(木)午前7時45分ころ,松山市西長戸町路上,女性が歩いていたところ、原付に乗車した男に顔を覗き込まれるように凝視され、短時間で合計3回離合したもの.。,30〜40歳位、中肉、上下黒色の服、第二種原動機付自転車利用(ワインレッド)、黒色のフルフェイス型ヘルメット着用(目の部分にシールドが付いていない),松山市西長戸町,松山市西長戸町,0,purple,38.0,愛媛県,エヒメケン,EHIME KEN,38201.0,松山市,マツヤマシ,MATSUYAMA SHI,西長戸町,ニシナガトチョウ,NISHINAGATOCHO,,33.867813,132.741949
116,松山東署管内,声かけ,令和3年5月13日(木)午前7時20分ころ,松山市立花四丁目,女子中学生が男に「中学生?お父さんとお母さんはどこ?また戻ってくるの?学校行っても意味ないよ。バイクに乗ったら?」等と声をかけられたもの。,60歳位、やせ型、上下灰色ジャージ、目が大きい、面長、灰色ニット帽着用,松山市立花四丁目,松山市立花四丁目,0,green,38.0,愛媛県,エヒメケン,EHIME KEN,38201.0,松山市,マツヤマシ,MATSUYAMA SHI,立花四丁目,タチバナ 4,TACHIBANA 4,,33.828724,132.767951
117,四国中央署管内,声かけ,令和3年5月11日(火)午後3時ころ,四国中央市金生町下分路上,小学生男児が歩いていたところ、路上にいた男に「たくさんお菓子があるけど、こっち来ん。」と声を掛けられたもの。,おじいさんではない年齢、黒髪、赤色様長袖シャツ(ボタン付き)、水色ズボン、徒歩,四国中央市金生町下分,四国中央市金生町下分,0,green,38.0,愛媛県,エヒメケン,EHIME KEN,38213.0,四国中央市,シコクチュウオウシ,SHIKOKUCHUO SHI,金生町下分,キンセイチョウシモブン,KINSEICHO SHIMOBUN,,34.00079,133.582415
118,松山西署管内,声かけ,令和3年5月8日(土)午後0時55分ころ,松山市別府町店舗駐車場,小学生女児が友人と店舗駐車場にいたところ、ニヤニヤした男から「○○学校まで案内してくれ。」と声を掛けられ、地理教示をすると立ち去ったもの。,60歳位、中肉、白髪坊主風、紺色か黒色ジャケット、灰色Tシャツ、紺色長ズボン、銀色の軽快兼用様自転車利用(カバー付の前カゴあり),松山市別府町,松山市別府町,0,green,38.0,愛媛県,エヒメケン,EHIME KEN,38201.0,松山市,マツヤマシ,MATSUYAMA SHI,別府町,ベフチョウ,BEFUCHO,,33.846241,132.720868
119,松山東署管内,つきまとい,令和3年5月4日(火)午前11時40分ころ,松山市中央一丁目歩道上,女子小中学生が徒歩で進行中、自転車にまたがった男につきまとわれ、何度も右腕を掴まれたもの。,30〜40歳位、小肥、身長170センチ位、黒髪薄毛、えんじ色半袖Tシャツ、銀色様の自転車利用、マスクなし,松山市中央一丁目歩道上,松山市中央一丁目歩道上,0,blue,,,,,,,,,,,,,,
120,松山東署管内,声かけ,令和3年5月2日(日)午後3時ころ,松山市南江戸一丁目歩道上,女子高校生が友人と歩いていた際、男に「写真とってほしい。」と言われたため、撮影し、立ち去ろうとしたところ、「高校どこ。名前何て言うの。」と聞かれ、断るも、女子高校生のスマートフォンケースに入れた定期券を見られ「○○に住んでいるんだね。」と言われたもの。,50歳位、やせ型、身長165センチ位、黒色短髪、白色フード付の服、青色デニム風、リュックサック、赤色ガラケー,松山市南江戸一丁目歩道上,松山市南江戸一丁目歩道上,0,green,,,,,,,,,,,,,,
121,松山東署管内,声かけ,令和3年5月2日(日)午前10時45分ころ,松山市枝松四丁目路上,女子中学生が徒歩で帰宅中、男に「トイレどこにある。」と尋ねられ、「一緒について来て。」と言われ手を掴まれそうになったもの。,50歳位、肥満、身長155センチ位、黒髪薄毛、白色半袖Tシャツ、黒色ジャージ、自転車利用(茶色、ママチャリ)、使い捨てマスク・斜め掛けバッグ着用,松山市枝松四丁目,松山市枝松四丁目,0,green,38.0,愛媛県,エヒメケン,EHIME KEN,38201.0,松山市,マツヤマシ,MATSUYAMA SHI,枝松四丁目,エダマツ 4,EDAMATSU 4,,33.830769,132.784912
122,松山東署管内,声かけ,令和3年5月1日(日)午後4時ころ,松山市竹原三丁目付近,女子中学生が徒歩で進行中、男に道を尋ねられた後、「握手をしよう。」と言われたもの。,40歳位、中肉、身長170センチ位、黒髪、上下灰色作業着、眼鏡なし,松山市竹原三丁目,松山市竹原三丁目,0,green,38.0,愛媛県,エヒメケン,EHIME KEN,38201.0,松山市,マツヤマシ,MATSUYAMA SHI,竹原三丁目,タケワラ 3,TAKEWARA 3,,33.831886,132.749554
123,松山東署管内,写真撮影,令和3年4月29日(木)午後3時40分ころ,松山市勝山町一丁目店舗敷地内,女子高校生が店舗敷地内にいたところ、店舗から出てきた男にスマートフォンを向けられ、その後、逃げる最中に後方をつけられたもの。,40〜50歳位、中肉、身長170センチ位、黒髪、上下灰色ジャージ様、黒色キャップ帽、マスクあり,松山市勝山町一丁目,松山市勝山町一丁目,0,lightred,38.0,愛媛県,エヒメケン,EHIME KEN,38201.0,松山市,マツヤマシ,MATSUYAMA SHI,勝山町一丁目,カツヤマチョウ 1,KATSUYAMACHO 1,,33.839085,132.775365
124,松山東署管内,不審者,令和3年4月28日(水)午後6時15分ころ,松山市保免西四丁目路上,男子中学生が帰宅中、自転車に乗った女とすれ違う際に睨まれ、すれ違った後も何か呟きながら睨まれ続けたもの。,70歳位、やせ型、身長150〜160センチ位、白色ジャンパー、ズボン(色不明)、ママチャリ利用、白色ハット帽着用,松山市保免西四丁目,松山市保免西四丁目,0,purple,38.0,愛媛県,エヒメケン,EHIME KEN,38201.0,松山市,マツヤマシ,MATSUYAMA SHI,保免西四丁目,ホウメンニシ 4,HOMENNISHI 4,,33.812811,132.741799
125,松山南署管内,不審車両,令和3年4月28日(水)午後4時ころ,東温市志津川路上,女子中学生が歩いていたところ、車に乗った行為者に低速で横を通過されたもの。,黒色軽四自動車利用,東温市志津川,東温市志津川,0,不審車両,38.0,愛媛県,エヒメケン,EHIME KEN,38215.0,東温市,トウオンシ,TOON SHI,志津川,シツカワ,SHITSUKAWA,,33.809495,132.875036
126,松山東署管内,写真撮影,令和3年4月27日(火)午前8時55分ころ,松山市勝山町一丁目路上,女子専門学生が友人と通学中、自転車に乗った女からデジタルカメラを向けられたり、つきまとわれたりしたもの。,60〜70歳位、身長150センチ位、中肉、花柄紫色長袖シャツ、長ズボン、帽子着用(白色、バケットハット),松山市勝山町一丁目,松山市勝山町一丁目,1,lightred,38.0,愛媛県,エヒメケン,EHIME KEN,38201.0,松山市,マツヤマシ,MATSUYAMA SHI,勝山町一丁目,カツヤマチョウ 1,KATSUYAMACHO 1,,33.839085,132.775365
127,松山南署管内,写真撮影,令和3年4月26日(月)午後4時ころ,松山市越智三丁目,男児小学生が友人数人と遊んでいたところ、岩陰に隠れた男からスマートフォンを向けられたもの。,20〜50歳位、身長155センチ位、灰色パーカー(頭にフードを被っている)、黒色か灰色のズボン、黒色スマートフォン・灰色鞄所持、眼鏡なし,松山市越智三丁目,松山市越智三丁目,0,lightred,38.0,愛媛県,エヒメケン,EHIME KEN,38201.0,松山市,マツヤマシ,MATSUYAMA SHI,越智三丁目,オチ 3,OCHI 3,,33.810084,132.781619
128,松山東署管内,声かけ,令和3年4月26日(月)午後1時15分ころ,松山市土居田町路上,男児小学生が友人と下校中、男に内容不明の言葉をかけられ、手招きされたもの。,60歳位、中肉、身長165センチ位、白髪混じりの黒色短髪、薄いカーキ色長袖ジャンパー、肌色・水色のボーダー柄長袖トレーナー、紺色太めの長ズボン、銀色のオートバイ利用,松山市土居田町,松山市土居田町,0,green,38.0,愛媛県,エヒメケン,EHIME KEN,38201.0,松山市,マツヤマシ,MATSUYAMA SHI,土居田町,ドイダマチ,DOIDAMACHI,,33.823276,132.746488
129,松山東署管内,声かけ,令和3年4月25日(日)午後6時25分ころ,松山市道後樋又路上,男性が歩いていたところ、路上に立っていた女に、突然両手を広げて抱きつかれそうになったもの。その際、「○○さんですよね。」と別の人の名前を言われた。,50歳位、小肥、身長160センチ位、黒色長髪、白色マスク着用、トイレットペーパー・ビニール袋所持,松山市道後樋又,松山市道後樋又,0,green,38.0,愛媛県,エヒメケン,EHIME KEN,38201.0,松山市,マツヤマシ,MATSUYAMA SHI,道後樋又,ドウゴヒマタ,DOGO HIMATA,,33.852406,132.772246
130,新居浜署管内,不審者,令和3年4月25日(日)午前0時15分ころ,新居浜市宇高町三丁目路上,住宅街の路上を歩いていた男が、いきなり走り出し、付近に停めてあった自転車に乗って立ち去ったもの。,20〜40歳位、やせ型、身長175センチ位、黒色様長袖トレーナー、黒色様長ズボン、モトクロス様の自転車利用,新居浜市宇高町三丁目,新居浜市宇高町三丁目,0,purple,38.0,愛媛県,エヒメケン,EHIME KEN,38205.0,新居浜市,ニイハマシ,NIIHAMA SHI,宇高町三丁目,ウダカチョウ 3,UDAKACHO 3,,33.97729,133.302888
131,松山西署管内,不審者,令和3年4月23日(金)午後3時45分ころ,松山市高岡町路上,男女児小学生2名が歩いていたところ、後方から近づいてきた車が真横で停車し、運転席に乗っていた男に笑顔で手を振られたもの。,60歳位、中肉、白色短髪、黒色の普通乗用自動車利用、丸型眼鏡着用,松山市高岡町,松山市高岡町,0,purple,38.0,愛媛県,エヒメケン,EHIME KEN,38201.0,松山市,マツヤマシ,MATSUYAMA SHI,高岡町,タカオカマチ,TAKAOKAMACHI,,33.830862,132.720361
132,松山西署管内,不審者,令和3年4月22日(木)午後4時ころ,松山市高岡町路上,女児小学生が歩いていたところ、後方から追い越してきた車が前方に停車し、車の運転席ドアが開いたため、助手席側から通行しようとすると、運転席にいた男が助手席側のドアを開けようと手を伸ばしているのが見えたもの。,40歳位、中肉、スキンヘッド、眼鏡・マスクなし、灰色セダン型自動車利用,松山市高岡町,松山市高岡町,1,purple,38.0,愛媛県,エヒメケン,EHIME KEN,38201.0,松山市,マツヤマシ,MATSUYAMA SHI,高岡町,タカオカマチ,TAKAOKAMACHI,,33.830862,132.720361
133,松山南署管内,声かけ,令和3年4月21日(水)午後4時30分ころ,松山市東方町路上,女子高校生が自転車で走行中、自転車に乗った男につきまとわれた後、停車中に自転車の荷台を掴まれて「なんもせんけんちょっと来て。」と声をかけられたもの。,20歳位、やせ型、茶髪のマッシュルームカット、自転車利用(ロードバイク様)、一重で目が細い、眼鏡なし,松山市東方町,松山市東方町,1,green,38.0,愛媛県,エヒメケン,EHIME KEN,38201.0,松山市,マツヤマシ,MATSUYAMA SHI,東方町,ヒガシガタマチ,HIGASHIGATAMACHI,,33.763088,132.820612
134,松山西署管内,声かけ,令和3年4月21日(水)午前8時45分ころ,松山市空港通七丁目路上,女性がバス停にいたところ、自転車に乗った男と目が合い、大声で卑わいな言葉を叫ばれたもの。,30〜40歳位、小肥、身長160センチ位、黒髪ボサボサ頭、上下白色ジャージ様、自転車利用、丸顔、太い眉毛、眼鏡なし,松山市空港通七丁目,松山市空港通七丁目,0,green,38.0,愛媛県,エヒメケン,EHIME KEN,38201.0,松山市,マツヤマシ,MATSUYAMA SHI,空港通七丁目,クウコウドオリ 7,KUKODORI 7,,33.827801,132.727598
135,松山東署管内,写真撮影,令和3年4月20日(火)午後6時ころ,松山市から伊予市間を走行中の列車,女子高校生が列車内で立っていたところ、隣に立っていた男にスマートフォンを向けられたもの。,45〜50歳位、身長165〜170センチ位、肥満、白髪混じり短髪、ジーパン、白縁眼鏡・スニーカー着用、ボディバッグ所持,松山市から伊予市間を走行中の列車,松山市から伊予市間を走行中の列車,0,lightred,,,,,,,,,,,,,,
136,新居浜署管内,つきまとい,令和3年4月16日(金)午後5時40分ころ,新居浜市川東地区店舗,女性が帰宅中、自転車に乗った男が立ち寄り先に何度も現れ、つきまとわれたもの。,25〜30歳位、身長170センチ位、やせ型、伸びかけの黒色短髪、くすんだカーキ色ジャンパーとズボン、自転車利用,新居浜市川東地区,新居浜市川東地区,0,blue,,,,,,,,,,,,,,
137,松山西署管内,つきまとい,令和3年4月16日(金)午後5時20分ころ,松山市中央一丁目から松山市東長戸三丁目までの間,女子高校生が自転車で帰宅中、自転車に乗った男につきまとわれたもの。,25〜40歳位、中肉中背、黒色短髪、白色シャツ、黒色か灰色のズボン、黒色スポーツタイプ自転車利用(前カゴあり)、黒縁眼鏡、黒色リュックサック・黒色ウエストバッグ所持,松山市中央一丁目から松山市東長戸三丁目までの間,松山市中央一丁目から松山市東長戸三丁目までの間,0,blue,,,,,,,,,,,,,,
138,松山東署管内,のぞき・盗撮,令和3年4月16日(金)午後5時ころ,松山市真砂町路上,女子高校生が室内で着替え等をしていたところ、開いていた窓から室内をのぞいている男を目撃したもの。,30〜40歳位、やせ型、身長170センチ位、黒色短髪、上下黒色ジャージ、軽快兼用自転車利用(銀色、前カゴ付、前輪に反射板)、白色マスク着用、眼鏡なし,松山市真砂町,松山市真砂町,1,pink,38.0,愛媛県,エヒメケン,EHIME KEN,38201.0,松山市,マツヤマシ,MATSUYAMA SHI,真砂町,マサゴチョウ,MASAGOCHO,,33.832591,132.760831
139,四国中央署管内,声かけ,令和3年4月16日(金)午後4時ころ,四国中央市金生町路上,男児が徒歩で下校中、白色軽トラックに乗った男に「連れて帰ってあげる。」と声をかけられたもの。,不明,四国中央市金生町,四国中央市金生町,0,green,,,,,,,,,,,,,,
140,松山南署管内,声かけ,令和3年4月16日(金)午後3時40分ころ,松山市北井門二丁目路上,男児小学生が歩いていたところ、車に乗った男に「乗る?」と声をかけられたもの。,45〜50歳位、スキンヘッド、自動車利用(黒色、ミニバン様)、髭あり,松山市北井門二丁目,松山市北井門二丁目,0,green,38.0,愛媛県,エヒメケン,EHIME KEN,38201.0,松山市,マツヤマシ,MATSUYAMA SHI,北井門二丁目,キタイド 2,KITAIDO 2,,33.803033,132.780334
141,大洲署管内,声かけ,令和3年4月16日(金)午後1時25分ころ,大洲市徳森店舗内,女性が店内で買い物中、真後ろにいた男に「ちょっとお時間いいですか。」と声をかけられたもの。,50歳位、やせ型、黒髪、白地に黒色か紺色のストライプ柄の服、黒色スラックス、眼鏡なし、白色の大きめマスク着用、もみあげなし,大洲市徳森,大洲市徳森,0,green,38.0,愛媛県,エヒメケン,EHIME KEN,38207.0,大洲市,オオズシ,OZU SHI,徳森,トクノモリ,TOKUNOMORI,,33.524891,132.585004
142,大洲署管内,声かけ,令和3年4月16日(金)午後1時25分ころ,大洲市徳森店舗内,女性が店内で買い物中、真後ろにいた男に「ちょっとお時間いいですか。」と声をかけられたもの。,50歳位、やせ型、黒髪、白地に黒色か紺色のストライプ柄の服、黒色スラックス、眼鏡なし、白色の大きめマスク着用、もみあげなし,大洲市徳森,大洲市徳森,0,green,38.0,愛媛県,エヒメケン,EHIME KEN,38207.0,大洲市,オオズシ,OZU SHI,徳森,トクノモリ,TOKUNOMORI,宮方,33.533059,132.578947
143,松山東署管内,身体露出,令和3年4月16日(金)午前8時ころ,松山市松末二丁目路上,女性が友人と路上にいたところ、スクーター型バイクを空ぶかししている男が下半身を露出しているのを目撃したもの。,短髪、白色作業着、白色ズボン、白色ヘルメット着用,松山市松末二丁目,松山市松末二丁目,0,orange,38.0,愛媛県,エヒメケン,EHIME KEN,38201.0,松山市,マツヤマシ,MATSUYAMA SHI,松末二丁目,マツスエ 2,MATSUSUE 2,,33.825734,132.788349
144,松山東署管内,つきまとい,令和3年4月15日(木)午後0時10分ころ,松山市平和通六丁目から湊町五丁目までの間,女性が座ったベンチに背中合わせで座ってきた男から、電車で移動中に凝視され、下車後もつきまとわれたもの。,60歳位、やせ型、身長165センチ位、黒色ジャンパー、黒色ズボン、黒色野球帽着用,松山市平和通六丁目から湊町五丁目までの間,松山市平和通六丁目から湊町五丁目までの間,0,blue,,,,,,,,,,,,,,
145,大洲署管内,身体露出,令和3年4月14日(水)午後7時50分ころ,喜多郡内子町内子店舗内,女性が店舗の陳列棚前にしゃがみ込んでいたところ、近づいてきた男がズボンのチャックから下半身を露出していたもの。,35〜40歳位、身長170センチ位、明るめの茶髪、ボサボサ髪を後ろで結んでいる、長袖スウェット様、作業着様長ズボン、色黒,喜多郡内子町内子,喜多郡内子町内子,1,orange,38.0,愛媛県,エヒメケン,EHIME KEN,38422.0,喜多郡内子町,キタグンウチコチョウ,KITA GUN UCHIKO CHO,内子,ウチコ,UCHIKO,,33.551735,132.647879
146,松山東署管内,声かけ,令和3年4月14日(水)午後5時ころ,松山市和泉北一丁目路上,女子高校生が自転車で帰宅中、自転車に乗った男に後をつけられ、信号待ちをしているときに、「ちょっとお姉さんいいですか。」と声をかけられたもの。,25〜35歳位、黒髪、色白,松山市和泉北一丁目,松山市和泉北一丁目,0,green,38.0,愛媛県,エヒメケン,EHIME KEN,38201.0,松山市,マツヤマシ,MATSUYAMA SHI,和泉北一丁目,イズミキタ 1,IZUMIKITA 1,,33.823903,132.759925
147,宇和島署管内,不審者,令和3年4月14日(水)午後1時ころ,北宇和郡鬼北町大字奈良路上,車から降りてきた男が、女児小学生の近隣住民に対して、父親を偽って女児小学生の帰宅時間を聞いてきたもの。,40歳位、やせ型、身長170センチ位、黒色短髪、灰色無地半袖ポロシャツ、ベージュ色チノパン、自動車利用(黒色、セダン型)縁なし眼鏡着用、あご髭あり、色白、鼻が大きい,北宇和郡鬼北町大字奈良,北宇和郡鬼北町大字奈良,0,purple,38.0,愛媛県,エヒメケン,EHIME KEN,38488.0,北宇和郡鬼北町,キタウワグンキホクチョウ,KITAUWA GUN KIHOKU CHO,大字奈良,,,,33.248654,132.659859
148,四国中央署管内,声かけ,令和3年4月14日(水)午前11時30分ころ,四国中央市中之庄町歩道橋上,男児小学生が歩いていたところ、歩道橋上で男に名前や住所などを聞かれたもの。,60〜70歳位、中肉、白髪、ズボン(太もも部分に柄付き),四国中央市中之庄町歩道橋上,四国中央市中之庄町歩道橋上,0,green,,,,,,,,,,,,,,
149,松山南署管内,声かけ,令和3年4月13日(火)午後5時15分ころ,東温市見奈良路上,女子高校生が自転車で走行中、黒色様原付バイクに乗った男に「おーい、ライン教えて。」などと声をかけられたもの。,黒色長袖上衣、黒色ズボン、黒色フルフェイス着用,東温市見奈良,東温市見奈良,0,green,38.0,愛媛県,エヒメケン,EHIME KEN,38215.0,東温市,トウオンシ,TOON SHI,見奈良,ミナラ,MINARA,,33.792101,132.876856
150,四国中央署管内,声かけ,令和3年4月13日(火)午後3時20分ころ,四国中央市寒川町路上,男児小学生7名が歩いていたところ、白色軽四トラック(荷台にオレンジ色のカゴ積載)に乗った男に二度にわたって、「何年生、何組、何小。」などと話しかけられ、その後、運転席窓から手を伸ばした男とハイタッチをしたもの。,中年位の年齢、白髪混じり、青色様長袖Tシャツ、日焼け肌,四国中央市寒川町,四国中央市寒川町,3,green,38.0,愛媛県,エヒメケン,EHIME KEN,38213.0,四国中央市,シコクチュウオウシ,SHIKOKUCHUO SHI,寒川町,サンガワチョウ,SANGAWACHO,,33.952462,133.507717
151,四国中央署管内,声かけ,令和3年4月13日(火)午後3時20分ころ,四国中央市寒川町路上,男児小学生7名が歩いていたところ、白色軽四トラック(荷台にオレンジ色のカゴ積載)に乗った男に二度にわたって、「何年生、何組、何小。」などと話しかけられ、その後、運転席窓から手を伸ばした男とハイタッチをしたもの。,中年位の年齢、白髪混じり、青色様長袖Tシャツ、日焼け肌,四国中央市寒川町,四国中央市寒川町,3,green,38.0,愛媛県,エヒメケン,EHIME KEN,38213.0,四国中央市,シコクチュウオウシ,SHIKOKUCHUO SHI,寒川町,サンガワチョウ,SANGAWACHO,大門,33.967211,133.503062
152,松山東署管内,写真撮影,令和3年4月13日(火)午前8時40分ころ,松山市南江戸四丁目路上,男性が自転車で走行中、犬の散歩をしている男とすれ違った際にスマートフォンを向けられたもの。,30〜40歳位、中肉、身長160センチ位、ボサボサの黒色長髪、暗色の長袖チェックTシャツ、緑色長ズボン、白色マスク着用、眼鏡なし、スマートフォン(手帳型ケース入り)、白色小型犬を散歩させていた,松山市南江戸四丁目,松山市南江戸四丁目,1,lightred,38.0,愛媛県,エヒメケン,EHIME KEN,38201.0,松山市,マツヤマシ,MATSUYAMA SHI,南江戸四丁目,ミナミエド 4,MINAMIEDO 4,,33.837758,132.741668
153,松山西署管内,不審者,令和3年4月12日(月)午後10時ころ,松山市久万ノ台敷地内,女性がマンション1階設置の集合ポスト付近を徘徊する男を目撃したもの。,30〜40歳位、肥満、身長170センチ位、黒色短髪、半袖Tシャツ(白地に青色の模様入り)茶色様長ズボン,松山市久万ノ台敷地内,松山市久万ノ台敷地内,0,purple,,,,,,,,,,,,,,
154,松山東署管内,写真撮影,令和3年4月12日(月)午後4時15分ころ,松山市桑原四丁目屋外施設,女子小学生が屋外施設で遊んでいたところ、女からスマートフォンで顔付近を複数回写真撮影されたもの。,女性、徒歩,松山市桑原四丁目,松山市桑原四丁目,0,lightred,38.0,愛媛県,エヒメケン,EHIME KEN,38201.0,松山市,マツヤマシ,MATSUYAMA SHI,桑原四丁目,クワバラ 4,KUWABARA 4,,33.832031,132.794275
155,松山東署管内,写真撮影,令和3年4月9日(金)午後4時50分ころ,松山市東雲町屋外施設,女子小中学生3名が屋外施設で遊んでいたところ、自転車に乗った男にスマートフォンを向けられたもの。,20歳位、やせ型、身長170センチ位、短髪、青色の服(肩から腕にかけて灰色ライン入り)、自転車利用(赤色、スポーツタイプ)、サングラス・マスク着用,松山市東雲町,松山市東雲町,0,lightred,38.0,愛媛県,エヒメケン,EHIME KEN,38201.0,松山市,マツヤマシ,MATSUYAMA SHI,東雲町,シノノメチョウ,SHINONOMECHO,,33.845331,132.773986
156,松山東署管内,声かけ,令和3年4月8日(木)午後1時30分ころ,松山市余戸西六丁目路上,小学生男女4名が自転車で移動中、自転車に乗った男に向かって、ベルを鳴らし笑ったことで、「君達なんなん。」と声をかけられ、移動先でも声をかけられたもの。,40歳位、半袖Tシャツ、ピンクライン入りの黒色ズボン、帽子着用,松山市余戸西六丁目,松山市余戸西六丁目,0,green,38.0,愛媛県,エヒメケン,EHIME KEN,38201.0,松山市,マツヤマシ,MATSUYAMA SHI,余戸西六丁目,ヨウゴニシ 6,YOGONISHI 6,,33.817533,132.725001
157,松山西署管内,身体露出,令和3年4月5日(月)午後7時ころ,松山市高岡町路上,女性が車で信号待ちをしていたところ、ズボンを膝上まで脱ぎ、携帯電話を操作しながら自転車を運転する男を目撃したもの。,40〜60歳位、上下黒色様の服、自転車利用(黒色様、スポーツタイプ),松山市高岡町,松山市高岡町,2,orange,38.0,愛媛県,エヒメケン,EHIME KEN,38201.0,松山市,マツヤマシ,MATSUYAMA SHI,高岡町,タカオカマチ,TAKAOKAMACHI,,33.830862,132.720361
158,松山西署管内,声かけ,令和3年4月3日(土)午後7時ころ,松山市湊町七丁目から同市南斎院町までの路上,女性が歩いていたところ、男に後方をつきまとわれた後、卑わいな言葉をかけられたもの。,30歳位、中肉、身長170センチ位、黒髪で側頭部短髪の頭頂部ハゲ、黒又は灰色パーカー、黒色ズボン、自転車利用(黒色、ミニサイクル)白色マスク着用、眼鏡なし,松山市湊町七丁目から同市南斎院町までの,松山市湊町七丁目から同市南斎院町まで,0,green,,,,,,,,,,,,,,
159,松山東署管内,卑わいな言動,令和3年4月3日(土)午後6時50分ころ,松山市竹原三丁目路上,女性が路上にいたところ、自転車に乗った男が女性の目の前に現れ、ズボンの上から自身の股間を触り始めたもの。,40〜45歳位、中肉、薄毛黒髪、黒色様ウインドブレーカー、黒色ズボン、自転車利用(前カゴ及び荷台あり)、マスクなし、所持品なし,松山市竹原三丁目,松山市竹原三丁目,1,卑わいな言動,38.0,愛媛県,エヒメケン,EHIME KEN,38201.0,松山市,マツヤマシ,MATSUYAMA SHI,竹原三丁目,タケワラ 3,TAKEWARA 3,,33.831886,132.749554
160,松山東署管内,声かけ,令和3年4月3日(土)午後5時ころ,松山市中村一丁目河川敷,女子中学生2名が河川敷にいたところ、徒歩で近づいてきた男に「俺は、社長で、トランペットの先生もしている。」等と数分間話しかけられ、一度立ち去るも、再度現れ、「たまに来るから、これあげる。」と言って千円札を1枚ずつ渡されたもの。,50歳位、小肥、身長165センチ位、黒色短髪、上下黒色様スーツ、紫色柄シャツ、帽子・眼鏡・髭なし、スマートフォン所持,松山市中村一丁目,松山市中村一丁目,0,green,38.0,愛媛県,エヒメケン,EHIME KEN,38201.0,松山市,マツヤマシ,MATSUYAMA SHI,中村一丁目,ナカムラ 1,NAKAMURA 1,,33.834948,132.777786
161,四国中央署管内,不審者,令和3年4月3日(土)午前10時20分ころ,四国中央市上柏町路上,男性の自宅付近を男が車両で複数回走行し、さらに、男性方付近に停車するなどしたもの。男性が男に声掛けしたところ、小声で何か申し立て立ち去ったもの。,40歳位、中肉、身長170センチ位、黒色短髪、上衣:灰色セーター様、黒色チョッキ様、下衣:ジーパン、水色軽四自動車利用、眼鏡・帽子なし、青色手提げバッグ所持,四国中央市上柏町,四国中央市上柏町,0,purple,38.0,愛媛県,エヒメケン,EHIME KEN,38213.0,四国中央市,シコクチュウオウシ,SHIKOKUCHUO SHI,上柏町,カミガシワチョウ,KAMIGASHIWACHO,,33.967775,133.570638
162,松山東署管内,つきまとい,令和3年3月30日(火)午後5時10分ころ,松山市衣山二丁目路上,女児小学生が歩いていたところ、後方を男につきまとわれたもの。女児小学生が反転し、男とすれ違うと、男はじっと見てきた。,身長170センチ位、やせ型、黒色短髪、上下黒色ジャージ(サイドに白色のライン入り)、黒色サングラス着用,松山市衣山二丁目,松山市衣山二丁目,0,blue,38.0,愛媛県,エヒメケン,EHIME KEN,38201.0,松山市,マツヤマシ,MATSUYAMA SHI,衣山二丁目,キヌヤマ 2,KINUYAMA 2,,33.852792,132.743142
163,大洲署管内,つきまとい,令和3年3月30日(火)午前10時ころ,喜多郡内子町五十崎乙路上,女子中学生が歩いていたところ、男に約10メートルの間隔で後方をつきまとわれたもの。女子中学生がつきまといに気が付き電話をかけるふりをすると、男はUターンして立ち去った。,40歳位、身長160センチ位、中肉、黒色長袖上着、青色ジーパン、黒色ニット帽・白色マスク着用、スマートフォン所持,喜多郡内子町五十崎乙,喜多郡内子町五十崎,0,blue,38.0,愛媛県,エヒメケン,EHIME KEN,38422.0,喜多郡内子町,キタグンウチコチョウ,KITA GUN UCHIKO CHO,五十崎,イカザキ,IKAZAKI,,33.529722,132.643893
164,四国中央署管内,不審者,令和3年3月29日(月)午後6時20分ころ,四国中央市川之江町路上,路上に自転車を停めた男が閉館中の施設敷地内に入り、地面を探る様な行動をとった後、自転車に乗って叫びながら猛スピードで走り去ったもの。,身長170〜180センチ位、黒色様短髪、黒色様フード付きジャンパー,四国中央市川之江町,四国中央市川之江町,1,purple,38.0,愛媛県,エヒメケン,EHIME KEN,38213.0,四国中央市,シコクチュウオウシ,SHIKOKUCHUO SHI,川之江町,カワノエチョウ,KAWANOECHO,,34.014304,133.579682
165,四国中央署管内,不審者,令和3年3月29日(月)午後6時20分ころ,四国中央市川之江町路上,路上に自転車を停めた男が閉館中の施設敷地内に入り、地面を探る様な行動をとった後、自転車に乗って叫びながら猛スピードで走り去ったもの。,身長170〜180センチ位、黒色様短髪、黒色様フード付きジャンパー,四国中央市川之江町,四国中央市川之江町,1,purple,38.0,愛媛県,エヒメケン,EHIME KEN,38213.0,四国中央市,シコクチュウオウシ,SHIKOKUCHUO SHI,川之江町,カワノエチョウ,KAWANOECHO,横田,34.003925,133.565172
166,四国中央署管内,不審者,令和3年3月29日(月)午後6時20分ころ,四国中央市川之江町路上,路上に自転車を停めた男が閉館中の施設敷地内に入り、地面を探る様な行動をとった後、自転車に乗って叫びながら猛スピードで走り去ったもの。,身長170〜180センチ位、黒色様短髪、黒色様フード付きジャンパー,四国中央市川之江町,四国中央市川之江町,1,purple,38.0,愛媛県,エヒメケン,EHIME KEN,38213.0,四国中央市,シコクチュウオウシ,SHIKOKUCHUO SHI,川之江町,カワノエチョウ,KAWANOECHO,塚田,34.000158,133.566627
167,松山西署管内,つきまとい,令和3年3月29日(月)午後5時ころ,松山市別府町駐車場内,女児小学生らが歩いていたところ、後方を男につきまとわれたもの。男は駐車場に駐車していた車(クリーム色の普通車様)に乗って立ち去った。,やせ型、白色ジャケット、灰色長ズボン、白色キャップ帽着用、眼鏡・マスクなし,松山市別府町,松山市別府町,1,blue,38.0,愛媛県,エヒメケン,EHIME KEN,38201.0,松山市,マツヤマシ,MATSUYAMA SHI,別府町,ベフチョウ,BEFUCHO,,33.846241,132.720868
168,松山南署管内,つきまとい,令和3年3月27日(土)午後5時ころ,松山市朝生田町六丁目から同市和泉南一丁目路上までの間,男児小学生が自転車に乗って走行中、自転車に乗った男2名に幅寄せされながらつきまとわれたもの。男児小学生が停まると、男に「おい、お前、ちょっと来い。」と言われた。,A(14〜16歳位、身長165〜180センチ位、中肉、黒髪、白色様の服、ラジカセ様のもの所持)、B(14〜16歳位、中肉、黒色様の服),松山市朝生田町六丁目から同市和泉南一丁目,松山市朝生田町六丁目から同市和泉南一丁目,0,blue,,,,,,,,,,,,,,
169,松山南署管内,不審者,令和3年3月27日(土)午後4時10分ころ,伊予郡砥部町北川毛一般住宅玄関先,女児小学生が在宅中、玄関のガラス越しに何かを置く男の姿を目撃し、しばらくして玄関先を確認すると、小石が置かれていたもの。,中肉、身長160〜165センチ位、青色フード付き上衣,伊予郡砥部町北川毛,伊予郡砥部町北川毛,0,purple,38.0,愛媛県,エヒメケン,EHIME KEN,38402.0,伊予郡砥部町,イヨグントベチョウ,IYO GUN TOBE CHO,北川毛,キタカワゲ,KITAKAWAGE,,33.739711,132.784622
170,西条署管内,身体露出,令和3年3月27日(土)午後3時ころ,西条市喜多川路上,後方からゆっくり近づいてきた車(黒色)に乗った男が下半身を露出していたもの。,,西条市喜多川,西条市喜多川,0,orange,38.0,愛媛県,エヒメケン,EHIME KEN,38206.0,西条市,サイジョウシ,SAIJO SHI,喜多川,キタガワ,KITAGAWA,,33.922611,133.170114
171,松山東署管内,つきまとい,令和3年3月26日(金)午後8時20分ころ,松山市千舟町七丁目一般住宅,女性が帰宅のため、自転車を自宅駐輪場に置き、自宅につながる外階段を上がっていたところ、駐輪場に立っていた男が女性を見上げながら、階段を上がってきたもの。,20〜30歳位、中肉、上下黒色様の服、黒色リュックサック所持,松山市千舟町七丁目,松山市千舟町七丁目,0,blue,38.0,愛媛県,エヒメケン,EHIME KEN,38201.0,松山市,マツヤマシ,MATSUYAMA SHI,千舟町七丁目,チフネマチ 7,CHIFUNEMACHI 7,,33.837093,132.75672
172,松山西署管内,つきまとい,令和3年3月25日(木)午後3時30分ころ,松山市空港通六丁目店舗から同市空港通五丁目路上までの間,女性が店舗内で買い物中、後方から様子を窺うようにしていた男に、店外に出た後もつきまとうように後方をつきまとわれたもの。,30〜40歳位、小肥、身長160〜170センチ位、黒色でくせ毛の長髪、薄紫色Tシャツ、黒色ズボン、黒色サングラス着用、折り畳んだオレンジ色の服を所持),松山市空港通六丁目,松山市空港通六丁目,0,blue,38.0,愛媛県,エヒメケン,EHIME KEN,38201.0,松山市,マツヤマシ,MATSUYAMA SHI,空港通六丁目,クウコウドオリ 6,KUKODORI 6,,33.827811,132.730422
173,松山東署管内,声かけ,令和3年3月24日(水)午後4時30分ころ,松山市清水町二丁目路上,女子小学生2名が歩いていたところ、男2名に現金を手渡され、執拗に氏名や住所等を聞かれながらつきまとわれたもの。,A(20歳位、やせ型、身長170センチ位、上下黒色の服、眼鏡・黒色キャップ帽着用、マスク無し、スマートフォン所持、青色スポーツタイプ自転車利用)、B(20歳位、やせ型、身長170センチ位、黒色短髪、黒色上衣、灰色下衣、顔に赤色のにきび多数あり、眼鏡・マスクなし),松山市清水町二丁目,松山市清水町二丁目,0,green,38.0,愛媛県,エヒメケン,EHIME KEN,38201.0,松山市,マツヤマシ,MATSUYAMA SHI,清水町二丁目,シミズマチ 2,SHIMIZUMACHI 2,,33.850248,132.764059
174,松山東署管内,ちかん,令和3年3月21日(日)午後5時ころ,松山市湯の山店舗内,女子高校生が店内にいたところ、男に軽く臀部を触られ、店外に出た後も近づいてこられ、再度臀部を触られそうになったもの。男は、車に乗って立ち去った。,30〜40歳位、中肉、身長170センチ位、黒色短髪、黒色ロングTシャツ、黒色ジャージ、白色の普通乗用車利用、目が細い、マスク着用、レジ袋所持,松山市湯の山,松山市湯の山,0,gray,,,,,,,,,,,,,,
175,松山南署管内,声かけ,令和3年3月20日(土)午後0時40分ころ,松山市居相一丁目路上,男児小学生が徒歩で移動中、車(黒色、四角で小さい)に乗った男に「おい、お父さんが大変だ。」などと声をかけられた上、車から降りた男に追いかけられたもの。,30歳位、中肉、黒色短髪、黒色の上衣、黒色サングラス・ピアス着用,松山市居相一丁目,松山市居相一丁目,0,green,38.0,愛媛県,エヒメケン,EHIME KEN,38201.0,松山市,マツヤマシ,MATSUYAMA SHI,居相一丁目,イアイ 1,IAI 1,,33.810574,132.774073
176,松山東署管内,身体露出,令和3年3月20日(土)午前2時20分ころ,松山市平和通四丁目路上から同市平和通六丁目路上までの間,女性が歩いていたところ、男に先回りされたりしてつきまとわれた上、露出した下半身を見せつけられたもの。,20〜30歳位、身長160〜170センチ位、やせ型、黒色様短髪、上下灰色スウェット(背中に黒色で柄あり)、眼鏡・髭・マスクなし,松山市平和通四丁目,松山市平和通四丁目,0,orange,38.0,愛媛県,エヒメケン,EHIME KEN,38201.0,松山市,マツヤマシ,MATSUYAMA SHI,平和通四丁目,ヘイワドオリ 4,HEIWADORI 4,,33.84723,132.763343
177,松山東署管内,つきまとい,令和3年3月18日(木)午前11時15分ころ,松山市南江戸一丁目施設内,女子中学生が施設内にいたところ、居合わせた男に凝視されたもの。視線に気がついた女子中学生が席を替えても男がついてきた。,40〜50歳位、中肉、白髪混じり短髪、紺色ジャンパー、灰色長ズボン、灰色ネックウォーマー・眼鏡・白色マスク着用,松山市南江戸一丁目,松山市南江戸一丁目,1,blue,38.0,愛媛県,エヒメケン,EHIME KEN,38201.0,松山市,マツヤマシ,MATSUYAMA SHI,南江戸一丁目,ミナミエド 1,MINAMIEDO 1,,33.838208,132.75005
178,四国中央署管内,不審者,令和3年3月18日(木)午前0時45分ころ,四国中央市川之江町路上,隣家の敷地からフードを被った男が出てきたため、目撃者が声をかけるも、男は無視してそのまま立ち去ったもの。,中年、身長180センチ位、小肥、灰色パーカー、灰色スウェット、黒色トートバッグ所持,四国中央市川之江町,四国中央市川之江町,2,purple,38.0,愛媛県,エヒメケン,EHIME KEN,38213.0,四国中央市,シコクチュウオウシ,SHIKOKUCHUO SHI,川之江町,カワノエチョウ,KAWANOECHO,,34.014304,133.579682
179,四国中央署管内,不審者,令和3年3月18日(木)午前0時45分ころ,四国中央市川之江町路上,隣家の敷地からフードを被った男が出てきたため、目撃者が声をかけるも、男は無視してそのまま立ち去ったもの。,中年、身長180センチ位、小肥、灰色パーカー、灰色スウェット、黒色トートバッグ所持,四国中央市川之江町,四国中央市川之江町,2,purple,38.0,愛媛県,エヒメケン,EHIME KEN,38213.0,四国中央市,シコクチュウオウシ,SHIKOKUCHUO SHI,川之江町,カワノエチョウ,KAWANOECHO,横田,34.003925,133.565172
180,四国中央署管内,不審者,令和3年3月18日(木)午前0時45分ころ,四国中央市川之江町路上,隣家の敷地からフードを被った男が出てきたため、目撃者が声をかけるも、男は無視してそのまま立ち去ったもの。,中年、身長180センチ位、小肥、灰色パーカー、灰色スウェット、黒色トートバッグ所持,四国中央市川之江町,四国中央市川之江町,2,purple,38.0,愛媛県,エヒメケン,EHIME KEN,38213.0,四国中央市,シコクチュウオウシ,SHIKOKUCHUO SHI,川之江町,カワノエチョウ,KAWANOECHO,塚田,34.000158,133.566627
181,松山西署管内,声かけ,令和3年3月17日(水)午後5時ころ,松山市片山屋外施設,男児小学生らが屋外施設から歩いて帰宅しようとしたところ、入口に立っていた女に「何してくれてんだ。」などと怒鳴られたもの。,30〜40歳位、肥満、身長155センチ位、黒髪(長めの髪を後ろで結んでいる)、黒色様の服、黒色ズボン、白色キャップ帽・ピンク色サングラス着用,松山市片山,松山市片山,0,green,38.0,愛媛県,エヒメケン,EHIME KEN,38201.0,松山市,マツヤマシ,MATSUYAMA SHI,片山,カタヤマ,KATAYAMA,,33.949053,132.777825
182,松山西署管内,声かけ,令和3年3月17日(水)午後3時30分ころ,松山市堀江町路上,女子小学生が歩いていたところ、自転車(灰色、軽快兼用)に乗った男に近づかれ、「おい。」と声をかけられたもの。,40歳位、中肉、黒色短髪、灰色長袖Tシャツ、緑色長ズボン、マスク・眼鏡なし,松山市堀江町,松山市堀江町,1,green,38.0,愛媛県,エヒメケン,EHIME KEN,38201.0,松山市,マツヤマシ,MATSUYAMA SHI,堀江町,ホリエチョウ,HORIECHO,,33.908885,132.759138
183,松山東署管内,声かけ,令和3年3月12日(金)午後5時30分ころ,松山市保免西一丁目一般住宅玄関先,女児小学生が自宅に入ろうとしたところ、後方から近づいてきた男に「大人の人に渡しておいて。」と言いながら新品のハンドクリームを渡されたもの。,30〜40歳位、やせ型、黒髪、黒色様の服、黒色様ズボン,松山市保免西一丁目,松山市保免西一丁目,0,green,38.0,愛媛県,エヒメケン,EHIME KEN,38201.0,松山市,マツヤマシ,MATSUYAMA SHI,保免西一丁目,ホウメンニシ 1,HOMENNISHI 1,,33.817546,132.744424
184,松山東署管内,声かけ,令和3年3月11日(木)午後3時10分ころ,松山市朝日ヶ丘二丁目路上,女児小学生が歩行中、車に乗った男に怒鳴られたもの。,,松山市朝日ヶ丘二丁目,松山市朝日ヶ丘二丁目,0,green,,,,,,,,,,,,,,
185,松山東署管内,声かけ,令和3年3月10日(水)午後3時5分ころ,松山市美沢二丁目路上,女児小学生らが歩いて横断歩道を渡ろうとすると、車(赤色、軽四自動車)が来たため渡るのをやめたところ、車に乗った男に暴言を吐かれたもの。,30〜40歳位、やせ型、眼鏡なし,松山市美沢二丁目,松山市美沢二丁目,0,green,38.0,愛媛県,エヒメケン,EHIME KEN,38201.0,松山市,マツヤマシ,MATSUYAMA SHI,美沢二丁目,ミサワ 2,MISAWA 2,,33.849809,132.744542
186,四国中央署管内,写真撮影,令和3年3月9日(火)午後6時5分ころ,四国中央市中之庄町路上,女子中学生が歩いていたところ、男にスマートフォン(銀色)を向けられたもの。,60歳位、やせ型、身長170センチ位、白髪混じり短髪、上下黒色様作業着,四国中央市中之庄町,四国中央市中之庄町,0,lightred,38.0,愛媛県,エヒメケン,EHIME KEN,38213.0,四国中央市,シコクチュウオウシ,SHIKOKUCHUO SHI,中之庄町,ナカノショウチョウ,NAKANOSHOCHO,,33.963258,133.536488
187,松山西署管内,写真撮影,令和3年3月9日(火)午後6時ころ,松山市会津町店舗内,女児小学生が保護者と店内で買い物中、男にスマートフォンで容姿を撮影されたもの。保護者が男に「写真を撮っていましたか。消して。」と声をかけると、男は車(銀色、ステーションワゴン)に乗って逃走した。,35歳位、中肉、身長165センチ位、茶色短髪、紺色ジャンパー、茶色ベスト、紺色ジーパン、マスクなし,松山市会津町,松山市会津町,0,lightred,38.0,愛媛県,エヒメケン,EHIME KEN,38201.0,松山市,マツヤマシ,MATSUYAMA SHI,会津町,アイヅマチ,AIZUMACHI,,33.862186,132.726065
188,四国中央署管内,声かけ,令和3年3月7日(日)午後3時40分ころ,四国中央市土居町天満路上,小学生3名が公園で遊んでいたところ、自転車(カゴに手袋を積載)を押して通りかかった男が、下半身を触りながら、意味不明な言葉をかけてきたもの。,70歳位、中肉、身長165センチ位、上下黒色ジャージ、ニット帽着用,四国中央市土居町天満,四国中央市土居町天満,0,green,38.0,愛媛県,エヒメケン,EHIME KEN,38213.0,四国中央市,シコクチュウオウシ,SHIKOKUCHUO SHI,土居町天満,ドイチョウテンマ,DOICHO TEMMA,,33.978484,133.406257
189,四国中央署管内,つきまとい,令和3年3月5日(金)午後4時20分ころ,四国中央市中曽根町路上,女児小学生が歩いていたところ、男につきまとわれ、凝視されたもの。,40〜50歳位、やせ型、身長170センチ位、暗い茶髪、白色シャツ、青色上着、灰色ズボン、黒色スニーカー着用、黒色かばん・傘所持,四国中央市中曽根町,四国中央市中曽根町,0,blue,38.0,愛媛県,エヒメケン,EHIME KEN,38213.0,四国中央市,シコクチュウオウシ,SHIKOKUCHUO SHI,中曽根町,ナカゾネチョウ,NAKAZONECHO,,33.965099,133.549186
190,今治署管内,声かけ,令和3年3月4日(木)午後3時45分ころ,今治市黄金町三丁目路上,男児小学生が歩いていたところ、停車している車に乗った男に「僕、車に乗っていかん。」と声をかけられたもの。,80歳位、白髪、灰色の服、銀色の軽四自動車利用、白色マスク着用、眼鏡なし,今治市黄金町三丁目,今治市黄金町三丁目,0,green,38.0,愛媛県,エヒメケン,EHIME KEN,38202.0,今治市,イマバリシ,IMABARI SHI,黄金町三丁目,コガネチョウ 3,KOGANECHO 3,,34.062591,133.00491
191,松山東署管内,声かけ,令和3年3月4日(木)午後3時30分ころ,松山市衣山付近走行中の列車内,女児小学生が列車に乗っていたところ、車内に居合わせた男に「ここで降りるんだ。」と声をかけられたもの。数日前には、同一の男に「今何時。」と声をかけられている。,50〜60歳位、黒髪、灰色ジャケット、マスク着用、赤色バッグ所持,松山市衣山,松山市衣山,0,green,,,,,,,,,,,,,,
192,松山西署管内,写真撮影,令和3年3月4日(木)午前7時05分ころ,松山市東大栗町甲路上,男女児小学生3名が歩いていたところ、車に乗った男に近づかれ、車内からスマートフォンを向けられたもの。,30〜40歳位、黒色短髪、自動車利用(薄いメタリックブルー、普通車、コンパクトカー様)、眼鏡なし,松山市東大栗町甲,松山市東大栗町,0,lightred,38.0,愛媛県,エヒメケン,EHIME KEN,38201.0,松山市,マツヤマシ,MATSUYAMA SHI,東大栗町,ヒガシオオグリチョウ,HIGASHIOGURICHO,,33.904426,132.782986
193,松山東署管内,卑わいな言動,令和3年3月3日(水)午後7時30分ころ,松山市余戸中六丁目路上,女子高校生が自転車で走行中、交差点で一時停止したところ、軽四自動車(白色、箱形)に横付けされ、運転席に座っていた男に車内から卑わいな言葉をかけられたもの。,30歳位、中肉、黒色短髪、黒縁眼鏡着用,松山市余戸中六丁目,松山市余戸中六丁目,0,卑わいな言動,38.0,愛媛県,エヒメケン,EHIME KEN,38201.0,松山市,マツヤマシ,MATSUYAMA SHI,余戸中六丁目,ヨウゴナカ 6,YOGONAKA 6,,33.81758,132.733672
194,松山南署管内,写真撮影,令和3年3月2日(火)午後4時35分ころ,東温市北方路上,女子中学生2名が歩いていたところ、対向から歩いてきた男に、すれ違いざま、スマートフォンと黒色一眼レフ様カメラで容姿を撮影されたもの。その後、男はニヤっとした後、走り去った。,20歳位、やせ型、身長180センチ位、前髪が目にかかる程度の黒髪、カーキ色フード付きジャンパー、黒色長ズボン、斜め掛けリュック所持,東温市北方,東温市北方,2,lightred,38.0,愛媛県,エヒメケン,EHIME KEN,38215.0,東温市,トウオンシ,TOON SHI,北方,キタガタ,KITAGATA,,33.820826,132.91541
195,四国中央署管内,住居侵入,令和3年3月1日(月)午後4時ころ,四国中央市土居町北野一般住宅,住民らが庭先にいたところ、男が住宅の敷地に無断で立ち入り、郵便受けに記載された女子児童の名前を読み上げたもの。住民が声をかけるも、男は何も答えず路上に停めてあった自転車(黒色、通学用自転車、前カゴ付き)に乗って走り去った。,20〜25歳位、やせ型、身長160〜170センチ位、黒色短髪、上下黒色ジャージ(白色三本ライン入り)、黒縁眼鏡・黒色ヘルメット着用、ひげなし、黒色スポーツバッグ所持,四国中央市土居町北野,四国中央市土居町北野,0,darkred,38.0,愛媛県,エヒメケン,EHIME KEN,38213.0,四国中央市,シコクチュウオウシ,SHIKOKUCHUO SHI,土居町北野,ドイチョウキタノ,DOICHO KITANO,,33.959404,133.393946
196,松山東署管内,身体露出,令和3年2月27日(土)午後5時10分ころ,松山市南江戸二丁目路上,自転車に跨って、露出した下半身を触っている男の姿が目撃されたもの。,30〜40歳位、中肉、身長170センチ位、天然パーマ様の黒色短髪、上衣:緑色ベスト、黒色長ズボン、黒色自転車利用、黒色スマートフォン所持,松山市南江戸二丁目,松山市南江戸二丁目,0,orange,38.0,愛媛県,エヒメケン,EHIME KEN,38201.0,松山市,マツヤマシ,MATSUYAMA SHI,南江戸二丁目,ミナミエド 2,MINAMIEDO 2,,33.837105,132.747599
197,松山西署管内,不審者,令和3年2月25日(木)午後5時40分ころ,松山市別府町公園,女児小学生2名が公園で遊んでいたところ、バイク(銀色スクーター型、前カゴ付)を駐輪し、煙草を吸っている男に凝視されたもの。,60〜70歳位、小肥、白髪混じり天然パーマ様の巻髪、えんじ色のジャンパー、青色様ジーンズ、黒色手袋様・銀色フルフェイス型ヘルメット着用,松山市別府町,松山市別府町,2,purple,38.0,愛媛県,エヒメケン,EHIME KEN,38201.0,松山市,マツヤマシ,MATSUYAMA SHI,別府町,ベフチョウ,BEFUCHO,,33.846241,132.720868
198,松山東署管内,身体露出,令和3年2月25日(木)午後4時30分ころ,松山市桑原二丁目路上,ズボンを下げ、女性用下着を身に着けた男が自転車を立ちこぎしながら、路上を往復したもの。,50歳位、中肉、身長165〜170センチ位、黒色短髪、黒色様の上衣、ジーパン、女性用ショーツ、自転車利用(銀色、ママチャリ)、マスク着用、髭なし、つり目,松山市桑原二丁目,松山市桑原二丁目,0,orange,38.0,愛媛県,エヒメケン,EHIME KEN,38201.0,松山市,マツヤマシ,MATSUYAMA SHI,桑原二丁目,クワバラ 2,KUWABARA 2,,33.835795,132.791822
199,松山東署管内,卑わいな言動,令和3年2月25日(木)午後0時20分ころ,松山市姫原公園,女子高校生が自転車で走行中、自転車(銀色、前カゴ付き)に乗った男に後方をつきまとわれ、逃げ込んだ公園内で卑わいな言葉をかけられたもの。,30〜40歳位、中肉、黒色短髪、黒色ジャンパー、灰色作業ズボン様、白色マスク着用,松山市姫原,松山市姫原,0,卑わいな言動,,,,,,,,,,,,,,
200,松山東署管内,声かけ,令和3年2月23日(火)午後6時10分ころ,松山市松末一丁目路上から同市三町三丁目路上までの間,女性が自転車で走行中、自転車(軽快兼用、前カゴ付き)に乗った男に並走され、「こんにちは、素敵な出会いですね、どこか行きましょう。」と声をかけられたもの。,30〜35歳位、やせ型、坊主頭、ベージュ色セーター、丸型の眼鏡着用、マスクなし,松山市松末一丁目,松山市松末一丁目,0,green,38.0,愛媛県,エヒメケン,EHIME KEN,38201.0,松山市,マツヤマシ,MATSUYAMA SHI,松末一丁目,マツスエ 1,MATSUSUE 1,,33.826837,132.790334
201,松山東署管内,声かけ,令和3年2月22日(月)午後2時10分ころ,松山市畑寺三丁目から四丁目までの路上,女児小学生が徒歩で移動中、自転車に乗った男に何かボソボソと声をかけられ、ニヤつかれたもの。,30〜40歳位、中肉、灰色スウェット、マスク着用,松山市畑寺三丁目から四丁目までの,松山市畑寺三丁目から四丁目まで,0,green,,,,,,,,,,,,,,
202,新居浜署管内,写真撮影,令和3年2月22日(月)午前8時ころ,新居浜市瀬戸町路上から同市岸の上町一丁目路上までの間,男児小学生が歩いていたところ、車に乗った男に複数回にわたってスマートフォンを向けられ、つきまとわれたもの。,60歳位、灰色自動車利用、スマートフォン所持,新居浜市瀬戸町,新居浜市瀬戸町,0,lightred,38.0,愛媛県,エヒメケン,EHIME KEN,38205.0,新居浜市,ニイハマシ,NIIHAMA SHI,瀬戸町,セトチョウ,SETOCHO,,33.944717,133.3005
203,四国中央署管内,声かけ,令和3年2月21日(日)午後5時20分ころ,四国中央市土居町入野路上,女性が農作業中、男にトイレの場所を尋ねられたが無視していると、他の通行人には声をかけず立ち去ったもの。なお、数か月前にも同じ行為者から同様の声かけをされている。,20〜30歳位、やせ型、身長170センチ位、黒色短髪、黒色長袖上衣、緑色スウェットズボン、黒縁眼鏡着用、黒色リュックサック所持,四国中央市土居町入野,四国中央市土居町入野,0,green,38.0,愛媛県,エヒメケン,EHIME KEN,38213.0,四国中央市,シコクチュウオウシ,SHIKOKUCHUO SHI,土居町入野,ドイチョウイリノ,DOICHO IRINO,,33.950339,133.421129
204,松山西署管内,声かけ,令和3年2月21日(日)午後2時30分ころ,松山市西垣生町公園,女児小学生4名が公園で遊んでいたところ、男に「名前なんて言うんぞ。」「何年生ぞ。」「なんでマスクつけとるんぞ。」などと声をかけられたもの。,75〜80歳位、中肉、身長160センチ位、白髪混じりの短髪、白色長袖シャツ、肌色ベスト(ケチャップ様の汚れが付着している)、長ズボン、黒色スニーカー・黒色キャップ帽・銀縁眼鏡着用、目の下にほくろがある,松山市西垣生町,松山市西垣生町,0,green,38.0,愛媛県,エヒメケン,EHIME KEN,38201.0,松山市,マツヤマシ,MATSUYAMA SHI,西垣生町,ニシハブマチ,NISHIHABUMACHI,,33.813675,132.701207
205,大洲署管内,声かけ,令和3年2月20日(土)午前10時ころ,喜多郡内子町大瀬中央路上,女児小学生が自転車で走行中、男に「望遠鏡を見せてあげる。」と声をかけられたもの。,60〜70歳位、中肉、身長170センチ位、白髪、黒色上衣、望遠鏡所持、マスクなし,喜多郡内子町大瀬中央,喜多郡内子町大瀬中央,0,green,38.0,愛媛県,エヒメケン,EHIME KEN,38422.0,喜多郡内子町,キタグンウチコチョウ,KITA GUN UCHIKO CHO,大瀬中央,オオセチュウオウ,OSECHUO(UKAWA.OKUBO.OTSUNARI.NAKANO,,33.600222,132.734117
206,四国中央署管内,のぞき・盗撮,令和3年2月18日(木)午後11時ころ,四国中央市金生町下分一般住宅敷地内,女性が脱衣所にいたところ、男に脱衣所の窓から覗かれたもの。,若い男、やせ型、顔が小さめ,四国中央市金生町下分,四国中央市金生町下分,1,pink,38.0,愛媛県,エヒメケン,EHIME KEN,38213.0,四国中央市,シコクチュウオウシ,SHIKOKUCHUO SHI,金生町下分,キンセイチョウシモブン,KINSEICHO SHIMOBUN,,34.00079,133.582415
207,松山南署管内,不審者,令和3年2月18日(木)午後8時ころ,松山市福音寺町店舗駐車場内,営業中の店舗周辺を徘徊しながら、店舗内を覗き込む男がいたもの。男は、店舗従業員が声かけするも、無視して徘徊を続けた後、立ち去った。,60〜70歳位、中肉、身長160センチ位、黒色ダウンジャケット、黒色ズボン、黒色ニット帽着用,松山市福音寺町,松山市福音寺町,1,purple,38.0,愛媛県,エヒメケン,EHIME KEN,38201.0,松山市,マツヤマシ,MATSUYAMA SHI,福音寺町,フクオンジマチ,FUKUONJIMACHI,,33.821822,132.790842
208,松山東署管内,不審者,令和3年2月18日(木)午前7時20分ころ,松山市辻町路上,男児小学生が歩いていたところ、前方から歩いてきた男とすれ違った後、反転した男に近づかれ、凝視されたもの。,40歳位、中肉、身長175センチ位、短髪、黒色ダウンジャケット、黒色ズボン、黒色キャップ帽・黒色マスク着用、目が細い,松山市辻町,松山市辻町,0,purple,38.0,愛媛県,エヒメケン,EHIME KEN,38201.0,松山市,マツヤマシ,MATSUYAMA SHI,辻町,ツジマチ,TSUJIMACHI,,33.84332,132.748952
209,松山東署管内,声かけ,令和3年2月16日(火)午後5時ころ,松山市宮西二丁目路上,女子高校生が自転車で走行中、信号待ちで停車していると、付近に立っていた男に「後ろに乗せてくれん。」と声をかけられたもの。女子高校生がこれを断ると、男は「あっそ。」と言い、立ち去った。,20〜30歳位、黒色様の上衣、白色様帽子・白色マスク着用,松山市宮西二丁目,松山市宮西二丁目,0,green,38.0,愛媛県,エヒメケン,EHIME KEN,38201.0,松山市,マツヤマシ,MATSUYAMA SHI,宮西二丁目,ミヤニシ 2,MIYANISHI 2,,33.848687,132.752838
210,宇和島署管内,声かけ,令和3年2月16日(火)午後4時40分ころ,宇和島市伊吹町路上,女児小学生が徒歩で移動中、前方から近づいてきた男にお辞儀をしたところ、「一緒に家に行かない。」と声をかけられたもの。,50〜60歳位、肥満、身長165センチ位、白髪混じりで頭頂部がはげ、黒色パーカー(胸元に白色の英語文字入り)、ズボン、黒色マスク着用、眼鏡なし,宇和島市伊吹町,宇和島市伊吹町,0,green,38.0,愛媛県,エヒメケン,EHIME KEN,38203.0,宇和島市,ウワジマシ,UWAJIMA SHI,伊吹町,イブキチョウ,IBUKICHO,,33.234583,132.579287
211,宇和島署管内,声かけ,令和3年2月16日(火)午後4時40分ころ,宇和島市伊吹町路上,女児小学生が徒歩で移動中、前方から近づいてきた男にお辞儀をしたところ、「一緒に家に行かない。」と声をかけられたもの。,50〜60歳位、肥満、身長165センチ位、白髪混じりで頭頂部がはげ、黒色パーカー(胸元に白色の英語文字入り)、ズボン、黒色マスク着用、眼鏡なし,宇和島市伊吹町,宇和島市伊吹町,0,green,38.0,愛媛県,エヒメケン,EHIME KEN,38203.0,宇和島市,ウワジマシ,UWAJIMA SHI,伊吹町,イブキチョウ,IBUKICHO,北宇和島町,33.237717,132.565731
212,宇和島署管内,声かけ,令和3年2月16日(火)午後4時40分ころ,宇和島市伊吹町路上,女児小学生が徒歩で移動中、前方から近づいてきた男にお辞儀をしたところ、「一緒に家に行かない。」と声をかけられたもの。,50〜60歳位、肥満、身長165センチ位、白髪混じりで頭頂部がはげ、黒色パーカー(胸元に白色の英語文字入り)、ズボン、黒色マスク着用、眼鏡なし,宇和島市伊吹町,宇和島市伊吹町,0,green,38.0,愛媛県,エヒメケン,EHIME KEN,38203.0,宇和島市,ウワジマシ,UWAJIMA SHI,伊吹町,イブキチョウ,IBUKICHO,上井関,33.237591,132.568252
213,宇和島署管内,声かけ,令和3年2月16日(火)午後4時40分ころ,宇和島市伊吹町路上,女児小学生が徒歩で移動中、前方から近づいてきた男にお辞儀をしたところ、「一緒に家に行かない。」と声をかけられたもの。,50〜60歳位、肥満、身長165センチ位、白髪混じりで頭頂部がはげ、黒色パーカー(胸元に白色の英語文字入り)、ズボン、黒色マスク着用、眼鏡なし,宇和島市伊吹町,宇和島市伊吹町,0,green,38.0,愛媛県,エヒメケン,EHIME KEN,38203.0,宇和島市,ウワジマシ,UWAJIMA SHI,伊吹町,イブキチョウ,IBUKICHO,カネツキ田,33.239498,132.569463
214,松山西署管内,声かけ,令和3年2月16日(火)午後4時30分ころ,松山市馬木町路上,女児小学生2名が路上にいたところ、自転車に乗った男に「ジュース代あげる。」などと声をかけられたもの。,60〜70歳位、中肉、身長160〜170センチ位、耳にかからない程度の白色短髪、ウィンドブレーカー、自転車利用(ママチャリ様、前カゴ付き)、白色マスク着用,松山市馬木町,松山市馬木町,0,green,38.0,愛媛県,エヒメケン,EHIME KEN,38201.0,松山市,マツヤマシ,MATSUYAMA SHI,馬木町,ウマキチョウ,UMAKICHO,,33.893107,132.744688
215,宇和島署管内,暴行,令和3年2月15日(月)午後5時ころ,宇和島市柿原甲路上,女児小学生が歩いていたところ、自転車に乗った男に後方から近づかれ、「覚えとけよ。」などと言われながら、頭を1回叩かれたもの。,60歳位、中肉、黒色パーカーの下にチェック柄シャツ、青色ズボン、青色ニット帽・黒色マスク着用、眼鏡なし、銀色軽快兼用自転車利用,宇和島市柿原甲,宇和島市柿原,0,red,38.0,愛媛県,エヒメケン,EHIME KEN,38203.0,宇和島市,ウワジマシ,UWAJIMA SHI,柿原,カキハラ,KAKIHARA,,33.239534,132.594091
216,松山南署管内,声かけ,令和3年2月15日(月)午後4時20分ころ,松山市和泉南一丁目路上,女児小学生2名が路上にいたところ、車に乗って近づいてきた男に「飴いる。」と声をかけられ、断ると、地面に向けて飴を投げつけられたもの。,60〜70歳位、中肉、黒色短髪、黒色ジャージ、黒色スウェットズボン、コンパクトカー様の黒色自動車利用、銀色で細いフレームの眼鏡着用,松山市和泉南一丁目,松山市和泉南一丁目,1,green,38.0,愛媛県,エヒメケン,EHIME KEN,38201.0,松山市,マツヤマシ,MATSUYAMA SHI,和泉南一丁目,イズミミナミ 1,IZUMIMINAMI 1,,33.818264,132.764546
217,松山東署管内,つきまとい,令和3年2月14日(日)午後6時10分ころ,松山市湯渡町路上から同市石手五丁目路上までの間,女性が車で走行中、車(灰色、軽四箱バン)に乗った男に後方を執拗につきまとわれ、女性が駐車場に入った後も付近に停車し、車内から凝視してきたもの。,黒色マスク着用,松山市湯渡町,松山市湯渡町,0,blue,38.0,愛媛県,エヒメケン,EHIME KEN,38201.0,松山市,マツヤマシ,MATSUYAMA SHI,湯渡町,ユワタリマチ,YUWATARIMACHI,,33.840046,132.783517
218,宇和島署管内,ちかん,令和3年2月14日(日)午後2時30分ころ,宇和島市伊吹町甲店舗内,女性が店舗で勤務中、後方を通過した男に手で臀部を軽く触れられた。後刻、同所において、別の従業員も同様に臀部を触れられたもの。,40〜50歳位、中肉、身長160センチ位、黒色長髪、黄色と灰色のトレーナー、黒色様スラックス、白色軽四乗用自動車利用、黒縁眼鏡・白色マスク・黒色様靴着用,宇和島市伊吹町甲,宇和島市伊吹町,1,gray,38.0,愛媛県,エヒメケン,EHIME KEN,38203.0,宇和島市,ウワジマシ,UWAJIMA SHI,伊吹町,イブキチョウ,IBUKICHO,,33.234583,132.579287
219,宇和島署管内,ちかん,令和3年2月14日(日)午後2時30分ころ,宇和島市伊吹町甲店舗内,女性が店舗で勤務中、後方を通過した男に手で臀部を軽く触れられた。後刻、同所において、別の従業員も同様に臀部を触れられたもの。,40〜50歳位、中肉、身長160センチ位、黒色長髪、黄色と灰色のトレーナー、黒色様スラックス、白色軽四乗用自動車利用、黒縁眼鏡・白色マスク・黒色様靴着用,宇和島市伊吹町甲,宇和島市伊吹町,1,gray,38.0,愛媛県,エヒメケン,EHIME KEN,38203.0,宇和島市,ウワジマシ,UWAJIMA SHI,伊吹町,イブキチョウ,IBUKICHO,北宇和島町,33.237717,132.565731
220,宇和島署管内,ちかん,令和3年2月14日(日)午後2時30分ころ,宇和島市伊吹町甲店舗内,女性が店舗で勤務中、後方を通過した男に手で臀部を軽く触れられた。後刻、同所において、別の従業員も同様に臀部を触れられたもの。,40〜50歳位、中肉、身長160センチ位、黒色長髪、黄色と灰色のトレーナー、黒色様スラックス、白色軽四乗用自動車利用、黒縁眼鏡・白色マスク・黒色様靴着用,宇和島市伊吹町甲,宇和島市伊吹町,1,gray,38.0,愛媛県,エヒメケン,EHIME KEN,38203.0,宇和島市,ウワジマシ,UWAJIMA SHI,伊吹町,イブキチョウ,IBUKICHO,上井関,33.237591,132.568252
221,宇和島署管内,ちかん,令和3年2月14日(日)午後2時30分ころ,宇和島市伊吹町甲店舗内,女性が店舗で勤務中、後方を通過した男に手で臀部を軽く触れられた。後刻、同所において、別の従業員も同様に臀部を触れられたもの。,40〜50歳位、中肉、身長160センチ位、黒色長髪、黄色と灰色のトレーナー、黒色様スラックス、白色軽四乗用自動車利用、黒縁眼鏡・白色マスク・黒色様靴着用,宇和島市伊吹町甲,宇和島市伊吹町,1,gray,38.0,愛媛県,エヒメケン,EHIME KEN,38203.0,宇和島市,ウワジマシ,UWAJIMA SHI,伊吹町,イブキチョウ,IBUKICHO,カネツキ田,33.239498,132.569463
222,松山東署管内,つきまとい,令和3年2月14日(日)午前2時50分ころ,松山市三番町路上から同市清水町一丁目路上までの間,女性が自転車で走行中、自転車に乗った男に後方をつきまとわれたもの。,20〜30歳位、身長160センチ位、中肉、耳にかかる程度の黒髪、黒色様上衣、黒色様ズボン、白色マスク着用、眼鏡なし、黒色様自転車(後部荷台にビニールカバーで覆われた荷物積載)利用,松山市三番町,松山市三番町,0,blue,,,,,,,,,,,,,,
223,松山西署管内,写真撮影,令和3年2月11日(木)午前9時35分ころ,松山市西垣生町公園内,女児小学生2名が公園内で遊んでいたところ、付近に車を停めて降りてきた男2名が公園内の写真を大量に撮り始め、女児小学生らにもカメラを向け、写真を撮られたもの。男らは、写真を撮った後、車で立ち去った。,A(50〜60歳位、身長170センチ位、やせ型、上下緑色様の服、帽子着用、携帯電話所持)、B(50〜60歳位、身長170センチ位、やせ型、上下緑色様の服、帽子着用)、白色セダン型自動車利用,松山市西垣生町,松山市西垣生町,1,lightred,38.0,愛媛県,エヒメケン,EHIME KEN,38201.0,松山市,マツヤマシ,MATSUYAMA SHI,西垣生町,ニシハブマチ,NISHIHABUMACHI,,33.813675,132.701207
224,松山南署管内,不審者,令和3年2月9日(火)午後6時5分ころ,松山市東方町甲一般住宅,女児小学生が自宅の玄関先にいたところ、自宅と隣家の間に入り込んだ男が女児小学生の様子を窺いながら塀を叩いているのを目撃したもの。,35〜40歳位、身長175センチ位、やせ型、耳が隠れる長さの黒髪、黒色ジャンパー、黒色ズボン、黒色サングラス、黒色マスク、暗色ニット帽、赤色と黒色のチェック柄手袋着用,松山市東方町甲,松山市東方町,2,purple,38.0,愛媛県,エヒメケン,EHIME KEN,38201.0,松山市,マツヤマシ,MATSUYAMA SHI,東方町,ヒガシガタマチ,HIGASHIGATAMACHI,,33.763088,132.820612
225,宇和島署管内,暴行,令和3年2月9日(火)午後5時ころ,宇和島市伊吹町路上,男児小学生が徒歩で移動中、道端に立っていた男に挨拶をしたところ、「うるさいてや、近所迷惑になるぞ。」と怒鳴られた。その後、男児小学生が男の前を通り過ぎると、後ろから自転車に乗った男に追い越され、自転車から降りて近づいてきた男に肩を1回叩かれ、「今度からは黙って下校しろ。」などと言われたもの。,60歳位、身長170センチ位、やせ型、ボサボサの白色短髪、インナー様の青色長袖シャツ(左胸に白色でロゴ入り)、黒色様長ズボン,宇和島市伊吹町,宇和島市伊吹町,2,red,38.0,愛媛県,エヒメケン,EHIME KEN,38203.0,宇和島市,ウワジマシ,UWAJIMA SHI,伊吹町,イブキチョウ,IBUKICHO,,33.234583,132.579287
226,宇和島署管内,暴行,令和3年2月9日(火)午後5時ころ,宇和島市伊吹町路上,男児小学生が徒歩で移動中、道端に立っていた男に挨拶をしたところ、「うるさいてや、近所迷惑になるぞ。」と怒鳴られた。その後、男児小学生が男の前を通り過ぎると、後ろから自転車に乗った男に追い越され、自転車から降りて近づいてきた男に肩を1回叩かれ、「今度からは黙って下校しろ。」などと言われたもの。,60歳位、身長170センチ位、やせ型、ボサボサの白色短髪、インナー様の青色長袖シャツ(左胸に白色でロゴ入り)、黒色様長ズボン,宇和島市伊吹町,宇和島市伊吹町,2,red,38.0,愛媛県,エヒメケン,EHIME KEN,38203.0,宇和島市,ウワジマシ,UWAJIMA SHI,伊吹町,イブキチョウ,IBUKICHO,北宇和島町,33.237717,132.565731
227,宇和島署管内,暴行,令和3年2月9日(火)午後5時ころ,宇和島市伊吹町路上,男児小学生が徒歩で移動中、道端に立っていた男に挨拶をしたところ、「うるさいてや、近所迷惑になるぞ。」と怒鳴られた。その後、男児小学生が男の前を通り過ぎると、後ろから自転車に乗った男に追い越され、自転車から降りて近づいてきた男に肩を1回叩かれ、「今度からは黙って下校しろ。」などと言われたもの。,60歳位、身長170センチ位、やせ型、ボサボサの白色短髪、インナー様の青色長袖シャツ(左胸に白色でロゴ入り)、黒色様長ズボン,宇和島市伊吹町,宇和島市伊吹町,2,red,38.0,愛媛県,エヒメケン,EHIME KEN,38203.0,宇和島市,ウワジマシ,UWAJIMA SHI,伊吹町,イブキチョウ,IBUKICHO,上井関,33.237591,132.568252
228,宇和島署管内,暴行,令和3年2月9日(火)午後5時ころ,宇和島市伊吹町路上,男児小学生が徒歩で移動中、道端に立っていた男に挨拶をしたところ、「うるさいてや、近所迷惑になるぞ。」と怒鳴られた。その後、男児小学生が男の前を通り過ぎると、後ろから自転車に乗った男に追い越され、自転車から降りて近づいてきた男に肩を1回叩かれ、「今度からは黙って下校しろ。」などと言われたもの。,60歳位、身長170センチ位、やせ型、ボサボサの白色短髪、インナー様の青色長袖シャツ(左胸に白色でロゴ入り)、黒色様長ズボン,宇和島市伊吹町,宇和島市伊吹町,2,red,38.0,愛媛県,エヒメケン,EHIME KEN,38203.0,宇和島市,ウワジマシ,UWAJIMA SHI,伊吹町,イブキチョウ,IBUKICHO,カネツキ田,33.239498,132.569463
229,四国中央署管内,声かけ,令和3年2月9日(火)午後3時10分ころ,四国中央市金生町下分路上,女児小学生が歩いていたところ、対向してきた車が付近の駐車場に停まり、車から降りてきた男に「一緒に乗っていこう。」と声をかけられたもの。女児小学生が走って逃げると、男は車で走り去った。,小肥、身長165センチ位、横側は短く後ろ髪が肩にかかる長さの黒髪、赤色と緑色のチェック柄シャツ、ベージュ色ズボン、黒色キャップ帽、サングラス、ピンク色サンダル着用、マスクなし、年配ではない、日焼けした肌、白色軽四貨物車利用,四国中央市金生町下分,四国中央市金生町下分,2,green,38.0,愛媛県,エヒメケン,EHIME KEN,38213.0,四国中央市,シコクチュウオウシ,SHIKOKUCHUO SHI,金生町下分,キンセイチョウシモブン,KINSEICHO SHIMOBUN,,34.00079,133.582415
230,新居浜署管内,写真撮影,令和3年2月6日(土)午後8時ころ,新居浜市高木町店舗内,女子高校生ら3名が店舗を訪れ自転車を駐輪していたところ、店内から女子高校生らの様子を窺う男に気が付いた。その後、女子高校生らが飲食していたところ、男が女子高校生らに携帯電話機のレンズを向けながらテーブル脇を通り過ぎたもの。,30〜40歳位、小肥、スキンヘッド、黒縁眼鏡、暗色の手提げバッグ4個程度所持、黒色系の自動車(小型、車高が低い)利用,新居浜市高木町,新居浜市高木町,0,lightred,38.0,愛媛県,エヒメケン,EHIME KEN,38205.0,新居浜市,ニイハマシ,NIIHAMA SHI,高木町,タカギチョウ,TAKAGICHO,,33.951505,133.285612
231,松山南署管内,写真撮影,令和3年2月6日(土)午後1時ころ,松山市天山一丁目店舗内,女性が小学生の娘と2人で店舗内を移動中、男に後方をつきまとわれ、携帯電話のカメラを向けられたもの。,50〜60歳位、中肉、耳にかかる長さの黒髪、灰色とピンク色ボーダー柄セーター、茶色様柄入り長ズボン、白色マスク・茶色靴着用、黒色ガラケー所持,松山市天山一丁目,松山市天山一丁目,2,lightred,38.0,愛媛県,エヒメケン,EHIME KEN,38201.0,松山市,マツヤマシ,MATSUYAMA SHI,天山一丁目,アマヤマ 1,AMAYAMA 1,,33.822489,132.778633
232,松山東署管内,声かけ,令和3年2月5日(金)午前0時30分ころ,松山市大街道三丁目路上及び同市平和通二丁目路上,女性が自転車で移動中、車(白色、セダン型)で並走してきた男に車内から「ドライブに行こう。」と声をかけられ、断るも、別の場所に再度現れ、車から降りてきた男に太ももを触られながら卑わいな言葉を言われたもの。,20歳位、中肉、身長170センチ位、茶髪パーマ、黒色様ジャンパー、ベージュ色様長ズボン、色白、マスク・眼鏡・髭なし,松山市大街道三丁目,松山市大街道三丁目,0,green,38.0,愛媛県,エヒメケン,EHIME KEN,38201.0,松山市,マツヤマシ,MATSUYAMA SHI,大街道三丁目,オオカイドウ 3,OKAIDO 3,,33.843224,132.770284
233,新居浜署管内,つきまとい,令和3年2月3日(水)午後3時20分ころ,新居浜市又野一丁目路上から同市又野三丁目までの間,女児小学生が歩いていたところ、挨拶してすれ違った自転車(前カゴ付)に乗った男が再び現れ、つきまとわれたもの。,40〜50歳位、やせ型、赤縁眼鏡着用、色白,新居浜市又野一丁目,新居浜市又野一丁目,0,blue,38.0,愛媛県,エヒメケン,EHIME KEN,38205.0,新居浜市,ニイハマシ,NIIHAMA SHI,又野一丁目,マタノ 1,MATANO 1,,33.971004,133.325672
234,松山南署管内,写真撮影,令和3年2月3日(水)午前10時05分ころ,松山市平井町甲路上,園児らが児童施設の敷地内で遊んでいたところ、男にスマートフォン(黒色)を向けられたもの。,30〜40歳位、身長170センチ位、小肥、黒色短髪、黒色ダウンジャケット、ベージュ色チノパン、黒色マスク・白色靴着用,松山市平井町甲,松山市平井町,1,lightred,38.0,愛媛県,エヒメケン,EHIME KEN,38201.0,松山市,マツヤマシ,MATSUYAMA SHI,平井町,ヒライマチ,HIRAIMACHI,,33.824694,132.836156
235,宇和島署管内,声かけ,令和3年1月30日(土)午後5時35分ころ,宇和島市鶴島町路上,女児小学生2名が施設を出たところ、施設内で独り言を言っていた男に近づいてこられ、意味不明の言葉をかけられたり、「一緒にトイレに行こう。」と言われたもの。断ると、男は歩いて立ち去った。,60〜70歳位、小肥、身長170センチ位、白色短髪、上下黒色様の服、灰色シャツ、白色マスク・黒色と白色の靴(スニーカー)着用、色黒、ポケットに手を突っ込んでいた,宇和島市鶴島町,宇和島市鶴島町,0,green,38.0,愛媛県,エヒメケン,EHIME KEN,38203.0,宇和島市,ウワジマシ,UWAJIMA SHI,鶴島町,ツルシマチョウ,TSURUSHIMACHO,,33.226361,132.565391
236,大洲署管内,つきまとい,令和3年1月28日(木)午後4時30分ころ,大洲市東大洲路上,女子中学生が歩いていたところ、前方からきた男に凝視され、すれ違った後、Uターンした男に追いかけられたもの。,65〜70歳位、中肉、白色短髪、黒か灰色の長袖、銀色自転車利用(前カゴ付)、マスク・サングラス着用,大洲市東大洲,大洲市東大洲,0,blue,38.0,愛媛県,エヒメケン,EHIME KEN,38207.0,大洲市,オオズシ,OZU SHI,東大洲,ヒガシオオズ,HIGASHIOZU,,33.527646,132.571139
237,伊予署管内,声かけ,令和3年1月28日(木)午後3時30分ころ,伊予郡松前町大字昌農内路上,女児小学生が歩いていたところ、男に道を聞かれ答えると、名札を持ち上げるように触られた上、顔を近づけられたもの。,60〜70歳位、中肉、茶色コート、長ズボン、茶色ハット帽・黒色様靴・白色紙マスク着用、茶色手提げかばん所持,伊予郡松前町大字昌農内,伊予郡松前町大字昌農内,0,green,38.0,愛媛県,エヒメケン,EHIME KEN,38401.0,伊予郡松前町,イヨグンマサキチョウ,IYO GUN MASAKI CHO,大字昌農内,,,,33.800268,132.720447
238,松山西署管内,声かけ,令和3年1月27日(水)午後5時10分ころ,松山市南斎院町路上,女性が勤務を終え、駐車場まで徒歩で移動中、後方から歩いてきた男と肩がぶつかり、「痛い、痛い」と言いながら近づいてこられたもの。女性が男の相手をせず、車に乗り込むと、車の窓を手で叩かれ、聞き取れない言葉をかけられた。,30歳位、中肉、身長160センチ位、黒色短髪(前髪やや長め)、白色ジャンパー(一部黒色で背面にイラスト入り)、黒色長ズボン、黒色サングラス・黒色マスク着用、髭なし,松山市南斎院町,松山市南斎院町,1,green,38.0,愛媛県,エヒメケン,EHIME KEN,38201.0,松山市,マツヤマシ,MATSUYAMA SHI,南斎院町,ミナミサヤチョウ,MINAMISAYACHO,,33.83303,132.731679
239,松山西署管内,つきまとい,令和3年1月27日(水)午後4時ころ,松山市八反地路上,小学生らが歩いていたところ、後方を男につきまとわれたもの。,50〜60歳位、身長170センチ位、ベージュ色ナイロン製長袖、黒色長ズボン、ニット帽・マスク・ネックウォーマー着用,松山市八反地,松山市八反地,0,blue,38.0,愛媛県,エヒメケン,EHIME KEN,38201.0,松山市,マツヤマシ,MATSUYAMA SHI,八反地,ハッタンジ,HATTANJI,,33.965262,132.791637
240,松山東署管内,声かけ,令和3年1月26日(火)午前8時ころ,松山市枝松四丁目駐車場内,男子中学生が車から降車中、男に大声で何か言われたもの。,40〜50歳位、やせ型、身長180センチ位、白色Tシャツ、薄い灰色の羽織、黒色ズボン、黒色ニット帽着用、マスク・髭なし、煙草を吸っていた,松山市枝松四丁目,松山市枝松四丁目,1,green,38.0,愛媛県,エヒメケン,EHIME KEN,38201.0,松山市,マツヤマシ,MATSUYAMA SHI,枝松四丁目,エダマツ 4,EDAMATSU 4,,33.830769,132.784912
241,松山東署管内,声かけ,令和3年1月26日(火)午前7時50分ころ,松山市道後町二丁目路上,女子中学生が歩いていたところ、女に「死ね。お前なんかいらんのじゃ。」などと怒鳴られ、追いかけられたもの。,40〜50歳位、小肥、身長150〜160センチ位、黒髪ショートカット、エプロン、赤色縁の眼鏡着用,松山市道後町二丁目,松山市道後町二丁目,0,green,38.0,愛媛県,エヒメケン,EHIME KEN,38201.0,松山市,マツヤマシ,MATSUYAMA SHI,道後町二丁目,ドウゴマチ 2,DOGOMACHI 2,,33.848894,132.781027
242,松山東署管内,つきまとい,令和3年1月23日(土)午後8時ころ,松山市三番町一丁目路上,女性が店舗を出たところ、店先にいた男に後をつけられたもの。,50〜60歳位、やせ型、身長170センチ位、白色短髪、灰色ナイロン製ジャケット、黒色長ズボン、眼鏡・マスク着用、帽子なし,松山市三番町一丁目,松山市三番町一丁目,0,blue,38.0,愛媛県,エヒメケン,EHIME KEN,38201.0,松山市,マツヤマシ,MATSUYAMA SHI,三番町一丁目,サンバンチョウ 1,SAMBANCHO 1,,33.838004,132.773579
243,大洲署管内,写真撮影,令和3年1月22日(金)午後4時ころ,大洲市中村路上,女児小学生が歩いていたところ、車に乗った男に、カメラを向けられたもの。,40歳位、灰色自動車利用(細長い型)、眼鏡着用、一眼レフ様黒色カメラ所持,大洲市中村,大洲市中村,0,lightred,38.0,愛媛県,エヒメケン,EHIME KEN,38207.0,大洲市,オオズシ,OZU SHI,中村,ナカムラ,NAKAMURA,,33.514703,132.54232
244,新居浜署管内,声かけ,令和3年1月22日(金)午前7時30分ころ,新居浜市繁本町路上,小学生男女2名が路上にいたところ、男に「鍵をなくしたので一緒に探してほしい。」と声をかけられ、一緒に探していると、小学生女児がかがんで探している姿を、男にスマートフォンで撮影されたもの。,20〜30歳位、身長170センチ位、黒髪、上下黒色ウィンドブレーカー,新居浜市繁本町,新居浜市繁本町,0,green,38.0,愛媛県,エヒメケン,EHIME KEN,38205.0,新居浜市,ニイハマシ,NIIHAMA SHI,繁本町,シゲモトチョウ,SHIGEMOTOCHO,,33.962307,133.281577
245,大洲署管内,住居侵入,令和3年1月22日(金)午前0時20分ころ,大洲市西大洲マンション,男性が帰宅したところ、自宅玄関から全裸の男が飛び出してきたもの。,20〜50歳位、中肉、身長170センチ位、黒色短髪、全裸,大洲市西大洲,大洲市西大洲,0,darkred,38.0,愛媛県,エヒメケン,EHIME KEN,38207.0,大洲市,オオズシ,OZU SHI,西大洲,ニシオオズ,NISHIOZU,,33.50053,132.530027
246,大洲署管内,住居侵入,令和3年1月22日(金)午前0時20分ころ,大洲市西大洲マンション,男性が帰宅したところ、自宅玄関から全裸の男が飛び出してきたもの。,20〜50歳位、中肉、身長170センチ位、黒色短髪、全裸,大洲市西大洲,大洲市西大洲,0,darkred,38.0,愛媛県,エヒメケン,EHIME KEN,38207.0,大洲市,オオズシ,OZU SHI,西大洲,ニシオオズ,NISHIOZU,ヤスバ甲,33.504754,132.525711
247,松山東署管内,声かけ,令和3年1月21日(木)午後4時10分ころ,松山市高砂町一丁目路上,女児小学生が歩いていたところ、車に乗った男から「飴あげるから車に乗らない。」と声をかけられたもの。,40歳位、中肉、黒色短髪、濃紺色ジャンパー、白色の軽四自動車利用、無精ひげあり、マスク・眼鏡・帽子なし,松山市高砂町一丁目,松山市高砂町一丁目,0,green,38.0,愛媛県,エヒメケン,EHIME KEN,38201.0,松山市,マツヤマシ,MATSUYAMA SHI,高砂町一丁目,タカサゴマチ 1,TAKASAGOMACHI 1,,33.848564,132.761978
248,松山東署管内,身体露出,令和3年1月21日(木)午後4時30分ころ,松山市中村一丁目駐車場,男子小学生が男に下半身を見せられた。,若い感じ、中肉、170-180cm位、黒髪短髪、黒色の服、徒歩,松山市中村一丁目,松山市中村一丁目,1,orange,38.0,愛媛県,エヒメケン,EHIME KEN,38201.0,松山市,マツヤマシ,MATSUYAMA SHI,中村一丁目,ナカムラ 1,NAKAMURA 1,,33.834948,132.777786
249,松山南署管内,声かけ,令和3年1月20日(水)午後8時10分ころ,松山市東石井四丁目路上,自転車で帰宅中の女子高校生が、自転車に乗った男に道を尋ねられた後、「よかったらスカートの中のパンツ見せて。」と声をかけられた。,30歳位、小太り、165-170,松山市東石井四丁目,松山市東石井四丁目,0,green,38.0,愛媛県,エヒメケン,EHIME KEN,38201.0,松山市,マツヤマシ,MATSUYAMA SHI,東石井四丁目,ヒガシイシイ 4,HIGASHIISHII 4,,33.812216,132.781068
