,管轄署,種別,日時,場所,状況,特徴,住所,address,count,color,都道府県コード,都道府県名,都道府県名カナ,都道府県名ローマ字,市区町村コード,市区町村名,市区町村名カナ,市区町村名ローマ字,大字町丁目名,大字町丁目名カナ,大字町丁目名ローマ字,小字・通称名,緯度,経度
0,松山南署管内,身体露出,令和5年9月18日(月)午後5時20分ころ,松山市和泉南一丁目の路上,男が、路上で下半身を露出した上、所持していた携 帯電話を女性に向けながら「すいません。見てください。」と声をかけてきたもの。,35-45歳位、170cm位、やせ型、黒色短髪、長ズボン、眼鏡着用、携帯電話機所持,松山市和泉南一丁目の,松山市和泉南一丁目,0,orange,38.0,愛媛県,エヒメケン,EHIME KEN,38201.0,松山市,マツヤマシ,MATSUYAMA SHI,和泉南一丁目,イズミミナミ 1,IZUMIMINAMI 1,,33.818264,132.764546
1,松山南署管内,身体露出,令和5年9月17日(日)午後10時ころ,東温市北方の集合住宅敷地内,男が、集合住宅敷地内で下半身を露出させて立ってい たもの。女性が立ち去ろうとすると、男は口を開けて近づいてきた。,30歳位、170cm位、中肉、黒色短髪、白色ポロシャツ、長ズボン,東温市北方の集合,東温市北方の集合,0,orange,,,,,,,,,,,,,,
2,松山東署管内,声かけ,令和5年9月17日(日)午前6時50分ころ,松山市針田町の店舗敷地内,女性が店舗喫煙所で喫煙中、同様に喫煙していた知らない男に「かわいいね。」等と言われ頭を撫でられたもの。,60-70歳位、160cm位、中肉、パーマ(白髪、耳が隠れる長さ)、長袖ワイシャツ(ストライプ柄)、紺色作業ズボン、電子タバコ所持,松山市針田町の,松山市針田町,0,green,38.0,愛媛県,エヒメケン,EHIME KEN,38201.0,松山市,マツヤマシ,MATSUYAMA SHI,針田町,ハリタマチ,HARITAMACHI,,33.822356,132.735852
3,今治署管内,声かけ,令和5年9月17日(日)午前6時30分ころ,今治市富田新港一丁目の海岸,小学生女児が徒歩で移動中、徒歩の男に「何歳?名前 と学校名は?」等と声をかけられたもの。,50-70歳位、170cm位、中肉、黒色短髪、Tシャツ(青色と赤色のストライプ柄)、ズボン、黒色サングラス、麦わら帽子着用,今治市富田新港一丁目の海岸,今治市富田新港一丁目の海岸,0,green,,,,,,,,,,,,,,
4,西条西署管内,写真撮影等,令和5年9月15日(金)午前7時30分ころ,西条市三津屋南の路上,小学生女児2人が徒歩で移動中、車(白色、軽四自動車、箱バン様)に乗車の男に2回にわたり、スマートフォンを向けられたもの。,40-50歳位、中肉、黒色上衣、サングラス、眼鏡着用,西条市三津屋南の,西条市三津屋南,0,写真撮影等,38.0,愛媛県,エヒメケン,EHIME KEN,38206.0,西条市,サイジョウシ,SAIJO SHI,三津屋南,ミツヤミナミ,MITSUYAMINAMI,,33.9311,133.089322
5,今治署管内,身体露出,令和5年9月13日(水)午後7時ころ,今治市石井町二丁目の集合住宅敷地内,男が、集合住宅敷地内で下半身を露出させて立っていたもの。,20-50歳位、160-170cm位、やせ型、金髪(マッシュショート様、黒髪交じり)、黒色Tシャツ、黒色作業着様、作業員風,今治市石井町二丁目の集合,今治市石井町二丁目の集合,0,orange,,,,,,,,,,,,,,
6,今治署管内,凝視,令和5年9月13日(水)午前9時30分ころ,今治市高橋甲の店舗内,女子高校生が店舗内で買い物中、駐車場の車(黒色、普通自動車)に乗車していた男に凝視されたもの。,中肉、170cm位、黒色短髪、青色シャツ、黒色ズボン、眼鏡着用,今治市高橋甲の,今治市高橋,0,凝視,38.0,愛媛県,エヒメケン,EHIME KEN,38202.0,今治市,イマバリシ,IMABARI SHI,高橋,タカハシ,TAKAHASHI,,34.036697,132.967233
7,松山西署管内,つきまとい,令和5年9月12日(火)午後8時50分ころ,松山市富久町の路上,女性が自転車で移動中、前方に立ち塞がった徒歩の男に走って追いかけられたもの。,30-50歳位、中肉、170-180cm位、黒髪、黒色半袖様Tシャツ、灰色半ズボン、眼鏡着用,松山市富久町の,松山市富久町,0,blue,38.0,愛媛県,エヒメケン,EHIME KEN,38201.0,松山市,マツヤマシ,MATSUYAMA SHI,富久町,トミヒサマチ,TOMIHISAMACHI,,33.822368,132.728708
8,松山東署管内,声かけ,令和5年9月12日(火)午後5時20分ころ,松山市福音寺町の路上,小学生児童2人が路上で遊んでいたところ、バイク(白色スクーター)に乗車の男に、卑猥な文言で何度も声をかけられたもの。,20歳位、中肉、170cm位、白色半袖Tシャツ、黒色長ズボン、黒色ジェット型ヘルメット着用,松山市福音寺町の,松山市福音寺町,0,green,38.0,愛媛県,エヒメケン,EHIME KEN,38201.0,松山市,マツヤマシ,MATSUYAMA SHI,福音寺町,フクオンジマチ,FUKUONJIMACHI,,33.821822,132.790842
9,松山西署管内,声かけ,令和5年9月12日(火)午後4時10分ころ,松山市本谷の路上,小学生女児と小学生男児の2人が徒歩で下校中、車両(灰色、普通自動車)の助手席に乗車の男に箱のような物を見せられて「これいる?」と声をかけられたもの。,10-20歳位、やせ型、黒色短髪、黒色上衣,松山市本谷の,松山市本谷,0,green,38.0,愛媛県,エヒメケン,EHIME KEN,38201.0,松山市,マツヤマシ,MATSUYAMA SHI,本谷,ホンダニ,HONDANI,,33.931166,132.783918
10,伊予署管内,写真撮影等,令和5年9月10日(日)午後7時00分ころ,伊予郡松前町大字筒井の店舗内,女子中学生が店舗内で買い物中、男に後方からスマートフォンで容姿を撮影されたもの。,40-50歳位、中肉、160-170cm位、黒色短髪、赤色と白色のボーダーTシャツ、ショルダーバッグ所持,伊予郡松前町大字筒井の,伊予郡松前町大字筒井,0,写真撮影等,38.0,愛媛県,エヒメケン,EHIME KEN,38401.0,伊予郡松前町,イヨグンマサキチョウ,IYO GUN MASAKI CHO,大字筒井,,,,33.790916,132.699561
11,松山東署管内,声かけ,令和5年9月9日(土)午前0時30分ころ,松山市三番町七丁目から同市湊町七丁目までの路上,女性が徒歩で移動中、すれ違った徒歩の男に道を尋ねられた上、卑猥な文言で声をかけられたもの。,30-40歳位、小肥、170cm位、黒色短髪、白色半袖Tシャツ、オレンジ色七分丈ズボン、スリッパ着用、スマートフォン所持,松山市三番町七丁目から同市湊町七丁目までの,松山市三番町七丁目から同市湊町七丁目まで,0,green,,,,,,,,,,,,,,
12,四国中央署管内,身体露出,令和5年9月7日(木)午後2時30分ころ,四国中央市金生町下分の路上,男が、短パンの下から陰部を露出したまま、自転車(黒色と黄色)に乗車して走行していたもの。,高校生風、やせ型、黒髪(前髪がセンター分け)、ベージュ色半袖シャツ、黒色短パン、黒色眼鏡着用,四国中央市金生町下分の,四国中央市金生町下分,0,orange,38.0,愛媛県,エヒメケン,EHIME KEN,38213.0,四国中央市,シコクチュウオウシ,SHIKOKUCHUO SHI,金生町下分,キンセイチョウシモブン,KINSEICHO SHIMOBUN,,34.00079,133.582415
13,松山南署管内,声かけ,令和5年9月6日(水)午後4時ころ,松山市古川西三丁目の路上,小学生男児が徒歩で移動中、自転車(灰色)に乗車の男に「お前、何見よんぞ。」等と怒鳴られ、因縁をつけられたもの。,30歳位、165cm位、中肉、坊主頭(黒色、少し伸びている)、白色半袖Tシャツ、黒色半ズボン、携帯電話機所持,松山市古川西三丁目の,松山市古川西三丁目,0,green,38.0,愛媛県,エヒメケン,EHIME KEN,38201.0,松山市,マツヤマシ,MATSUYAMA SHI,古川西三丁目,フルカワニシ 3,FURUKAWANISHI 3,,33.805226,132.756919
14,松山東署管内,声かけ,令和5年9月6日(水)午後3時ころ,松山市束本二丁目の路上,小学生男児が徒歩で移動中、車椅子に乗車した女に「アメあげるからこっちへおいで。」と声をかけられたもの。,60歳位、中肉、黒色短髪、花柄上衣、黒色下衣,松山市束本二丁目の,松山市束本二丁目,0,green,38.0,愛媛県,エヒメケン,EHIME KEN,38201.0,松山市,マツヤマシ,MATSUYAMA SHI,束本二丁目,ツカモト 2,TSUKAMOTO 2,,33.827807,132.787221
15,西条署管内,声かけ,令和5年9月6日(水)午後2時30分ころ,西条市大町の路上,小学生女児が徒歩で移動中、徒歩の男に「ねぇねぇ、おじょうちゃん。お菓子いる?」と声をかけられたもの。,40歳位、160cm位、小肥、黒色長袖Tシャツ、半ズボン、マスク着用、無精髭,西条市大町の,西条市大町,0,green,38.0,愛媛県,エヒメケン,EHIME KEN,38206.0,西条市,サイジョウシ,SAIJO SHI,大町,オオマチ,OMACHI,,33.911624,133.189252
16,西条署管内,声かけ,令和5年9月6日(水)午後2時30分ころ,西条市大町の路上,小学生女児が徒歩で移動中、徒歩の男に「ねぇねぇ、おじょうちゃん。お菓子いる?」と声をかけられたもの。,40歳位、160cm位、小肥、黒色長袖Tシャツ、半ズボン、マスク着用、無精髭,西条市大町の,西条市大町,0,green,38.0,愛媛県,エヒメケン,EHIME KEN,38206.0,西条市,サイジョウシ,SAIJO SHI,大町,オオマチ,OMACHI,福森,33.912953,133.188923
17,伊予署管内,身体露出,令和5年9月5日(火) 午後8時30分ころ,伊予郡松前町大字上高柳の路上,男が、下半身を露出して路上に立っていたもの。,上下黒色様服,伊予郡松前町大字上高柳の,伊予郡松前町大字上高柳,0,orange,38.0,愛媛県,エヒメケン,EHIME KEN,38401.0,伊予郡松前町,イヨグンマサキチョウ,IYO GUN MASAKI CHO,大字上高柳,,,,33.798934,132.731295
18,西条西署管内,声かけ,令和5年9月4日(月)午後4時50分ころ,西条市壬生川の公園内,小学生女児2人が公園内のベンチに座っていたところ、徒歩の男に「人に見られたら困る。用事がある。ついてきて。」と声をかけられ、公園トイレのある方向へ一緒に行くよう促されたもの。,30-40歳位、170cm位、中肉、短髪(後ろ髪がパーマ様)、スマートフォン所持),西条市壬生川の,西条市壬生川,0,green,38.0,愛媛県,エヒメケン,EHIME KEN,38206.0,西条市,サイジョウシ,SAIJO SHI,壬生川,ニュウガワ,NYUGAWA,,33.939885,133.080878
19,新居浜署管内,声かけ,令和5年9月4日(月)午後3時ころ,新居浜市河内町の路上,小学生女児2人が移動中、前方で停車したバイク(黒色、カブ様)に乗車の男に「アメいる?」と声をかけられたもの。,40-50歳位、中肉、短髪(白髪交じり)、灰色様作業着、マスク着用、ヘルメットなし),新居浜市河内町の,新居浜市河内町,0,green,38.0,愛媛県,エヒメケン,EHIME KEN,38205.0,新居浜市,ニイハマシ,NIIHAMA SHI,河内町,コウチチョウ,KOCHICHO,,33.953032,133.273593
20,松山東署管内,つきまとい,令和5年9月3日(日)午後10時10分ころ,松山市山越一丁目の路上,女性が徒歩で移動中、すれ違った自転車(黒色)に乗車の男に「こんばんは。」と声をかけられ、後方をつきまとわれたもの。,40-50歳位、中肉、黒色短髪、黒色半袖Tシャツ、青色と白色の半ズボン,松山市山越一丁目の,松山市山越一丁目,0,blue,38.0,愛媛県,エヒメケン,EHIME KEN,38201.0,松山市,マツヤマシ,MATSUYAMA SHI,山越一丁目,ヤマゴエ 1,YAMAGOE 1,,33.857631,132.756226
21,今治署管内,暴行,令和5年9月1日(金)午後8時40分ころ,今治市大西町の路上,女性が自転車で移動中、路上で自転車(黒色、電動自転車)に跨って停車していた男に、自転車のハンドルを掴まれたもの。,20-40歳位、外国人風,今治市大西町の,今治市大西町,0,red,,,,,,,,,,,,,,
22,今治署管内,身体露出,令和5年8月31日(木) 午後8時30分ころ,今治市宅間の路上,男が、自転車(黒色、電動自転車)で目撃者を追い抜いて前方で停車し、路上でズボンを下ろした上、陰部を露出したもの。,165cm位、やせ型、紺色Tシャツ、半ズボン,今治市宅間の,今治市宅間,0,orange,38.0,愛媛県,エヒメケン,EHIME KEN,38202.0,今治市,イマバリシ,IMABARI SHI,宅間,タクマ,TAKUMA,,34.077466,132.942137
23,宇和島署管内,声かけ,令和5年9月1日(金)午後4時30分ころ,宇和島市高串の路上,小学生男児2人が徒歩で移動中、車(黒色、普通自動車)に乗車の男に「お金ちょうだい。」と声をかけられたもの。,30歳位、金髪、黒色サングラス着用、片言の日本語,宇和島市高串の,宇和島市高串,0,green,38.0,愛媛県,エヒメケン,EHIME KEN,38203.0,宇和島市,ウワジマシ,UWAJIMA SHI,高串,タカグシ,TAKAGUSHI,,33.260227,132.56532
24,松山東署管内,暴行,令和5年9月1日(金)午前11時50分ころ,松山市束本二丁目の路上,小学生女児が徒歩で移動中、徒歩の女に「こっちおいで。」等と声をかけられた上、肘を掴まれて引っ張られたもの。,70歳位、155cm位、中肉、白髪(耳が隠れる程度)、薄紫色シャツ、長ズボン、若干腰が曲がっている,松山市束本二丁目の,松山市束本二丁目,1,red,38.0,愛媛県,エヒメケン,EHIME KEN,38201.0,松山市,マツヤマシ,MATSUYAMA SHI,束本二丁目,ツカモト 2,TSUKAMOTO 2,,33.827807,132.787221
25,松山南署管内,身体露出,令和5年9月1日(金)午前0時10分ころ,松山市来住町の路上,男が、臀部を露出したまま自転車(黒色、前かご付き)で走行していたもの。,30歳位、170cm位、中肉、黒色短髪(天然パーマ)、灰色半袖シャツ、灰色長ズボン、垂れ目,松山市来住町の,松山市来住町,0,orange,38.0,愛媛県,エヒメケン,EHIME KEN,38201.0,松山市,マツヤマシ,MATSUYAMA SHI,来住町,キシマチ,KISHIMACHI,,33.806831,132.800645
26,新居浜署管内,つきまとい,令和5年8月29日(火)午後7時50分ころ,新居浜市新須賀町二丁目の路上,女性が徒歩で移動中、徒歩の男に後方をつきまとわれたもの。,中肉、170cm位、上下黒色服、帽子、マスク着用,新居浜市新須賀町二丁目の,新居浜市新須賀町二丁目,0,blue,38.0,愛媛県,エヒメケン,EHIME KEN,38205.0,新居浜市,ニイハマシ,NIIHAMA SHI,新須賀町二丁目,シンスカチョウ 2,SHINSUKACHO 2,,33.967888,133.286051
27,今治署管内,つきまとい,令和5年8月21日(月)午後8時ころ,今治市玉川町小鴨部の路上,女子高校生が自転車で移動中、自転車(ママチャリ様)に乗車の男に並走される等してつきまとわれたもの。,30-40歳位、中肉、半袖Tシャツ、作業着様長ズボン,今治市玉川町小鴨部の,今治市玉川町小鴨部,0,blue,38.0,愛媛県,エヒメケン,EHIME KEN,38202.0,今治市,イマバリシ,IMABARI SHI,玉川町小鴨部,タマガワチョウコカンベ,TAMAGAWACHO KOKAMBE,,34.014087,132.966533
28,松山南署管内,声かけ,令和5年8月18日(金)午後3時10分ころ,東温市野田三丁目の店舗内,小学生女児2人が店舗内のベンチに座っていたところ、徒歩の男に「可愛いね。」「写真撮ってあげようか。」等と声をかけられたもの。,50-60歳位、160cm位、黒色短髪、水色半袖Tシャツ様、黒色長ズボン,東温市野田三丁目の,東温市野田三丁目,0,green,38.0,愛媛県,エヒメケン,EHIME KEN,38215.0,東温市,トウオンシ,TOON SHI,野田三丁目,ノダ 3,NODA 3,,33.794556,132.835071
29,今治署管内,暴行,令和5年8月17日(木)午後6時20分ころ,今治市北鳥生町四丁目の公園内,女子高校生と知人が公園内を歩いていたところ、自転車に乗った男に「お姉ちゃんかわいいね」「結婚して」等と声をかけられ、身体を引っ張られたり触られたりしたもの。,60歳位、155cm位、やせ型、黒色短髪、黒色様Tシャツ、半ズボン、色黒,今治市北鳥生町四丁目の,今治市北鳥生町四丁目,0,red,38.0,愛媛県,エヒメケン,EHIME KEN,38202.0,今治市,イマバリシ,IMABARI SHI,北鳥生町四丁目,キタトリウチョウ 4,KITATORIUCHO 4,,34.05194,133.005303
30,新居浜署管内,盗撮,令和5年8月16日(水)午前10時40分ころ,新居浜市前田町の店舗内,小学生女児が店舗内に居たところ、後方から接近してきた男にスマートフォン様のものをスカート内へ差し入れられたもの。,160-165cm位、小肥、黒色短髪、黒色様半袖服、黒色半ズボン、肩掛けバッグ所持,新居浜市前田町の,新居浜市前田町,0,盗撮,38.0,愛媛県,エヒメケン,EHIME KEN,38205.0,新居浜市,ニイハマシ,NIIHAMA SHI,前田町,マエダチョウ,MAEDACHO,,33.955668,133.266842
31,松山東署管内,写真撮影等,令和5年8月3日(木)午後8時ころ,松山市宮田町の店舗内,女性が友人と店舗内にいたところ、2回にわたり、男にスマートフォンのカメラレンズを向けられたもの。,40-50歳位、165-170cm位、やせ型、黒色長髪(後ろ髪を1つ結び、毛先は茶色)、黒色半袖Tシャツ、オレンジ色ハーフパンツ、スマートフォン(カメラレンズ3個有り)所持,松山市宮田町の,松山市宮田町,0,写真撮影等,38.0,愛媛県,エヒメケン,EHIME KEN,38201.0,松山市,マツヤマシ,MATSUYAMA SHI,宮田町,ミヤタマチ,MIYATAMACHI,,33.842382,132.752948
32,松山東署管内,声かけ,令和5年8月3日(木)午前10時ころ,松山市美沢二丁目の路上,小学生女児が自転車で移動中、徒歩の男に「誰。」等と声をかけられたもの。,70歳位、150cm位、小肥、短髪(白髪交じり)、黒色半袖Tシャツ、暗色系短パン(膝上丈)、猫背、ゆっくり歩く、ストライプ柄(茶色、白色)の手押し車使用,松山市美沢二丁目の,松山市美沢二丁目,0,green,38.0,愛媛県,エヒメケン,EHIME KEN,38201.0,松山市,マツヤマシ,MATSUYAMA SHI,美沢二丁目,ミサワ 2,MISAWA 2,,33.849809,132.744542
33,松山西署管内,卑わいな言動,令和5年8月5日(土)午後2時ころ,松山市馬木町の公園内,小学生女児2人が公園内で遊んでいたところ、男が徒歩で来て近くのベンチに座り、ズボンの中に手を入れ下半身を触るような動作をしたもの。,40-60歳位、中肉、黒色短髪、白色半袖シャツ、水色長ズボン、二重まぶた、スマートフォン所持,松山市馬木町の,松山市馬木町,0,卑わいな言動,38.0,愛媛県,エヒメケン,EHIME KEN,38201.0,松山市,マツヤマシ,MATSUYAMA SHI,馬木町,ウマキチョウ,UMAKICHO,,33.893107,132.744688
34,新居浜署管内,つきまとい,令和5年7月31日(月)午後5時ころ,新居浜市繁本町から同市一宮一丁目までの路上,男子中学生が自転車で移動中、徒歩の男に追いかけられ、紙コップを投げつけられたもの。,70歳位、紫色上衣,新居浜市繁本町から同市一宮一丁目までの,新居浜市繁本町から同市一宮一丁目まで,0,blue,,,,,,,,,,,,,,
35,松山東署管内,身体露出,令和5年7月30日(日)午後7時10分ころ,松山市竹原四丁目の路上,男が、下半身を露出して路上に立っていたもの。,40-50歳位、170-180cm位、やせ型、帽子着用,松山市竹原四丁目の,松山市竹原四丁目,0,orange,38.0,愛媛県,エヒメケン,EHIME KEN,38201.0,松山市,マツヤマシ,MATSUYAMA SHI,竹原四丁目,タケワラ 4,TAKEWARA 4,,33.831613,132.746509
36,松山東署管内,身体露出,令和5年7月27日(木)午後9時00分ころ,松山市清水町三丁目の路上,男が、路上で下半身を露出させて歩いていたもの。,30歳位、165cm位、やせ型、黒色短髪、黒色半袖Tシャツ、黒色半ズボン,松山市清水町三丁目の,松山市清水町三丁目,0,orange,38.0,愛媛県,エヒメケン,EHIME KEN,38201.0,松山市,マツヤマシ,MATSUYAMA SHI,清水町三丁目,シミズマチ 3,SHIMIZUMACHI 3,,33.852554,132.765794
37,松山東署管内,つきまとい,令和5年7月26日(水)午後7時00分ころ,松山市三番町二丁目から同市花園町までの路上等,女子高校生2人が店舗内で買い物中、徒歩の男に「さっき猫カフェにいたよね?」等と声をかけられ、女子高校生が店舗外に出ると、男は「猫いるけど乗せてみる?」等と言い、女子高校生の肩に子猫を乗せるなどしながらつきまとったもの。,40歳位、170cm位、中肉、赤色長袖パーカー、黒色長ズボン、黒色ハット帽、黒色サングラス、灰色マスク、黒色運動靴着用、茶色子猫所持,松山市三番町二丁目から同市花園町までの,松山市三番町二丁目から同市花園町まで,0,blue,,,,,,,,,,,,,,
38,宇和島署管内,声かけ,令和5年7月25日(火)午前11時20分ころ,宇和島市和霊中町三丁目の高架下路上,男子中学生が徒歩で移動中、徒歩の男に「お前何年ぞ、受験落ちるぞ。」等と声をかけられたもの。,70-80歳位、170cm位、中肉、白髪短髪、灰色上着、青色半袖Tシャツ、半ズボン、サンダル,宇和島市和霊中町三丁目の高架下,宇和島市和霊中町三丁目の高架下,0,green,,,,,,,,,,,,,,
39,松山東署管内,つきまとい,令和5年7月24日(月)午後10時00分ころ,松山市本町三丁目から同市姫原三丁目までの路上,女子高校生が自転車で走行中、自転車(軽快兼用)に乗車の男に並走される等してつきまとわれたもの。,30歳位、小肥、金髪(ツーブロック、編み込み)、黒色Tシャツ、灰色ジャージズボン(膝下丈),松山市本町三丁目から同市姫原三丁目までの,松山市本町三丁目から同市姫原三丁目まで,0,blue,,,,,,,,,,,,,,
40,八幡浜署管内,盗撮,令和5年7月21日(金)午後8時30分ころ,八幡浜市保内町須川の一般住宅,女性が入浴中、屋外にいる者(性別不明)に、浴室窓からスマートフォンのカメラレンズを向けられたもの。,黒色様スマートフォン所持,八幡浜市保内町須川の,八幡浜市保内町須川,0,盗撮,38.0,愛媛県,エヒメケン,EHIME KEN,38204.0,八幡浜市,ヤワタハマシ,YAWATAHAMA SHI,保内町須川,ホナイチョウスガワ,HONAICHO SUGAWA,,33.483577,132.416987
41,今治署管内,身体露出,令和5年7月20日(木)午後2時20分ころ,今治市中日吉町三丁目の路上,男が、路上で下半身を露出させていたもの。,60-70歳位、160cm位、やせ型、黒髪、緑色上着、黒色長ズボン(黒色様ベルト付き)、色黒(頬がこけている)、黒色キャップ帽着用、白色タオル所持(首にかけている),今治市中日吉町三丁目の,今治市中日吉町三丁目,0,orange,38.0,愛媛県,エヒメケン,EHIME KEN,38202.0,今治市,イマバリシ,IMABARI SHI,中日吉町三丁目,ナカヒヨシチョウ 3,NAKAHIYOSHICHO 3,,34.057254,132.986967
42,松山南署管内,身体露出,令和5年7月19日(水)午後5時00分ころ,松山市朝生田町五丁目の店舗内,男が下半身を露出して店舗内を歩いていたもの。,30-35歳位、160-170cm位、やせ型、黒色短髪(耳にかかる位)、黒色アンダーシャツ、紺色ズボン、肌が黒い,松山市朝生田町五丁目の,松山市朝生田町五丁目,0,orange,38.0,愛媛県,エヒメケン,EHIME KEN,38201.0,松山市,マツヤマシ,MATSUYAMA SHI,朝生田町五丁目,アソダマチ 5,ASODAMACHI 5,,33.820663,132.771511
43,新居浜署管内,盗撮,令和5年7月17日(月)午後0時10分ころ,新居浜市坂井町二丁目の店舗内,女性が店舗内にいたところ、男からカメラ様のものをスカート内に差し入れられそうになったもの。,60歳位、170cm位、黒髪、黒色半袖Tシャツ、黒色長ズボン、黒色腕時計、白色マスク着用、黒色カメラ様所持,新居浜市坂井町二丁目の,新居浜市坂井町二丁目,0,盗撮,38.0,愛媛県,エヒメケン,EHIME KEN,38205.0,新居浜市,ニイハマシ,NIIHAMA SHI,坂井町二丁目,サカイチョウ 2,SAKAICHO 2,,33.948734,133.29345
44,松山西署管内,声かけ,令和5年7月14日(金)午後8時50分ころ,松山市北条辻の路上,女子高校生が自転車で移動中、徒歩の男に道を尋ねられた後、「相手をしてほしい。かわいいね。」等としつこく話しかけられた上、手首を掴まれたり、自転車の前かごを掴まれたりしたもの。,25-35歳位、170-175cm位、中肉、黒色短髪(耳にかかる位、毛量が多い)、黒色半袖Tシャツ(ピンク色か赤色の文字入り)、半ズボン(膝上位までの長さ)、二重まぶた、マスク着用、スマートフォン所持,松山市北条辻の,松山市北条辻,0,green,38.0,愛媛県,エヒメケン,EHIME KEN,38201.0,松山市,マツヤマシ,MATSUYAMA SHI,北条辻,ホウジョウツジ,HOJO TSUJI,,33.968379,132.777843
45,新居浜署管内,声かけ,令和5年7月14日(金)午後3時40分ころ,新居浜市宇高町二丁目の路上,小学生男児が徒歩で移動中、車(黒色、軽四車両)に乗車の男に「車乗る?」と声をかけられたもの。,やせ型、黒色キャップ帽着用,新居浜市宇高町二丁目の,新居浜市宇高町二丁目,0,green,38.0,愛媛県,エヒメケン,EHIME KEN,38205.0,新居浜市,ニイハマシ,NIIHAMA SHI,宇高町二丁目,ウダカチョウ 2,UDAKACHO 2,,33.973091,133.304128
46,松山東署管内,つきまとい,令和5年7月13日(木)午後8時50分ころ,松山市束本一丁目から同市桑原六丁目までの路上,女性が徒歩で移動中、徒歩の男に後方をつきまとわれたもの。,30-50歳位、165cm位、中肉、白色Tシャツ,松山市束本一丁目から同市桑原六丁目までの,松山市束本一丁目から同市桑原六丁目まで,0,blue,,,,,,,,,,,,,,
47,西条署管内,つきまとい,令和5年7月12日(水)午後6時ころ,西条市古川から同市楢木までの路上,女子高校生が自転車で移動中、バイク(白色スクーター様)に乗車した男に後方をつきまとわれたもの。,50歳位、上下黒色様服、白色半キャップヘルメット(シールド付き)着用,西条市古川から同市楢木までの,西条市古川から同市楢木まで,0,blue,,,,,,,,,,,,,,
48,松山東署管内,声かけ,令和5年7月11日(火)午後3時ころ,松山市南江戸三丁目の路上,小学生男児が徒歩で移動中、自転車(黒色)に乗車の男に「アメあげるからこっちにおいで。」と声をかけられたもの。,30歳位、170cm位、中肉、黒色短髪(パーマ)、赤色Tシャツ、鞄(黒色と緑色)所持,松山市南江戸三丁目の,松山市南江戸三丁目,0,green,38.0,愛媛県,エヒメケン,EHIME KEN,38201.0,松山市,マツヤマシ,MATSUYAMA SHI,南江戸三丁目,ミナミエド 3,MINAMIEDO 3,,33.837865,132.745204
49,今治署管内,声かけ,令和5年7月10日(月)午後8時50分ころ,今治市玉川町の路上,女子高校生が自転車で移動中、後方から接近してきた徒歩の男に、自転車のハンドルを掴まれ、卑猥な文言で声をかけられたもの。,20-30歳位、170cm位、やせ型、灰色ポロシャツ、ズボン,今治市玉川町の,今治市玉川町,0,green,,,,,,,,,,,,,,
50,松山南署管内,つきまとい,令和5年7月10日(月)午後2時ころ,松山市居相四丁目の路上,男子中学生が徒歩で移動中、徒歩の男性とすれ違った際、同男性にカメラ付携帯電話機を向けられ、後方をつきまとわれたもの。,40-50歳位、170cm位、小肥、白色Tシャツ、青色キャップ帽、スニーカー着用、顎髭あり,松山市居相四丁目の,松山市居相四丁目,0,blue,38.0,愛媛県,エヒメケン,EHIME KEN,38201.0,松山市,マツヤマシ,MATSUYAMA SHI,居相四丁目,イアイ 4,IAI 4,,33.807749,132.770335
51,新居浜署管内,身体露出,令和5年7月6日(木)午前8時10分ころ,新居浜市東雲町二丁目の路上,男が、ズボンを下ろした状態で下半身を露出したまま、その場に立っていたもの。,30-40歳位、160-170cm位、中肉、黒髪、青色Tシャツ、ズボン、黒色帽子着用、スマートフォン所持,新居浜市東雲町二丁目の,新居浜市東雲町二丁目,0,orange,38.0,愛媛県,エヒメケン,EHIME KEN,38205.0,新居浜市,ニイハマシ,NIIHAMA SHI,東雲町二丁目,シノノメチョウ 2,SHINONOMECHO 2,,33.963595,133.299433
52,松山南署管内,つきまとい,令和5年7月5日(水)午後6時10分ころ,松山市来住町の路上,女性が徒歩で移動中、徒歩の女がうめき声を上げながら走って追いかけてきたもの。,50歳位、165cm位、やせ型、黒髪(ショートカット)、白色と黒色のボーダー柄服、ベージュ色長ズボン、ビニール傘所持,松山市来住町の,松山市来住町,1,blue,38.0,愛媛県,エヒメケン,EHIME KEN,38201.0,松山市,マツヤマシ,MATSUYAMA SHI,来住町,キシマチ,KISHIMACHI,,33.806831,132.800645
53,四国中央署管内,つきまとい,令和5年7月4日(火)午後3時30分ころ,四国中央市土居町北野の路上,小学生女児が徒歩で移動中、自転車(銀色、前かご付き)を押して歩いていた男に「ジュース買ってあげる。」等と声をかけられた上、つきまとわれながら、名前や学校名、入浴時間等の個人情報について聞かれたもの。,70歳位、160cm位、中肉、白髪、上下薄緑色作業着、黒色キャップ帽(英文字入り)、長靴,四国中央市土居町北野の,四国中央市土居町北野,0,blue,38.0,愛媛県,エヒメケン,EHIME KEN,38213.0,四国中央市,シコクチュウオウシ,SHIKOKUCHUO SHI,土居町北野,ドイチョウキタノ,DOICHO KITANO,,33.959404,133.393946
54,今治署管内,写真撮影等,令和5年7月2日(日)午後4時20分ころ,今治市郷六ヶ内町二丁目の店舗内,女性2人が店舗内にいたところ、同店舗内の座席に座っていた男にスマートフォンを向けられたもの。,35-50歳位、170cm位、中肉、黒色短髪、黒色半袖服、黒色長ズボン、ヘッドフォン(首にかけている)、スマートフォン(紫色、カメラレンズ3個),今治市郷六ヶ内町二丁目の,今治市郷六ヶ内町二丁目,0,写真撮影等,38.0,愛媛県,エヒメケン,EHIME KEN,38202.0,今治市,イマバリシ,IMABARI SHI,郷六ヶ内町二丁目,ゴウロクガウチチョウ 2,GOROKUGAUCHICHO 2,,34.0446,132.997979
55,西条署管内,つきまとい,令和5年6月29日(木)午後3時ころ,西条市朔日市の路上,小学生男児が徒歩で移動中、徒歩の男にランドセルを掴まれ、「何年生。家は。名前は。」等と声をかけられ、つきまとわれたもの。,40-60歳位、白色シャツ、黄緑色ズボン、白色帽子着用,西条市朔日市の,西条市朔日市,0,blue,38.0,愛媛県,エヒメケン,EHIME KEN,38206.0,西条市,サイジョウシ,SAIJO SHI,朔日市,ツイタチ,TSUITACHI,,33.928571,133.183796
56,松山南署管内,声かけ,令和5年6月28日(水)午後8時20分ころ,松山市来住町の路上,女性が自転車で移動中、徒歩の男に卑わいな文言で声をかけられたもの。,30-50歳位、170cm位、中肉、メガネ(四角型レンズ)着用,松山市来住町の,松山市来住町,2,green,38.0,愛媛県,エヒメケン,EHIME KEN,38201.0,松山市,マツヤマシ,MATSUYAMA SHI,来住町,キシマチ,KISHIMACHI,,33.806831,132.800645
57,西条西署管内,つきまとい,令和5年6月27日(火)午後6時40分ころ,西条市壬生川から同市喜多台までの路上,女性等2人が店舗内で買い物をしていたところ、男に声をかけられ、店外に出た後も「昔、会ったことあるかな。」等と話しかけられながら、徒歩で後方をつきまとわれたもの。,60-70歳位、165-170cm位、やせ型、上衣:ピンク色Tシャツ、下衣:白色ハーフパンツ、キャップ帽着用,西条市壬生川から同市喜多台までの,西条市壬生川から同市喜多台まで,0,blue,,,,,,,,,,,,,,
58,松山東署管内,身体接触,令和5年6月27日(火)午前7時40分ころ,松山市姫原二丁目の路上,女子中学生が徒歩で移動中、自転車(ママチャリ様)に乗った男に肩を掴まれたもの。,70歳位、中肉、短髪、上着:白色様上着、黒色様キャップ帽着用、無精髭あり,松山市姫原二丁目の,松山市姫原二丁目,0,身体接触,38.0,愛媛県,エヒメケン,EHIME KEN,38201.0,松山市,マツヤマシ,MATSUYAMA SHI,姫原二丁目,ヒメバラ 2,HIMEBARA 2,,33.86621,132.759802
59,松山東署管内,身体露出,令和5年6月26日(月)午後7時50分ころ,松山市宮西一丁目の店舗内,男が店舗内設置の座席に座り、下半身を露出させていたもの。,60歳位、小肥、白髪短髪、上衣:白色様Tシャツ(横線入り)、下衣:黄土色ズボン,松山市宮西一丁目の,松山市宮西一丁目,0,orange,38.0,愛媛県,エヒメケン,EHIME KEN,38201.0,松山市,マツヤマシ,MATSUYAMA SHI,宮西一丁目,ミヤニシ 1,MIYANISHI 1,,33.845813,132.752728
60,松山南署管内,不審者,令和5年6月26日(月)午後1時30分ころ,松山市古川西三丁目の一般家屋,女性が家屋内にいたところ、男がインターフォンを鳴らし「君は20歳位かな。」等と言い、立ち去った後、隣家のインターフォンも鳴らす等して、周囲をうろついていたもの。,40-50歳位、やせ型、上衣:暗系色Tシャツ、藍色キャップ帽(無地)、白色マスク、メガネ(丸型レンズ)着用,松山市古川西三丁目の一般家屋,松山市古川西三丁目の一般家屋,0,purple,,,,,,,,,,,,,,
61,松山東署管内,つきまとい,令和5年6月25日(日)午後4時50分ころ,松山市萱町四丁目から同市末広町までの路上,女性が自転車で移動中、自転車(軽快兼用自転車様、前カゴ付き)に乗車の男に、後方をつきまとわれたもの。,50-60歳位、170cm位、中肉、短髪、黒色Tシャツ(背中に大きな白色プーマのロゴ入り)、長ズボン、灰色ニット帽着用,松山市萱町四丁目から同市末広町までの,松山市萱町四丁目から同市末広町まで,0,blue,,,,,,,,,,,,,,
62,松山南署管内,声かけ,令和5年6月23日(金)午後2時50分ころ,松山市水泥町の路上,小学生男児が徒歩で移動中、車両(銀色、普通自動車様)から降車してきた男に名前を呼ばれ、家族のことについて聞かれたもの。,50-80歳位、中肉、白髪,松山市水泥町の,松山市水泥町,0,green,38.0,愛媛県,エヒメケン,EHIME KEN,38201.0,松山市,マツヤマシ,MATSUYAMA SHI,水泥町,ミドロマチ,MIDOROMACHI,,33.80331,132.826475
63,松山西署管内,ちかん,令和5年6月22日(木)午後5時50分ころ,松山市北斎院町の路上,女子高校生が自転車で移動中、バイク(黒色、スクータータイプ)に乗車の男から追い越しざまに胸を揉まれたもの。,上衣:ナイロン製様長袖服、肩幅が広い、黒色ヘルメット着用(半ヘルメットではない),松山市北斎院町の,松山市北斎院町,0,gray,38.0,愛媛県,エヒメケン,EHIME KEN,38201.0,松山市,マツヤマシ,MATSUYAMA SHI,北斎院町,キタサヤチョウ,KITASAYACHO,,33.839402,132.723636
64,松山東管内,声かけ,令和5年6月20日(火)午後11時ころ,松山市三番町一丁目の路上,女性が徒歩で移動中、徒歩の男から「ちょっとあっち行こうや。」と腕を掴まれ、声をかけられたが、その後立ち去ったもの。,40-50歳位、160-170cm位、上衣:白色ワイシャツ、下衣:黒色ズボン、鞄所持,松山市三番町一丁目の,松山市三番町一丁目,0,green,38.0,愛媛県,エヒメケン,EHIME KEN,38201.0,松山市,マツヤマシ,MATSUYAMA SHI,三番町一丁目,サンバンチョウ 1,SAMBANCHO 1,,33.838004,132.773579
65,松山東管内,声かけ,令和5年6月20日(火)午後7時30分ころ,松山市保免西一丁目の路上,男子中学生が自転車で移動中、徒歩の男から「おーい。」と呼び止められ、「100円持ってないか。」と声をかけられたが、その後立ち去ったもの。,70歳位、小肥、白髪交じりの短髪(スポーツ刈り)、上衣:白色シャツ,松山市保免西一丁目の,松山市保免西一丁目,0,green,38.0,愛媛県,エヒメケン,EHIME KEN,38201.0,松山市,マツヤマシ,MATSUYAMA SHI,保免西一丁目,ホウメンニシ 1,HOMENNISHI 1,,33.817546,132.744424
66,西条署管内,写真撮影等,令和5年6月19日(月)午後4時20分ころ,西条市西泉乙の路上,徒歩の男が、路上から施設敷地内方向へ一眼レフカメラを向けていたもの。,30-40歳位、170cm位、やせ型、黒色短髪、上衣:黒色服、下衣:黒色ズボン、一眼レフカメラ所持,西条市西泉乙の,西条市西泉,0,写真撮影等,,,,,,,,,,,,,,
67,松山東署管内,身体露出,令和5年6月18日(日)午後2時30分ころ,松山市中村一丁目の公園内,男が、トイレの個室ドアを開放状態にしたままズボンを下ろし、外へ向かって陰部を露出させていたもの。,35-45歳位、165-170cm位、中肉、黒色短髪(坊主が少し伸びた位)、上衣:白色と黒色2色柄のシャツ、下衣:黒色長ズボン、黒色クロックス様着用、無精髭あり、軽快兼用自転車(灰色様、前カゴ付き)使用,松山市中村一丁目の,松山市中村一丁目,0,orange,38.0,愛媛県,エヒメケン,EHIME KEN,38201.0,松山市,マツヤマシ,MATSUYAMA SHI,中村一丁目,ナカムラ 1,NAKAMURA 1,,33.834948,132.777786
68,新居浜署管内,身体露出,令和5年6月16日(金)午後0時ころ,新居浜市桜木町の一般住宅敷地内,男が一般住宅敷地内に入り、ズボンを降ろし、下半身を露出させていたもの。,14-16歳位、160cm位、中肉、黒髪坊主頭、上衣:色不明Tシャツ、下衣:黒色ジャージ(白色ライン入り)、スニーカー着用,新居浜市桜木町の,新居浜市桜木町,0,orange,38.0,愛媛県,エヒメケン,EHIME KEN,38205.0,新居浜市,ニイハマシ,NIIHAMA SHI,桜木町,サクラギチョウ,SAKURAGICHO,,33.968147,133.299844
69,松山南署管内,声かけ,令和5年6月16日(金)午前8時10分ころ,東温市野田三丁目の路上,女子高校生が自転車で移動中、徒歩の男から卑わいな文言で声をかけられたもの。なお、男が佇んでいた付近に原付(灰色、スクーター様、黒色フルフェイスヘルメット積載)が停車していた。,30歳位、160-165cm位、小肥、黒色短髪、上衣:紺色スーツ、白色カッターシャツ、下衣:紺色スーツズボン,東温市野田三丁目の,東温市野田三丁目,1,green,38.0,愛媛県,エヒメケン,EHIME KEN,38215.0,東温市,トウオンシ,TOON SHI,野田三丁目,ノダ 3,NODA 3,,33.794556,132.835071
70,松山東署管内,声かけ,令和5年6月16日(金)午前7時30分ころ,松山市桑原三丁目の路上,女性が徒歩で移動中、徒歩の男から「コスモスまでの行き方を教えてほしい。」「お嬢さんはどこに住んでいるの。」と声をかけられたもの。,60歳位、170cm位、やせ型、白髪短髪、上衣:黒色長袖ジャケット、下衣:黒色長ズボン,松山市桑原三丁目の,松山市桑原三丁目,0,green,38.0,愛媛県,エヒメケン,EHIME KEN,38201.0,松山市,マツヤマシ,MATSUYAMA SHI,桑原三丁目,クワバラ 3,KUWABARA 3,,33.833455,132.795937
71,松山西署管内,写真撮影等,令和5年6月16日(金)午前7時20分ころ,松山市北吉田町の路上,小学生男女児が移動中、自転車から降車し歩道橋に上がった男から、カメラを向けられたもの。男は、同児童の進路に先回りして、再度、児童にカメラを向けている。,40-50歳位、170cm位、中肉、上衣:白色半袖ポロシャツ、下衣:灰色長ズボン、黒色一眼レフカメラ所持,松山市北吉田町の,松山市北吉田町,0,写真撮影等,38.0,愛媛県,エヒメケン,EHIME KEN,38201.0,松山市,マツヤマシ,MATSUYAMA SHI,北吉田町,キタヨシダマチ,KITAYOSHIDAMACHI,,33.837799,132.70459
72,松山西署管内,声かけ,令和5年6月14日(水)午後5時ころ,松山市北斎院町の公園内,小学生女児2名が公園内で遊んでいたところ、近付いてきた徒歩の男に「写真撮ってもいい。」と声をかけられたもの。男は遊具で遊ぶ同女児に対し、スマートフォンを向けた後、「いっぱい撮ったよ。」と告げて立ち去った。,40-60歳位、160cm位、中肉、上衣:黒色タンクトップ、下衣:長ズボン、地味な色のキャップ帽着用,松山市北斎院町の,松山市北斎院町,1,green,38.0,愛媛県,エヒメケン,EHIME KEN,38201.0,松山市,マツヤマシ,MATSUYAMA SHI,北斎院町,キタサヤチョウ,KITASAYACHO,,33.839402,132.723636
73,今治署管内,身体露出,令和5年6月10日(土)午前8時ころ,今治市波方町の路上,女性が自転車で帰宅中、付近に停車した車両(黒色、軽四乗用自動車様)から降りてきた男に、露出した下半身を見せつけられたもの。,20-30歳位、身長170cm位、中肉、金髪、上衣:緑色Tシャツ、下衣:黒色ハーフパンツ、メガネなし,今治市波方町の,今治市波方町,0,orange,,,,,,,,,,,,,,
74,今治署管内,不審者,令和5年6月9日(金)午後6時10分ころ,今治市クリエイティブヒルズの路上,路上に佇んでいた徒歩の男が、右手をポケットに入れて、股間を触る仕草をしていたもの。,60歳位、身長160cm位,今治市クリエイティブヒルズの,今治市クリエイティブヒルズ,0,purple,38.0,愛媛県,エヒメケン,EHIME KEN,38202.0,今治市,イマバリシ,IMABARI SHI,クリエイティブヒルズ,クリエイティブヒルズ,KURIEITEIBUHIRUZU,,34.049244,132.967167
75,四国中央署管内,写真撮影等,令和5年6月9日(金)午後5時30分ころ,四国中央市中之庄町の路上,女子中学生約20人が屋外施設で活動中、路上に居た徒歩の男から、自撮り棒に装着した状態のスマートフォンを向けられたもの。,50歳位、中肉、上衣:白色長袖Tシャツ、黒色ベスト、野球帽(白色と黒色2色)着用、自撮り棒、リュックサック所持,四国中央市中之庄町の,四国中央市中之庄町,0,写真撮影等,38.0,愛媛県,エヒメケン,EHIME KEN,38213.0,四国中央市,シコクチュウオウシ,SHIKOKUCHUO SHI,中之庄町,ナカノショウチョウ,NAKANOSHOCHO,,33.963258,133.536488
76,今治署管内,写真撮影等,令和5年6月9日(金)午前7時30分ころ,今治市黄金町二丁目の路上,小学生男女児が徒歩で移動中、自転車(黒色)に乗車の女から、スマートフォンを向けられたもの。,外国人風、25-30歳位、やせ型、160cm位、黒色長髪(ポニーテール)、上衣:黒色服、同伴者1名(外国人風の女性、25-30歳位、身長160cm位、やせ型、黒色長髪、上衣:黒色服),今治市黄金町二丁目の,今治市黄金町二丁目,0,写真撮影等,38.0,愛媛県,エヒメケン,EHIME KEN,38202.0,今治市,イマバリシ,IMABARI SHI,黄金町二丁目,コガネチョウ 2,KOGANECHO 2,,34.064434,133.004375
77,四国中央署管内,つきまとい,令和5年6月8日(木)午後4時10分ころ,四国中央市川之江町の路上,小学生男女児2名が徒歩で移動中、車両(白色、軽四乗用自動車、白色愛媛ナンバー、4桁の数字)に乗車の男から、すれ違う際に凝視されたり、通り過ぎた後もUターンし、減速、並走されたりしてつきまとわれたもの。,30-40歳位、茶髪中分け、上衣:白色Tシャツ、サングラス着用,四国中央市川之江町の,四国中央市川之江町,0,blue,38.0,愛媛県,エヒメケン,EHIME KEN,38213.0,四国中央市,シコクチュウオウシ,SHIKOKUCHUO SHI,川之江町,カワノエチョウ,KAWANOECHO,,34.014304,133.579682
78,四国中央署管内,つきまとい,令和5年6月8日(木)午後4時10分ころ,四国中央市川之江町の路上,小学生男女児2名が徒歩で移動中、車両(白色、軽四乗用自動車、白色愛媛ナンバー、4桁の数字)に乗車の男から、すれ違う際に凝視されたり、通り過ぎた後もUターンし、減速、並走されたりしてつきまとわれたもの。,30-40歳位、茶髪中分け、上衣:白色Tシャツ、サングラス着用,四国中央市川之江町の,四国中央市川之江町,0,blue,38.0,愛媛県,エヒメケン,EHIME KEN,38213.0,四国中央市,シコクチュウオウシ,SHIKOKUCHUO SHI,川之江町,カワノエチョウ,KAWANOECHO,塚田,34.000158,133.566627
79,四国中央署管内,つきまとい,令和5年6月8日(木)午後4時10分ころ,四国中央市川之江町の路上,小学生男女児2名が徒歩で移動中、車両(白色、軽四乗用自動車、白色愛媛ナンバー、4桁の数字)に乗車の男から、すれ違う際に凝視されたり、通り過ぎた後もUターンし、減速、並走されたりしてつきまとわれたもの。,30-40歳位、茶髪中分け、上衣:白色Tシャツ、サングラス着用,四国中央市川之江町の,四国中央市川之江町,0,blue,38.0,愛媛県,エヒメケン,EHIME KEN,38213.0,四国中央市,シコクチュウオウシ,SHIKOKUCHUO SHI,川之江町,カワノエチョウ,KAWANOECHO,横田,34.003925,133.565172
80,西条署管内,つきまとい,令和5年6月7日(水)午後8時30分ころ,西条市禎瑞から同市氷見までの路上,女子高校生が自転車で移動中、バイク(原付様、スクータータイプ、ヘッドライトがオレンジ色)に乗った者(性別不明)から後方を低速走行するなどしてつきまとわれたもの。,男女別等詳細不明,西条市禎瑞から同市氷見までの,西条市禎瑞から同市氷見まで,0,blue,,,,,,,,,,,,,,
81,新居浜署管内,身体露出,令和5年6月2日(金)午後7時30分ころ,新居浜市西喜光地町の店舗内,小学生女児2名が店舗内にいたところ、男からチャック部分から露出した下半身を見せつけられ、付け回されたもの。,30-40歳位、中肉、黒色短髪、上衣:半袖服、下衣:黒色ジーパン,新居浜市西喜光地町の,新居浜市西喜光地町,0,orange,38.0,愛媛県,エヒメケン,EHIME KEN,38205.0,新居浜市,ニイハマシ,NIIHAMA SHI,西喜光地町,ニシキコウジチョウ,NISHIKIKOJICHO,,33.937527,133.295415
82,今治署管内,声かけ,令和5年6月1日(木)午後5時30分ころ,今治市野間の路上,小学生男児が徒歩で移動中、車両(黒色、ミニバンタイプ)に乗車の男から「乗せて行こうか。」「近くても乗せて行くよ。」と声をかけられたもの。,黄色の髪、下衣:赤色ズボン、目出し帽着用、ガラガラ声,今治市野間の,今治市野間,0,green,38.0,愛媛県,エヒメケン,EHIME KEN,38202.0,今治市,イマバリシ,IMABARI SHI,野間,ノマ,NOMA,,34.056388,132.944093
83,松山西署管内,つきまとい,令和5年6月1日(木)午後4時50分ころ,松山市東長戸四丁目の路上,小学生女児が徒歩で移動中、自転車に乗車の男から後方をつきまとわれたもの。,50-60歳位、170cm位、中肉、黒色短髪,松山市東長戸四丁目の,松山市東長戸四丁目,0,blue,38.0,愛媛県,エヒメケン,EHIME KEN,38201.0,松山市,マツヤマシ,MATSUYAMA SHI,東長戸四丁目,ヒガシナガト 4,HIGASHINAGATO 4,,33.870459,132.752605
84,四国中央署管内,写真撮影等,令和5年6月1日(木)午後6時40分ころ,四国中央市三島中央五丁目の路上,女子高校生2人が路上に居たところ、車(軽四自動車、バン様)に乗車の男からスマートフォンを向けられたもの。男は、同じ道を往復走行して、女子高校生等にスマートフォンを向けていた。,50歳位、中肉、スポーツ刈り(白髪)、上衣:紺色作業着,四国中央市三島中央五丁目の,四国中央市三島中央五丁目,0,写真撮影等,38.0,愛媛県,エヒメケン,EHIME KEN,38213.0,四国中央市,シコクチュウオウシ,SHIKOKUCHUO SHI,三島中央五丁目,ミシマチュウオウ 5,MISHIMA CHUO 5,,33.978202,133.542851
85,松山南署管内,声かけ,令和5年5月中旬の午後4時ころ,松山市土居町の路上,小学生男児が徒歩で移動中、徒歩の男から「どこに住んどるん。」と声をかけられたもの。,60歳位、170cm位、小太り、短髪、上衣:灰色長袖スウェット、下衣:紺色ジャージ、帽子、メガネ着用、ゆっくりとぼとぼ歩く,松山市土居町の,松山市土居町,0,green,38.0,愛媛県,エヒメケン,EHIME KEN,38201.0,松山市,マツヤマシ,MATSUYAMA SHI,土居町,ドイマチ,DOIMACHI,,33.798272,132.790757
86,西条西署管内,声かけ,令和5年5月31日(水)午後5時20分ころ,西条市丹原町池田の路上,小学生女児が自転車で移動中、車(黒色、軽四自動車)に乗車の男から「おい、こら。」と声をかけられたもの。声かけ後、男は被害者の前方に車を停めて降車し、歩いて近づいてきたため、小学生女児が道を引き返すと、走って追いかけてきた。,20-30歳位、160-165cm位、肥満、黒色短髪、上衣:オレンジ色シャツ(ワンポイント入り)、下衣:青色短パン、茶色帽子着用,西条市丹原町池田の,西条市丹原町池田,0,green,38.0,愛媛県,エヒメケン,EHIME KEN,38206.0,西条市,サイジョウシ,SAIJO SHI,丹原町池田,タンバラチョウイケダ,TAMBARACHO IKEDA,,33.912892,133.059078
87,松山東署管内,声かけ,令和5年5月31日(水)午前7時10分ころ,松山市土居田町の路上,女子中学生が徒歩で移動中、徒歩の男から「制服かわいいね。」「ハグしよう。」等と声をかけられたもの。,30歳位、170cm位、やせ型、黒色短髪、上衣:長袖服、下衣:長ズボン、スマートフォン(イヤホン付き)所持,松山市土居田町の,松山市土居田町,0,green,38.0,愛媛県,エヒメケン,EHIME KEN,38201.0,松山市,マツヤマシ,MATSUYAMA SHI,土居田町,ドイダマチ,DOIDAMACHI,,33.823276,132.746488
88,松山東署管内,つきまとい,令和5年5月30日(火)午後4時ころ,松山市保免西一丁目から同市保免中一丁目までの路上,小学生男女児4人が徒歩で移動中、徒歩の男から速度を合わせて後方をつきまとわれたもの。,40歳位、170cm位、中肉、上下黒色ジャージ、黒色帽子、黒色サングラス、黒色マスク着用、黒色傘、黒色リュックサック所持,松山市保免西一丁目から同市保免中一丁目までの,松山市保免西一丁目から同市保免中一丁目まで,0,blue,,,,,,,,,,,,,,
89,松山東署管内,声かけ,令和5年5月29日(月)午後7時30分ころ,松山市緑町一丁目の路上,女性が徒歩で移動中、徒歩の男から卑わいな文言で声をかけられたもの。,40-50歳位、160cm位、中肉、黒色短髪、上下作業着、白色マスク着用,松山市緑町一丁目の,松山市緑町一丁目,0,green,38.0,愛媛県,エヒメケン,EHIME KEN,38201.0,松山市,マツヤマシ,MATSUYAMA SHI,緑町一丁目,ミドリマチ 1,MIDORIMACHI 1,,33.845975,132.770125
90,松山西署管内,声かけ,令和5年5月28日(日)午後1時ころ,松山市北斎院町の路上,女子高校生が自転車で移動中、自転車(小さめ、ママチャリ風)を押して歩いていた男から道案内を頼まれた上、「髪を結いなおしてほしい。」等と声をかけられたもの。,60歳位、150cm位、目が小さい、黒色ヘルメット(自転車用)着用,松山市北斎院町の,松山市北斎院町,2,green,38.0,愛媛県,エヒメケン,EHIME KEN,38201.0,松山市,マツヤマシ,MATSUYAMA SHI,北斎院町,キタサヤチョウ,KITASAYACHO,,33.839402,132.723636
91,伊予署管内,つきまとい,令和5年5月27日(土)午後10時50分ころ,伊予郡松前町大字西古泉の路上,女性が徒歩で移動中、徒歩の男から並進される等してつきまとわれたもの。女性が止まってやり過ごそうとすると、前方で立ち止まった男は、振り返ってズボンを下ろし始め、女性が悲鳴をあげると逃走したもの。,20-40歳位、中肉、170cm位、黒色短髪、上衣:黒色様半袖服、下衣:黒色様半ズボン、キャップ帽、マスク着用,伊予郡松前町大字西古泉の,伊予郡松前町大字西古泉,0,blue,38.0,愛媛県,エヒメケン,EHIME KEN,38401.0,伊予郡松前町,イヨグンマサキチョウ,IYO GUN MASAKI CHO,大字西古泉,,,,33.794521,132.713929
92,新居浜署管内,声かけ,令和5年5月26日(金)午後4時ころ,新居浜市外山町の路上,小学生女児2名が徒歩で移動中、徒歩の男から「何年生?お家はどこ?飲み物あるから、お家においで。」等と声をかけられたもの。,40-50歳位、青色服,新居浜市外山町の,新居浜市外山町,0,green,38.0,愛媛県,エヒメケン,EHIME KEN,38205.0,新居浜市,ニイハマシ,NIIHAMA SHI,外山町,トヤマチョウ,TOYAMACHO,,33.940416,133.310427
93,伊予署管内,つきまとい,令和5年5月25日(木)午後5時30分ころ,伊予郡松前町大字筒井から同町大字西古泉までの路上,男子中学生が自転車で移動中、自転車(マウンテンバイク様、黒色前かご付き)に乗車の男から後方をつきまとわれたもの。,20-30歳位、黒色短髪(ツーブロック)、上衣:灰色半袖シャツ、下衣:黒色長ズボン、白色マスク着用,伊予郡松前町大字筒井から同町大字西古泉までの,伊予郡松前町大字筒井から同町大字西古泉まで,0,blue,,,,,,,,,,,,,,
94,今治署管内,声かけ,令和5年5月25日(木)午後3時50分ころ,今治市阿方の路上,小学生男児が徒歩で移動中、車(普通車、セダンタイプ)に乗車の男から「遠いんだったら、乗って帰る?」と声をかけられたもの。,40-50歳位、中肉、黒色短髪、上衣:黒色服、下衣:青色ズボン、マスク着用,今治市阿方の,今治市阿方,0,green,38.0,愛媛県,エヒメケン,EHIME KEN,38202.0,今治市,イマバリシ,IMABARI SHI,阿方,アガタ,AGATA,,34.067445,132.966444
95,西条署管内,つきまとい,令和5年5月24日(水)午後8時ころ,西条市楢木の路上,女子高校生が自転車で移動中、バイク(灰色又は黒色、スクータータイプ)に乗車の男から後方をつきまとわれたもの。男は、被害者のスピードに合わせるようにしてつきまとった。,30-40歳位、160-170cm位、中肉、短髪、上下黒色様服,西条市楢木の,西条市楢木,0,blue,38.0,愛媛県,エヒメケン,EHIME KEN,38206.0,西条市,サイジョウシ,SAIJO SHI,楢木,ナラノキ,NARANOKI,,33.895784,133.147205
96,松山東署管内,写真撮影等,令和5年5月24日(水)午後7時50分ころ,松山市真砂町の店舗内,女性が店舗内に居たところ、男からスマートフォンを向けられたもの。その後、男は店舗駐輪場に停めていたバイク(ピンク色ナンバープレート、リアケース付き)に乗車して立ち去った。,20-30歳位、170cm位、中肉、黒色短髪、上衣:紺色長袖上着(前部にチャック付き)、下衣:紺色ジーンズ、白色ハイカットスニーカー、黒色マスク、黒色ジェット型ヘルメット着用,松山市真砂町の,松山市真砂町,0,写真撮影等,38.0,愛媛県,エヒメケン,EHIME KEN,38201.0,松山市,マツヤマシ,MATSUYAMA SHI,真砂町,マサゴチョウ,MASAGOCHO,,33.832591,132.760831
97,今治署管内,声かけ,令和5年5月24日午後5時ころ,今治市旭町五丁目の路上,女性がジョギング中、車(軽四自動車、高齢者マーク付き)に乗車の男から「ジョギングしているんですか、健康的ですね。」と声をかけられたもの。,80-90歳位,今治市旭町五丁目の,今治市旭町五丁目,0,green,38.0,愛媛県,エヒメケン,EHIME KEN,38202.0,今治市,イマバリシ,IMABARI SHI,旭町五丁目,アサヒマチ 5,ASAHIMACHI 5,,34.057286,133.005172
98,西条西署管内,不審者,令和5年5月24日(水)午後6時ころ,西条市周布の店舗内,女性が店舗内で買い物中、後方に立っていた男がスマートフォンを操作しながら、女性の両足の間に片足を入れていたもの。,40歳位、肥満、坊主頭(黒髪)、上衣:黒色半袖Tシャツ、下衣:黒色様作業ズボン、ピンク色クロックスサンダル着用,西条市周布の,西条市周布,0,purple,38.0,愛媛県,エヒメケン,EHIME KEN,38206.0,西条市,サイジョウシ,SAIJO SHI,周布,シュウ,SHU,,33.915576,133.079875
99,新居浜署管内,つきまとい,令和5年5月24日(水)午後6時ころ,新居浜市河内町から同市西の土居町一丁目までの路上,女子中学生が自転車で移動中、自転車(黒色、スポーツタイプ)に乗車の男から一定の距離を保ったまま後方をつきまとわれたもの。,30-50歳位、175cm位、やせ型、白髪交じりの黒髪(刈り上げ様)、上衣:黒色半袖服、下衣:黒色半ズボン、サングラス、黒色マスク、黒色スニーカー様、黒色ヘルメット(スポーツタイプ、左右にライン入り)着用、黒色リュックサック所持,新居浜市河内町から同市西の土居町一丁目までの,新居浜市河内町から同市西の土居町一丁目まで,0,blue,,,,,,,,,,,,,,
100,松山南署管内,声かけ,令和5年5月24日(水)午後3時20分ころ,松山市南久米町の路上,小学生女児が徒歩で移動中、徒歩の男から「お菓子いらん?」等と声をかけられたもの。,高年、165-170cm位、やせ型、白髪、上下暗色系服、お菓子(ピーナッツ様)所持,松山市南久米町の,松山市南久米町,0,green,38.0,愛媛県,エヒメケン,EHIME KEN,38201.0,松山市,マツヤマシ,MATSUYAMA SHI,南久米町,ミナミクメマチ,MINAMIKUMEMACHI,,33.817141,132.80287
101,松山南署管内,写真撮影等,令和5年5月23日(火)午前7時30分ころ,松山市久米窪田町の路上,小学生男女児約10人が徒歩で移動中、徒歩の男からスマートフォンを向けられたもの。,30-40歳位、170cm位、中肉、角刈り(黒髪)、上下黒色服,松山市久米窪田町の,松山市久米窪田町,0,写真撮影等,38.0,愛媛県,エヒメケン,EHIME KEN,38201.0,松山市,マツヤマシ,MATSUYAMA SHI,久米窪田町,クメクボタマチ,KUMEKUBOTAMACHI,,33.804652,132.811203
102,宇和島署管内,声かけ,令和5年5月21日(日)午後3時30分ころ,宇和島市和霊町の路上,女子高校生が徒歩で移動中、徒歩の行為者から卑わいな言葉で声をかけられたもの。,30歳位、170cm位、黒色短髪、上衣:青色Tシャツ、下衣:ズボン,宇和島市和霊町の,宇和島市和霊町,0,green,38.0,愛媛県,エヒメケン,EHIME KEN,38203.0,宇和島市,ウワジマシ,UWAJIMA SHI,和霊町,ワレイチョウ,WAREICHO,,33.232284,132.566536
103,新居浜署管内,身体露出,令和5年5月20日(土)午後6時50分ころ,新居浜市西の土居町二丁目の路上,女性が徒歩で移動中、自転車(黒色、ママチャリ風)を押しながら、後方から歩いて接近してきた男に、露出した下半身を見せつけられたもの。,30-40歳位、175-180cm位、中肉、丸顔、短髪、上衣:黒色と灰色のウィンドブレーカー、下衣:黒色様長ズボン,新居浜市西の土居町二丁目の,新居浜市西の土居町二丁目,0,orange,38.0,愛媛県,エヒメケン,EHIME KEN,38205.0,新居浜市,ニイハマシ,NIIHAMA SHI,西の土居町二丁目,ニシノドイチョウ 2,NISHINODOICHO 2,,33.950542,133.277428
104,松山東署管内,卑わいな言動,令和5年5月19日(金)午前7時20分ころ,松山市東雲町の路上,女子中学生が徒歩で移動中、後方から接近してきた自転車(サドルの位置が高い)に乗車の男から、追い抜きざまに胸を触られそうになったもの。,16-18歳位、170cmより高い、やせ型、坊主頭(黒髪)、上衣:白色半袖シャツ、下衣:黒色ズボン、白色マスク着用,松山市東雲町の,松山市東雲町,0,卑わいな言動,38.0,愛媛県,エヒメケン,EHIME KEN,38201.0,松山市,マツヤマシ,MATSUYAMA SHI,東雲町,シノノメチョウ,SHINONOMECHO,,33.845331,132.773986
105,西条署管内,写真撮影等,令和5年5月18日(木)午後3時50分ころ,西条市大町の路上,小学生女児が徒歩で移動中、車(灰色)に乗車の男からスマートフォン(手帳型カバー付き)を向けられたもの。,30-40歳位、黒髪,西条市大町の,西条市大町,1,写真撮影等,38.0,愛媛県,エヒメケン,EHIME KEN,38206.0,西条市,サイジョウシ,SAIJO SHI,大町,オオマチ,OMACHI,,33.911624,133.189252
106,西条署管内,写真撮影等,令和5年5月18日(木)午後3時50分ころ,西条市大町の路上,小学生女児が徒歩で移動中、車(灰色)に乗車の男からスマートフォン(手帳型カバー付き)を向けられたもの。,30-40歳位、黒髪,西条市大町の,西条市大町,1,写真撮影等,38.0,愛媛県,エヒメケン,EHIME KEN,38206.0,西条市,サイジョウシ,SAIJO SHI,大町,オオマチ,OMACHI,福森,33.912953,133.188923
107,愛南署管内,不審者,令和5年5月16日午後8時30分ころ,南宇和郡愛南町城辺の集合住宅,呼鈴が鳴ったため室内で過ごしていた男性が玄関ドアを開けると、ドアの後ろに隠れていた男に「ここ何階ですか。」と尋ねられたもの。,50-60歳位、中肉、上衣:緑色様服,南宇和郡愛南町城辺の集合,南宇和郡愛南町城辺の集合,0,purple,,,,,,,,,,,,,,
108,松山南署管内,声かけ,令和5年5月11日(木)午後6時ころ,伊予郡砥部町宮内の路上,小学生男児が徒歩で移動中、車(黒色、ワゴンタイプ)に乗車の行為者から「車に乗らないか。」と声をかけられたもの。,50歳位、上衣:黒色ジャンパー、顎髭、サングラス、黒色キャップ帽着用,伊予郡砥部町宮内の,伊予郡砥部町宮内,0,green,38.0,愛媛県,エヒメケン,EHIME KEN,38402.0,伊予郡砥部町,イヨグントベチョウ,IYO GUN TOBE CHO,宮内,ミヤウチ,MIYAUCHI,,33.751182,132.795067
109,松山南署管内,ちかん,令和5年5月11日(木)午前8時ころ,松山市古川南三丁目の路上,女性が自転車で移動中、後方から接近してきた自転車(黒色、黒色前かご付き)に乗車の男から腹部を触られたもの。,50歳位、黒色短髪、上衣:黒色服、下衣:黒色ジャージ様,松山市古川南三丁目の,松山市古川南三丁目,0,gray,38.0,愛媛県,エヒメケン,EHIME KEN,38201.0,松山市,マツヤマシ,MATSUYAMA SHI,古川南三丁目,フルカワミナミ 3,FURUKAWAMINAMI 3,,33.802792,132.760676
110,四国中央署管内,声かけ,令和5年5月10日(水)午後6時ころ,四国中央市中曽根町の店舗駐車場内,女子中学生が徒歩で移動中、車(水色)に乗車の男から「車に乗るか?」と声をかけられたもの。,40-60歳位,四国中央市中曽根町の,四国中央市中曽根町,0,green,38.0,愛媛県,エヒメケン,EHIME KEN,38213.0,四国中央市,シコクチュウオウシ,SHIKOKUCHUO SHI,中曽根町,ナカゾネチョウ,NAKAZONECHO,,33.965099,133.549186
111,松山東署管内,つきまとい,令和5年5月9日(火)午後6時ころ,松山市小坂四丁目の路上,男性が自転車で移動中、男女2人組で、それぞれが自転車に乗車の行為者等から、後方をつきまとわれたもの。,1人目(女、15歳位、上衣:灰色パーカー、下衣:スカート(チェック柄)、自転車(白色前かご付き))、2人目(男、15歳位、上衣:白色カッターシャツ、茶色様ベスト、下衣:黒色ズボン、自転車(銀色前かご付き)),松山市小坂四丁目の,松山市小坂四丁目,0,blue,38.0,愛媛県,エヒメケン,EHIME KEN,38201.0,松山市,マツヤマシ,MATSUYAMA SHI,小坂四丁目,コサカ 4,KOSAKA 4,,33.828254,132.780772
112,松山東署管内,つきまとい,令和5年5月7日(日)午後3時30分ころ,松山市大街道二丁目から同市大街道一丁目までの路上,女性が徒歩で移動中、徒歩の男から後方をつきまとわれたもの。,40-50歳位、175-180cm位、やせ型、黒色短髪、上衣:黒色Tシャツ、下衣:水色デニム、傘(白色のナイロン製傘袋入り)所持,松山市大街道二丁目から同市大街道一丁目までの,松山市大街道二丁目から同市大街道一丁目まで,0,blue,,,,,,,,,,,,,,
113,松山南署管内,つきまとい,令和5年5月6日(土)午前0時30分ころ,松山市天山一丁目から同市井門町までの路上,女性が徒歩で移動中、自転車(銀色前かご付き)に乗車の男から、後方をつきまとわれたもの。男は、一定の距離を保ったまま女性につきまとった。,30-40歳位、中肉、黒色短髪、黄緑色カッパ(フード付き),松山市天山一丁目から同市井門町までの,松山市天山一丁目から同市井門町まで,0,blue,,,,,,,,,,,,,,
114,宇和島署管内,身体露出,令和5年5月2日(火)午後8時30分ころ,宇和島市吉田町浅川の路上,男が、下衣を身に着けないまま下半身を露出して路上を歩いていたもの。,60歳位、160cm位、やせ型、坊主頭かスキンヘッド、上衣:紺色様長袖シャツ(ワイシャツ様),宇和島市吉田町浅川の,宇和島市吉田町浅川,0,orange,38.0,愛媛県,エヒメケン,EHIME KEN,38203.0,宇和島市,ウワジマシ,UWAJIMA SHI,吉田町浅川,ヨシダチョウアサカワ,YOSHIDACHO ASAKAWA,,33.267815,132.527652
115,松山南署管内,暴行,令和5年5月2日(火)午後4時00分ころ,伊予郡砥部町高尾田の路上,小学生男児が徒歩で移動中、前方から近づいてきた徒歩の女から、すれ違いざまに腹部を触られたもの。,30歳位、160cm位、中肉、茶色様の髪(ツインテール、肩位の長さ)、上衣:ピンク色タンクトップ、下衣:濃いピンク色のショートパンツ,伊予郡砥部町高尾田の,伊予郡砥部町高尾田,0,red,38.0,愛媛県,エヒメケン,EHIME KEN,38402.0,伊予郡砥部町,イヨグントベチョウ,IYO GUN TOBE CHO,高尾田,タコオダ,TAKODA,,33.779877,132.795277
116,松山南署管内,声かけ,令和5年5月1日(月)午後3時20分ころ,松山市湊町五丁目から同市鷹ノ子町までを走行中の電車内,女子大学生が電車内にいたところ、男が隣に座ってきて、「かわいいね。」と声をかけられたもの。,40-50歳位、小太り、160-165cm位、下衣:黒色ジーパン、電車外では白色ヘルメット着用,松山市湊町五丁目から同市鷹ノ子町までを走行中の電車内,松山市湊町五丁目から同市鷹ノ子町までを走行中の電車内,0,green,,,,,,,,,,,,,,
117,新居浜署管内,つきまとい,令和5年4月上旬の午後11時ころ,新居浜市桜木町の路上,女子中学生他1人が徒歩で移動中、路上に立っていた徒歩の男から後方をつきまとわれたもの。,中年位、170cm位、上衣:黒色様服、下衣:黒色様ズボン,新居浜市桜木町の,新居浜市桜木町,1,blue,38.0,愛媛県,エヒメケン,EHIME KEN,38205.0,新居浜市,ニイハマシ,NIIHAMA SHI,桜木町,サクラギチョウ,SAKURAGICHO,,33.968147,133.299844
118,松山南署管内,声かけ,令和5年4月初旬の午後5時ころ,松山市平井町の路上,女性が徒歩で移動中、車両(軽トラック様)に乗車の男から、「ご主人おるんか。」等と声をかけられたもの。,70-80歳位,松山市平井町の,松山市平井町,0,green,38.0,愛媛県,エヒメケン,EHIME KEN,38201.0,松山市,マツヤマシ,MATSUYAMA SHI,平井町,ヒライマチ,HIRAIMACHI,,33.824694,132.836156
119,松山西署管内,声かけ,令和5年4月28日(金)午後5時10分ころ,松山市西長戸町の路上,小学生女児が徒歩で移動中、自転車(赤色)に乗 車の男から大きな声で「お尻。」と声をかけられたも の。,50-60歳位、中肉、150-160cm位、短髪、上衣:ベ ージュと茶色の薄手上着、ベージュ色の帽子着用、 色黒、メガネ、マスクなし,松山市西長戸町の,松山市西長戸町,0,green,38.0,愛媛県,エヒメケン,EHIME KEN,38201.0,松山市,マツヤマシ,MATSUYAMA SHI,西長戸町,ニシナガトチョウ,NISHINAGATOCHO,,33.867813,132.741949
120,四国中央署管内,つきまとい,令和5年4月28日(金)午後1時10分ころ,四国中央市土居町の路上,小学生女児2人が徒歩で移動中、軽四乗用から降車 した男から、徒歩で後方をつきまとわれたもの。,55-65歳位、160-170cm位、白髪短髪、上衣:黒色 長袖服、下衣:黒色ズボン、黒色サングラス、黒色マ スク着用,四国中央市土居町の,四国中央市土居町,0,blue,,,,,,,,,,,,,,
121,四国中央署管内,声かけ,令和5年4月27日(木)午後2時ころ,四国中央市下柏町の路上,女性が徒歩で移動中、自転車(軽快兼用様、白色、荷台にトイレットペーパーを積載)に乗車の男から、すれ違い様に「ねえちゃん、遊ばん。」と声をかけられたもの。,70~80歳位、やせ型、短髪白髪,四国中央市下柏町の,四国中央市下柏町,0,green,38.0,愛媛県,エヒメケン,EHIME KEN,38213.0,四国中央市,シコクチュウオウシ,SHIKOKUCHUO SHI,下柏町,シモガシワチョウ,SHIMOGASHIWACHO,,33.98585,133.566343
122,八幡浜署管内,声かけ,令和5年4月24日(月)午後5時10分ころ,八幡浜市保内町須川の路上,小学生男女児3人が徒歩で移動中、停車中の車両(白色又は銀色)に乗った男から「こっちにおいで。」と声をかけられたもの。男は手招きをしながら小学生等に声をかけた。,サングラス、マスク着用,八幡浜市保内町須川の,八幡浜市保内町須川,1,green,38.0,愛媛県,エヒメケン,EHIME KEN,38204.0,八幡浜市,ヤワタハマシ,YAWATAHAMA SHI,保内町須川,ホナイチョウスガワ,HONAICHO SUGAWA,,33.483577,132.416987
123,伊予署管内,つきまとい,令和5年4月25日(火)午後5時30分ころ,伊予市下吾川の路上等,女性2人が徒歩で移動中、徒歩の男から後方をつきまとわれたもの。,40歳位、165cm位、中肉、黒色短髪、 上衣:灰色パーカー様(フード付き)、 黒色ダウンジャケット、 下衣:黒色様長ズボン、マスク着用,伊予市下吾川の,伊予市下吾川,0,blue,38.0,愛媛県,エヒメケン,EHIME KEN,38210.0,伊予市,イヨシ,IYO SHI,下吾川,シモアガワ,SHIMOAGAWA,,33.767149,132.708137
124,伊予署管内,つきまとい,令和5年4月25日(火)午後5時30分ころ,伊予市下吾川の路上等,女性2人が徒歩で移動中、徒歩の男から後方をつきまとわれたもの。,40歳位、165cm位、中肉、黒色短髪、 上衣:灰色パーカー様(フード付き)、 黒色ダウンジャケット、 下衣:黒色様長ズボン、マスク着用,伊予市下吾川の,伊予市下吾川,0,blue,38.0,愛媛県,エヒメケン,EHIME KEN,38210.0,伊予市,イヨシ,IYO SHI,下吾川,シモアガワ,SHIMOAGAWA,馬塚,33.772775,132.708144
125,松山南署管内,声かけ,令和5年4月23日(日)午前11時30分ころ,松山市今在家一丁目の路上,女性が徒歩で移動中、徒歩の男から「かわいいね。」と声をかけられたもの。男は付近に車両(茶色、軽四乗用車)を駐車した後、降車して女性に声をかけた。,20-40歳位、165cm位、黒色短髪、上衣:白色半袖Tシャツ、メガネ、白色マスク着用,松山市今在家一丁目の,松山市今在家一丁目,0,green,38.0,愛媛県,エヒメケン,EHIME KEN,38201.0,松山市,マツヤマシ,MATSUYAMA SHI,今在家一丁目,イマザイケ 1,IMAZAIKE 1,,33.809274,132.791593
126,松山西署管内,声かけ,令和5年4月23日(日)午後8時50分ころ,松山市平田町の路上,女性が自転車で移動中、徒歩の男から「一緒に乗せてくれ。」と声をかけられたもの。,40-50歳位、160-170cm位、中肉、上衣:青色若しくは紺色パーカー様(フード付き)、白色マスク着用,松山市平田町の,松山市平田町,0,green,38.0,愛媛県,エヒメケン,EHIME KEN,38201.0,松山市,マツヤマシ,MATSUYAMA SHI,平田町,ヒラタマチ,HIRATAMACHI,,33.887137,132.754694
127,松山東署管内,写真撮影等,令和5年4月21日(金)午後4時00分ころ,松山市溝辺町の公園内,被害者10人が公園内で遊んでいたところ、徒歩の男から一眼レフカメラを向けられたもの。男は付近に停めていた車(白色)で立ち去った。,40歳位、175cm位、やせ型、黒色短髪、上衣:水色長袖服、下衣:灰色ズボン、一眼レフカメラ所持,松山市溝辺町の,松山市溝辺町,0,写真撮影等,38.0,愛媛県,エヒメケン,EHIME KEN,38201.0,松山市,マツヤマシ,MATSUYAMA SHI,溝辺町,ミゾノベマチ,MIZONOBEMACHI,,33.851633,132.805997
128,西条署管内,写真撮影等,令和5年4月19日(水)午後6時30分ころ,西条市朔日市の路上,女性が車で移動中、自転車に乗車の男から携帯電話機を向けられたもの。男は自転車(黒色、軽快兼用、前かごに黒色バッグ積載、自転車のハンドルにビニール傘を掛けている)に跨った状態で路上に停止していた。,40歳位、170cm位、小太り、黒色短髪(パーマ様)、上下濃紺色作業着、黒色メガネ着用、水色様携帯電話機所持,西条市朔日市の,西条市朔日市,1,写真撮影等,38.0,愛媛県,エヒメケン,EHIME KEN,38206.0,西条市,サイジョウシ,SAIJO SHI,朔日市,ツイタチ,TSUITACHI,,33.928571,133.183796
129,伊予署管内,つきまとい,令和5年4月19日(水)午後5時ころ,伊予市中山町出渕の路上,小学生女児2名が遊んでいたところ、徒歩の男から後方をつきまとわれたもの。,50~60歳位、170~180cm位、上下紺色ジャージ、白色帽子着用、棒所持,伊予市中山町出渕の,伊予市中山町出渕,0,blue,38.0,愛媛県,エヒメケン,EHIME KEN,38210.0,伊予市,イヨシ,IYO SHI,中山町出渕,ナカヤマチョウイズブチ,NAKAYAMACHO IZUBUCHI ,,33.636057,132.729836
130,新居浜署管内,身体露出,令和5年4月17日(月)午後7時50時ころ,新居浜市八幡二丁目の海岸,男が全裸で海岸を歩いていたもの。,50~70歳位、170cm位、ぽっちゃり体系、  黒髪(少し髪が伸びた坊主頭)、裸足,新居浜市八幡二丁目の海岸,新居浜市八幡二丁目の海岸,0,orange,,,,,,,,,,,,,,
131,伊予署管内,声かけ,令和5年4月17日(月)午後4時40分ころ,伊予郡松前町大字筒井の路上,女子中学生が自転車で移動中、普通乗用車(白色)が並走しながら、運転席に乗車の男に「おい。」と声をかけられたもの。,60歳位、メガネ着用、マスクなし,伊予郡松前町大字筒井の,伊予郡松前町大字筒井,1,green,38.0,愛媛県,エヒメケン,EHIME KEN,38401.0,伊予郡松前町,イヨグンマサキチョウ,IYO GUN MASAKI CHO,大字筒井,,,,33.790916,132.699561
132,松山西署管内,声かけ,令和5年4月16日(日)午後3時ころ,松山市高岡町の路上,男子高校生が自転車で移動中、徒歩の女から詳細不明の文言で声をかけられ、追いかけられたもの。,60歳位、150cm位、中肉、黒色のお団子頭、上衣:色不明コート、メガネなし、傘を所持,松山市高岡町の,松山市高岡町,0,green,38.0,愛媛県,エヒメケン,EHIME KEN,38201.0,松山市,マツヤマシ,MATSUYAMA SHI,高岡町,タカオカマチ,TAKAOKAMACHI,,33.830862,132.720361
133,新居浜署管内,身体露出,令和5年4月16日(日)午前7時50時ころ,新居浜市西の土居町二丁目の路上,男が路上を全裸で歩いていたもの。,40歳位、160cm位、小太り、坊主頭、手に布様を所持,新居浜市西の土居町二丁目の,新居浜市西の土居町二丁目,1,orange,38.0,愛媛県,エヒメケン,EHIME KEN,38205.0,新居浜市,ニイハマシ,NIIHAMA SHI,西の土居町二丁目,ニシノドイチョウ 2,NISHINODOICHO 2,,33.950542,133.277428
134,松山西署管内,のぞき・盗撮(迷防),令和5年4月14日(日)午後4時10時ころ,松山市安城寺町の路上,女子高校生が自転車で移動中、自転車(銀色、軽快兼用、前かごに傘を積載)に乗車の男から、追い越しざまにスカートの中を覗き込まれたもの。,中肉、短髪黒髪(襟足が長い)、上衣:デニム様紺色上着、下衣:黒色様長ズボン、黒色マスク着用、傘所持,松山市安城寺町の,松山市安城寺町,0,のぞき・盗撮(迷防),38.0,愛媛県,エヒメケン,EHIME KEN,38201.0,松山市,マツヤマシ,MATSUYAMA SHI,安城寺町,アンジョウジマチ,ANJOJIMACHI,,33.879403,132.740016
135,松山東署管内,声かけ,令和5年4月14日(金)午後3時30分ころ,松山市南江戸四丁目の路上,女子中学生が徒歩で移動中、自転車(銀色、軽快兼用)に乗車の男から「君は、男・女どっち。」等と声をかけられたもの。,18~30歳位、170cm位、中肉、黒髪(セミロング)、上衣:赤色半袖Tシャツ、下衣:黒色ジャージ,松山市南江戸四丁目の,松山市南江戸四丁目,0,green,38.0,愛媛県,エヒメケン,EHIME KEN,38201.0,松山市,マツヤマシ,MATSUYAMA SHI,南江戸四丁目,ミナミエド 4,MINAMIEDO 4,,33.837758,132.741668
136,新居浜署管内,身体露出,令和5年4月14日(金)午前11時ころ,新居浜市滝の宮町の公園内,男が公園内のベンチにズボンを下した状態で座り、下半身を露出させていたもの。,30~40歳位、160~170cm位、やせ型、上衣:暗系色のチェック柄長袖シャツ、下衣:暗系色のジーンズ、四角い枠の黒縁メガネ着用,新居浜市滝の宮町の,新居浜市滝の宮町,0,orange,38.0,愛媛県,エヒメケン,EHIME KEN,38205.0,新居浜市,ニイハマシ,NIIHAMA SHI,滝の宮町,タキノミヤチョウ,TAKINOMIYACHO,,33.945056,133.281811
137,松山南署管内,声かけ,令和5年4月13日(木)午後8時40分ころ,松山市来住町の路上,女性が徒歩で移動中、前方に停車した車両(軽四乗用車、茶色)の助手席から降車した男から「ねえねえ、このぐらいのもの落ちてなかった。」と声をかけられたもの。,30~40歳位、やせ型、身長170~175cm位、長めの明るい茶髪、上衣:パンダ柄長袖様服、運転手の特徴等不明,松山市来住町の,松山市来住町,3,green,38.0,愛媛県,エヒメケン,EHIME KEN,38201.0,松山市,マツヤマシ,MATSUYAMA SHI,来住町,キシマチ,KISHIMACHI,,33.806831,132.800645
138,西予署管内,身体露出,令和5年4月12日(水) 午前0時40分ころ,西予市卯之町四丁目の路上,男が全裸で立っていたもの。,全裸、色不明の目出し帽着用、棒状のもの所持、徒歩,西予市卯之町四丁目の,西予市卯之町四丁目,0,orange,,,,,,,,,,,,,,
139,新居浜署管内,声かけ,令和5年4月10日(月)午後5時50分ころ,新居浜市外山町の一般住宅敷地内,女子中学生等2人が一般住宅敷地内に居たところ、路上に自転車を停めた男から詳細不明の文言で声をかけられたもの。男は、自転車を停めたあと敷地内まで入り、女子中学生等に声かけをした。,50~70歳位、やせ型、身長165センチ位、灰色短髪、上下黒色作業着、無精髭あり、メガネなし、銀色の自転車使用,新居浜市外山町の,新居浜市外山町,1,green,38.0,愛媛県,エヒメケン,EHIME KEN,38205.0,新居浜市,ニイハマシ,NIIHAMA SHI,外山町,トヤマチョウ,TOYAMACHO,,33.940416,133.310427
140,松山東署管内,声かけ,令和5年4月10日(月)午後1時30分ころ,松山市山越五丁目の路上,小学生男児が自転車で移動中、自転車に乗車の男から「小学生?」等と声をかけられたもの。,40~50歳位、中肉、身長160~170センチ位、深緑色長袖シャツ様、黒色長ズボン、黒色帽子、補聴器着用、銀色の軽快兼用自転車使用,松山市山越五丁目の,松山市山越五丁目,0,green,38.0,愛媛県,エヒメケン,EHIME KEN,38201.0,松山市,マツヤマシ,MATSUYAMA SHI,山越五丁目,ヤマゴエ 5,YAMAGOE 5,,33.860839,132.751777
141,宇和島署管内,声かけ,令和5年4月10日(月)午前11時50分ころ,宇和島市津島町高田の路上,小学生男児2名が徒歩で移動中、自動車を運転中の男から「君達、何年生。」「家まで送ってあげるから車乗らない。」等と声をかけられたもの。,70~80歳位、中肉、白髪交じりの黒色短髪、黒色長袖、黒色サングラス、白色マスク着用、4人乗りの車両使用(黄色),宇和島市津島町高田の,宇和島市津島町高田,0,green,38.0,愛媛県,エヒメケン,EHIME KEN,38203.0,宇和島市,ウワジマシ,UWAJIMA SHI,津島町高田,ツシマチョウタカタ,TSUSHIMACHO TAKATA,,33.140558,132.526574
142,松山東署管内,つきまとい,令和5年4月9日(日) 午後3時35分ころ,松山市衣山一丁目の店舗内,女子中学生3人が店舗内にいたところ、男からつきまとわれたもの。,30歳位、やせ型、黒色短髪、上下黒色様服、メガネ(細縁)、マスクあり、徒歩,松山市衣山一丁目の,松山市衣山一丁目,0,blue,38.0,愛媛県,エヒメケン,EHIME KEN,38201.0,松山市,マツヤマシ,MATSUYAMA SHI,衣山一丁目,キヌヤマ 1,KINUYAMA 1,,33.853049,132.746374
143,松山西署管内,つきまとい,令和5年4月8日(土)午後6時25分ころ,松山市東長戸一丁目の路上,女性が徒歩で移動中、徒歩の男からつきまとわれたもの。,中肉、身長160センチ位、黒色スカジャン(袖が銀色)、黒色パーカー(フード付き)、大きめの黒色ズボン、トートバッグ所持、サングラス、黒色マスク着用、徒歩,松山市東長戸一丁目の,松山市東長戸一丁目,0,blue,38.0,愛媛県,エヒメケン,EHIME KEN,38201.0,松山市,マツヤマシ,MATSUYAMA SHI,東長戸一丁目,ヒガシナガト 1,HIGASHINAGATO 1,,33.867559,132.753829
144,新居浜署管内,声かけ,令和5年4月5日(水)午後0時40分ころ,新居浜市城下町の路上,女子高校生が自転車で移動中、徒歩の女から暴言を吐かれ、追いかけられたもの。,30~45歳位、やせ型、身長155~160センチ位、黒髪ベリーショート、紫色ワンピース様、黒色手提げバッグ所持、徒歩,新居浜市城下町の,新居浜市城下町,0,green,38.0,愛媛県,エヒメケン,EHIME KEN,38205.0,新居浜市,ニイハマシ,NIIHAMA SHI,城下町,シロシタチョウ,SHIROSHITACHO,,33.952488,133.30305
145,松山西署管内,声かけ,令和5年4月4日(火) 午後5時5分,松山市安城寺町の路上,男子中学生が徒歩で移動中、対向から接近してきた自転車に乗車の男から「ねえねえ、覚えとる。」等と声をかけられたもの。,40~50歳位、中肉、身長:不明、頭髪:不明、上衣:緑色ダウンジャケット、下衣:緑色長ズボン、自転車(白色か灰色、前かご付き)使用,松山市安城寺町の,松山市安城寺町,1,green,38.0,愛媛県,エヒメケン,EHIME KEN,38201.0,松山市,マツヤマシ,MATSUYAMA SHI,安城寺町,アンジョウジマチ,ANJOJIMACHI,,33.879403,132.740016
146,松山西署管内,声かけ,令和5年4月2日(日)午後5時15分ころ,松山市西長戸町の路上,"男子中学生が徒歩で移動中、自転車に乗車の男から「ご飯食べたいけん、1,000円ちょうだい。」と声をかけられたもの。",40~50歳位、中肉、黒色坊主頭、茶色服、黒色長ズボン、自転車使用,松山市西長戸町の,松山市西長戸町,1,green,38.0,愛媛県,エヒメケン,EHIME KEN,38201.0,松山市,マツヤマシ,MATSUYAMA SHI,西長戸町,ニシナガトチョウ,NISHINAGATOCHO,,33.867813,132.741949
147,松山西署管内,つきまとい,令和5年4月1日(土)午後5時10分ころ,松山市平田町から同市馬木町までの路上,女性が徒歩で移動中、徒歩の男から後方をつきまとわれたもの。,20~30歳位、中肉、身長170センチ位、茶色短髪、赤色様パーカー、色不明ズボン、徒歩,松山市平田町から同市馬木町までの,松山市平田町から同市馬木町まで,0,blue,,,,,,,,,,,,,,
148,西条西署管内,写真撮影等,令和5年3月30日(木)午後5時ころ,西条市新市の公園内,女子中学生が友人等と公園内にいたところ、徒歩の男からスマートフォンを向けられたもの。,20~40歳位、やせ型、身長170~175センチ位、黒色短髪、上下黒色スーツ、メガネあり、灰色マスク、革靴、手帳型ケースのスマートフォン所持、徒歩,西条市新市の,西条市新市,0,写真撮影等,38.0,愛媛県,エヒメケン,EHIME KEN,38206.0,西条市,サイジョウシ,SAIJO SHI,新市,シンイチ,SHINICHI,,33.933956,133.064692
149,松山東署管内,ちかん,令和5年3月27日(月)午後6時15分ころ,松山市南江戸一丁目の店舗内,女性が店舗内に居たところ、男からすれ違いざまに、臀部付近を触られたもの。,50~70歳位、中肉、身長170~175センチ位、白髪交じりの黒色短髪、黄緑色ジャンパー、白色マスク着用、徒歩,松山市南江戸一丁目の,松山市南江戸一丁目,0,gray,38.0,愛媛県,エヒメケン,EHIME KEN,38201.0,松山市,マツヤマシ,MATSUYAMA SHI,南江戸一丁目,ミナミエド 1,MINAMIEDO 1,,33.838208,132.75005
150,今治署管内,声かけ,令和5年3月26日(日)午後0時50分ころ,今治市北宝来町一丁目のバス停,女子中学生がバス停の椅子に座っていたところ、男から「隣座っていいかな。どこかで見たことある。SNSで見たことがある。」等と声をかけられたもの。,20~30歳位、中肉、身長160センチ位、茶色短髪、黒色の服、徒歩、白色マスク、サングラス着用、2人組の男(2人目:20~30歳位),今治市北宝来町一丁目のバス停,今治市北宝来町一丁目のバス停,0,green,,,,,,,,,,,,,,
151,新居浜署管内,写真撮影,令和5年3月24日(金) 午後3時ころ,新居浜市滝の宮町の公園内,小学生男女児が公園内にいたところ、男2人から携帯電話機を向けられたもの。,5人組の男(全員12~18歳位、中高生風、自転車使用、内2名携帯電話所持),新居浜市滝の宮町の,新居浜市滝の宮町,1,lightred,38.0,愛媛県,エヒメケン,EHIME KEN,38205.0,新居浜市,ニイハマシ,NIIHAMA SHI,滝の宮町,タキノミヤチョウ,TAKINOMIYACHO,,33.945056,133.281811
152,松山西署管内,写真撮影,令和5年3月22日(水) 午後5時20分ころ,松山市高岡町の路上,小学生男女児が公園内にいたところ、車両に乗車の男からスマートフォンを向けられたもの。,50~70歳位、身長体型不明、黒色ニット帽着用、スマートフォン所持、銀色自動車使用,松山市高岡町の,松山市高岡町,1,lightred,38.0,愛媛県,エヒメケン,EHIME KEN,38201.0,松山市,マツヤマシ,MATSUYAMA SHI,高岡町,タカオカマチ,TAKAOKAMACHI,,33.830862,132.720361
153,松山南署管内,声かけ,令和5年3月22日(水)午後1時30分ころ,東温市北野田の路上,小学生男女児が徒歩で移動中、バイクから降りた男に「住所どこ、どこに住んどん。」等と声をかけられたもの。,60~70歳位、小肥、身長160センチ位、白色短髪、上下白色作業着、白色帽子、白色長靴着用、ヘルメット所持、バイク使用(原付様),東温市北野田の,東温市北野田,0,green,38.0,愛媛県,エヒメケン,EHIME KEN,38215.0,東温市,トウオンシ,TOON SHI,北野田,キタノダ,KITANODA,,33.793893,132.832002
154,四国中央署管内,声かけ,令和5年3月21日(火) 午後10時00分ころ,四国中央市三島中央三丁目の駅構内,女性が駅構内を移動中、同女の前方に立ち塞がった男から「お姉さん、お姉さん。」等と声をかけられたもの。,35~50歳位、小肥、ボサボサ頭の黒髪、青色様の上着、ベージュ色ズボン、徒歩,四国中央市三島中央三丁目の駅構内,四国中央市三島中央三丁目の駅構内,0,green,,,,,,,,,,,,,,
155,松山西署管内,声かけ,令和5年3月19日(日) 午後6時ころ,松山市古三津二丁目の路上,女子中学生が徒歩で移動中、自転車に乗車の男から「お金がないので貸してほしい。」と声をかけられたもの。,70~80歳位、やせ型、身長170センチ位、頭髪:ボサボサ頭、白髪交じりの黒色、上衣:不明、下衣:青色ズボン、無精髭、メガネ・マスクなし、自転車(黒色、ママチャリ風)使用,松山市古三津二丁目の,松山市古三津二丁目,0,green,38.0,愛媛県,エヒメケン,EHIME KEN,38201.0,松山市,マツヤマシ,MATSUYAMA SHI,古三津二丁目,フルミツ 2,FURUMITSU 2,,33.859043,132.727179
156,西条署管内,身体露出,令和5年3月19日(日) 午後4時40分ころ,西条市飯岡の路上,男が、自転車にまたがった状態で下半身を露出していたもの。,20歳位、中肉、上衣:不明、下衣:色不明のズボン様、サイクリスト風、白色半キャップ型様ヘルメット着用、ロードバイク様の自転車使用,西条市飯岡の,西条市飯岡,0,orange,38.0,愛媛県,エヒメケン,EHIME KEN,38206.0,西条市,サイジョウシ,SAIJO SHI,飯岡,イイオカ,IIOKA,,33.914907,133.224739
157,西条署管内,身体露出,令和5年3月19日(日) 午後4時40分ころ,西条市飯岡の路上,男が、自転車にまたがった状態で下半身を露出していたもの。,20歳位、中肉、上衣:不明、下衣:色不明のズボン様、サイクリスト風、白色半キャップ型様ヘルメット着用、ロードバイク様の自転車使用,西条市飯岡の,西条市飯岡,0,orange,38.0,愛媛県,エヒメケン,EHIME KEN,38206.0,西条市,サイジョウシ,SAIJO SHI,飯岡,イイオカ,IIOKA,地蔵原,33.908638,133.214701
158,久万高原署管内,声かけ,令和5年3月16日(木) 午後3時10分ころ,上浮穴郡久万高原町の路上,小学生男女児が徒歩で移動中、徒歩の男から名前を呼ばれ、暴言を吐かれたもの。,40~70歳位、中肉、肌色服、緑色ハット帽、メガネ着用、緑色リュックサック所持、徒歩,上浮穴郡久万高原町の,上浮穴郡久万高原町,0,green,,,,,,,,,,,,,,
159,新居浜署管内,声かけ,令和5年3月15日(水) 午前10時40分,新居浜市瀬戸町の店舗駐車場内,女子高校生が店舗駐車場にいたところ、車で来店した男から「電話番号教えて。どっか行くん。」等と声をかけられたもの。,60歳位、やせ型、上下黒色の服、白色マスク、白色キャップ帽着用、白色の普通乗用自動車使用,新居浜市瀬戸町の,新居浜市瀬戸町,0,green,38.0,愛媛県,エヒメケン,EHIME KEN,38205.0,新居浜市,ニイハマシ,NIIHAMA SHI,瀬戸町,セトチョウ,SETOCHO,,33.944717,133.3005
160,松山西署管内,不審者,令和5年3月14日(火) 午後11時30分ころ,松山市高岡町の路上,女性が徒歩で移動中、交差点で佇む男から凝視されたもの。その後、男は木陰に隠れる等していた。,35~40歳位、中肉、身長170センチ位、黒色短髪、赤色ナイロン製パーカー、黒色短パン、黒色スパッツ、白色軍手、黒色スニーカー着用、携帯電話機様を所持、徒歩,松山市高岡町の,松山市高岡町,2,purple,38.0,愛媛県,エヒメケン,EHIME KEN,38201.0,松山市,マツヤマシ,MATSUYAMA SHI,高岡町,タカオカマチ,TAKAOKAMACHI,,33.830862,132.720361
161,今治署管内,つきまとい,令和5年3月13日(月) 午後5時40分,今治市常盤町五丁目から同市泉川町一丁目までの路上,男子中学生が徒歩で移動中、徒歩の男から後方をつきもとわれたもの。,50~60歳位、がっちり型、身長160センチ位、上衣:緑色上着、セーター、下衣:濃青色ジーパン、黒色様キャップ帽、メガネ着用、徒歩,今治市常盤町五丁目から同市泉川町一丁目までの,今治市常盤町五丁目から同市泉川町一丁目まで,0,blue,,,,,,,,,,,,,,
162,今治署管内,不審者,令和5年3月13日(月) 午後2時40分,今治市石井町四丁目の路上,女子中学生が自転車で移動中、対向してきた自転車に乗車の男から車体を当てられそうになったもの。,60~70歳位、中肉、黒髪、紺色ジャンパー、黒色ズボン、猫背、灰色ニット帽着用、黒色自転車使用,今治市石井町四丁目の,今治市石井町四丁目,0,purple,38.0,愛媛県,エヒメケン,EHIME KEN,38202.0,今治市,イマバリシ,IMABARI SHI,石井町四丁目,イシイチョウ 4,ISHIICHO 4,,34.084415,132.986241
163,松山東署管内,声かけ,令和5年3月11日(土) 午後6時8分,松山市本町三丁目の路上,女子中学生が徒歩で移動中、徒歩の男から「今、帰り?」「どこから来たの?」等と声をかけられたもの。,60~70歳位、中肉、身長160センチ位、髪型不明、上衣:紺系暗色の長袖福、下衣:暗色ズボン、帽子着用、紺色リュックサック所持、帽子着用、徒歩,松山市本町三丁目の,松山市本町三丁目,0,green,38.0,愛媛県,エヒメケン,EHIME KEN,38201.0,松山市,マツヤマシ,MATSUYAMA SHI,本町三丁目,ホンマチ 3,HOMMACHI 3,,33.846311,132.758643
164,宇和島署管内,声かけ,令和5年3月11日(土) 午後1時ころ,宇和島市栄町港二丁目の路上,女子中学生が自転車で移動中、交差点で信号待ちをしていたところ、自転車に乗車の男から自転車のタイヤとタイヤを接触させられ、「触ったらいけないから、自転車のタイヤをくっつけてみた。」等と声を掛けられたもの。,50~60歳位、中肉、身長160センチ位、黒色短髪、上衣:黒色様服、色黒、白色用自転車利用・ヘルメットなし,宇和島市栄町港二丁目の,宇和島市栄町港二丁目,0,green,38.0,愛媛県,エヒメケン,EHIME KEN,38203.0,宇和島市,ウワジマシ,UWAJIMA SHI,栄町港二丁目,サカエマチミナト 2,SAKAEMACHIMINATO 2,,33.222036,132.56031
165,四国中央署管内,写真撮影等,令和5年3月10日(金)午後3時30分,四国中央市金田町の公園内,小学生女児2人が公園内にいたところ、男からスマートフォンを向けられたもの。,35歳位、中肉、身長165センチ位、茶色短髪、黒長袖ジャージ、青色ジーパン、白色マスク着用、スマートフォン(黒色カバー付)所持、徒歩,四国中央市金田町の,四国中央市金田町,0,写真撮影等,,,,,,,,,,,,,,
166,新居浜署管内,声かけ,令和5年3月9日(木) 午後3時30分ころ,新居浜市久保田町一丁目の路上,小学生女児が歩行中、3人組の男から「お菓子あげるから、一緒に遊ぼう。」と声をかけられたもの。,20歳位、身長165センチ位、茶髪、ベージュ色の服、徒歩、3人組の男(2人目:身長165センチ位、黒色様の服、帽子着用、3人目:不詳),新居浜市久保田町一丁目の,新居浜市久保田町一丁目,0,green,38.0,愛媛県,エヒメケン,EHIME KEN,38205.0,新居浜市,ニイハマシ,NIIHAMA SHI,久保田町一丁目,クボタチョウ 1,KUBOTACHO 1,,33.956818,133.28341
167,宇和島署管内,のぞき・盗撮,令和5年3月8日(水) 午前8時ころ,宇和島市広小路の路上,女子中学生が自転車で走行中、路上に座り込んだ男が、被害者のスカート内が見える角度で覗いていたもの。,60~70歳位、中肉、低めの身長、紺又は青色作業着様、紺又は青色長ズボン、茶色帽子・白色マスク着用、徒歩,宇和島市広小路の,宇和島市広小路,0,pink,38.0,愛媛県,エヒメケン,EHIME KEN,38203.0,宇和島市,ウワジマシ,UWAJIMA SHI,広小路,ヒロコウジ,HIROKOJI,,33.216292,132.567751
168,松山西署管内,声かけ,令和5年3月7日(火) 午後0時ころ,松山市南斎院町の路上,女子中学生が自転車で走行中、自転車に乗った6人組の男から「名前教えてや。」「どこの中学行きよん?」「無視すんなや。」等と声をかけられたもの。,15~18歳位、小肥、身長170センチ位、頭髪:金色短髪、着衣不明、自転車使用、6人組,松山市南斎院町の,松山市南斎院町,0,green,38.0,愛媛県,エヒメケン,EHIME KEN,38201.0,松山市,マツヤマシ,MATSUYAMA SHI,南斎院町,ミナミサヤチョウ,MINAMISAYACHO,,33.83303,132.731679
169,宇和島署管内,つきまとい,令和5年3月2日(木)午後3時30分ころ,宇和島市伊吹町の路上,小学生男児が路上にいたところ、男から意味不明な言葉を言われ、走って追いかけられたもの。,15~18歳位、やせ型、170センチ位、黒色短髪、上下黒色学生服様、灰色バッグ所持、マスク・メガネなし、徒歩,宇和島市伊吹町の,宇和島市伊吹町,0,blue,38.0,愛媛県,エヒメケン,EHIME KEN,38203.0,宇和島市,ウワジマシ,UWAJIMA SHI,伊吹町,イブキチョウ,IBUKICHO,,33.234583,132.579287
170,宇和島署管内,つきまとい,令和5年3月2日(木)午後3時30分ころ,宇和島市伊吹町の路上,小学生男児が路上にいたところ、男から意味不明な言葉を言われ、走って追いかけられたもの。,15~18歳位、やせ型、170センチ位、黒色短髪、上下黒色学生服様、灰色バッグ所持、マスク・メガネなし、徒歩,宇和島市伊吹町の,宇和島市伊吹町,0,blue,38.0,愛媛県,エヒメケン,EHIME KEN,38203.0,宇和島市,ウワジマシ,UWAJIMA SHI,伊吹町,イブキチョウ,IBUKICHO,カネツキ田,33.239498,132.569463
171,宇和島署管内,つきまとい,令和5年3月2日(木)午後3時30分ころ,宇和島市伊吹町の路上,小学生男児が路上にいたところ、男から意味不明な言葉を言われ、走って追いかけられたもの。,15~18歳位、やせ型、170センチ位、黒色短髪、上下黒色学生服様、灰色バッグ所持、マスク・メガネなし、徒歩,宇和島市伊吹町の,宇和島市伊吹町,0,blue,38.0,愛媛県,エヒメケン,EHIME KEN,38203.0,宇和島市,ウワジマシ,UWAJIMA SHI,伊吹町,イブキチョウ,IBUKICHO,上井関,33.237591,132.568252
172,宇和島署管内,つきまとい,令和5年3月2日(木)午後3時30分ころ,宇和島市伊吹町の路上,小学生男児が路上にいたところ、男から意味不明な言葉を言われ、走って追いかけられたもの。,15~18歳位、やせ型、170センチ位、黒色短髪、上下黒色学生服様、灰色バッグ所持、マスク・メガネなし、徒歩,宇和島市伊吹町の,宇和島市伊吹町,0,blue,38.0,愛媛県,エヒメケン,EHIME KEN,38203.0,宇和島市,ウワジマシ,UWAJIMA SHI,伊吹町,イブキチョウ,IBUKICHO,北宇和島町,33.237717,132.565731
173,西条署管内,身体露出,令和5年3月1日(水)午後4時30分ころ,西条市飯岡の路上,男が路上でズボンを下ろし、下半身を露出していたもの。,60~70歳位、中肉、白髪、ズボン、徒歩,西条市飯岡の,西条市飯岡,1,orange,38.0,愛媛県,エヒメケン,EHIME KEN,38206.0,西条市,サイジョウシ,SAIJO SHI,飯岡,イイオカ,IIOKA,,33.914907,133.224739
174,西条署管内,身体露出,令和5年3月1日(水)午後4時30分ころ,西条市飯岡の路上,男が路上でズボンを下ろし、下半身を露出していたもの。,60~70歳位、中肉、白髪、ズボン、徒歩,西条市飯岡の,西条市飯岡,1,orange,38.0,愛媛県,エヒメケン,EHIME KEN,38206.0,西条市,サイジョウシ,SAIJO SHI,飯岡,イイオカ,IIOKA,地蔵原,33.908638,133.214701
175,松山南署管内,身体露出,令和5年3月1日(水)午前11時50分ころ,松山市来住町の路上,男が土手沿いに停車させた車両内で下半身を露出していたもの。,上衣:不明、下衣:裸、自動車使用(白色、ボックスタイプ、軽四自動車様),松山市来住町の,松山市来住町,4,orange,38.0,愛媛県,エヒメケン,EHIME KEN,38201.0,松山市,マツヤマシ,MATSUYAMA SHI,来住町,キシマチ,KISHIMACHI,,33.806831,132.800645
176,松山西署管内,つきまとい,令和5年2月28日(火)午後5時ころ,松山市石風呂町の路上,男子高校生が自転車に乗車中、原付バイクに乗車した男女2人組から近づかれた上、後方をつきまとわれたもの。,40~50歳位、二種原付(ピンク色ナンバープレート)、白色ヘルメット着用、2人組(女、40~50歳位、二種原付の後部座席に乗車、ピンク色ヘルメット着用),松山市石風呂町の,松山市石風呂町,0,blue,38.0,愛媛県,エヒメケン,EHIME KEN,38201.0,松山市,マツヤマシ,MATSUYAMA SHI,石風呂町,イシフロマチ,ISHIFUROMACHI,,33.875987,132.717067
177,宇和島署管内,つきまとい,令和5年2月28日(火) 午後4時ころ,宇和島市住吉町二丁目から同市朝日町四丁目までの路上,女子中学生2人が自転車で走行中、後方から走って近づいてきた男に「見つけた。」等と言われながら追いかけられたもの。,40歳位、小肥、身長170~180センチ位、ぼさぼさ頭の黒髪、赤、緑、黄土色3色のジャケット、赤又は茶色長ズボン、帽子・メガネ・マスクなし、徒歩,宇和島市住吉町二丁目から同市朝日町四丁目までの,宇和島市住吉町二丁目から同市朝日町四丁目まで,0,blue,,,,,,,,,,,,,,
178,伯方署管内,声かけ,令和5年2月25日(土) 午前10時45分ころ,越智郡上島町岩城から同町弓削佐島までを航行中の船舶内,女子高校生3人が船舶に乗船中、男から乱暴な言葉を叫ばれたもの。,50~70歳位、やせ型、身長170センチ位、白色短髪、黒色サイクリング用ジャージ、黒色サイクリング用ズボン、自転車使用,越智郡上島町岩城から同町弓削佐島までを航行中の船舶内,越智郡上島町岩城から同町弓削佐島までを航行中の船舶内,0,green,,,,,,,,,,,,,,
179,松山西署管内,つきまとい,令和5年2月23日(木) 午後7時30分ころ,松山市北斎院町から同市南斎院町までの路上,女子高校生が自転車で走行中、前方を歩いていた男2人を追い抜いたところ、同男2人に走って追いかけられたもの。,若い感じの2人組(20歳位)、徒歩,松山市北斎院町から同市南斎院町までの,松山市北斎院町から同市南斎院町まで,0,blue,,,,,,,,,,,,,,
180,宇和島署管内,声かけ,令和5年2月21日(火) 午後2時50分ころ,宇和島市文京町の路上,小学生女児4人が歩行中、徒歩で近づいてきた男から、1万円札を見せられ「お菓子を買ってあげるからついておいで。」と声をかけられたもの。,50~70歳位、中肉、身長165センチ位、白髪混じりの短髪、紺色ジャンパー、黒色ズボン、黒色キャップ帽着用、黒色傘所持、マスクなし、徒歩,宇和島市文京町の,宇和島市文京町,0,green,38.0,愛媛県,エヒメケン,EHIME KEN,38203.0,宇和島市,ウワジマシ,UWAJIMA SHI,文京町,ブンキョウチョウ,BUNKYOCHO,,33.2163,132.559097
181,松山東署管内,つきまとい,令和5年2月21日(火) 午後0時30分ころ,松山市愛光町の路上,女子中学生が自転車で走行中、バイクに乗った男から後方をつきまとわれたもの。,60~70歳位、ヘルメットから少しはみ出る長さの白髪混じり、上下黒色の服、黒色半キャップ型ヘルメット着用、メガネ・マスクなし、オートバイ使用(黒色様、スクータータイプ),松山市愛光町の,松山市愛光町,0,blue,38.0,愛媛県,エヒメケン,EHIME KEN,38201.0,松山市,マツヤマシ,MATSUYAMA SHI,愛光町,アイコウチョウ,AIKOCHO,,33.846316,132.749193
182,松山東署管内,身体露出,令和5年2月20日(月) 午後0時45分ころ,松山市畑寺一丁目の路上,男が路上で下半身を露出し、屈んでいたもの。,肥満、紺色作業着、紺色又は黒色様の長ズボン、徒歩,松山市畑寺一丁目の,松山市畑寺一丁目,0,orange,38.0,愛媛県,エヒメケン,EHIME KEN,38201.0,松山市,マツヤマシ,MATSUYAMA SHI,畑寺一丁目,ハタデラ 1,HATADERA 1,,33.833533,132.800314
183,松山東署管内,不審者,令和5年2月17日(金) 午前0時10分ころ,松山市土居田町の集合住宅,男女2人が集合住宅に在宅中、男から玄関のドアノブを回され、玄関ドアを開けられそうになったもの。,肥満、身長170~180センチ位、黒色パーカー様、黒色ズボン、徒歩,松山市土居田町の集合,松山市土居田町の集合,0,purple,,,,,,,,,,,,,,
184,松山南署管内,暴行,令和5年2月16日(木) 午後3時40分ころ,松山市来住町の路上,女子中学生が歩行中、対向から歩いて来た男から「行こう。」と言って手首を掴まれ、引っ張られたもの。,50~70歳位、やせ型、身長165センチ位、白髪、黒色様長袖、黒縁メガネ・白色マスク着用、徒歩,松山市来住町の,松山市来住町,5,red,38.0,愛媛県,エヒメケン,EHIME KEN,38201.0,松山市,マツヤマシ,MATSUYAMA SHI,来住町,キシマチ,KISHIMACHI,,33.806831,132.800645
185,西条署管内,つきまとい,令和5年2月15日(水) 午後4時30分,西条市玉津の店舗内内,小学生女児2人が店舗内で買い物中、男から後方をつきまとわれたもの。,35~45歳位、やせ型、身長175~180センチ位、頭髪:黒色・耳くらいまでの長さ・くせ毛、上衣:赤色上着、下衣:黒色ズボン短髪、黒色コート、マスク・メガネなし、徒歩,西条市玉津の,西条市玉津,0,blue,38.0,愛媛県,エヒメケン,EHIME KEN,38206.0,西条市,サイジョウシ,SAIJO SHI,玉津,タマツ,TAMATSU,,33.925796,133.201258
186,松山南署管内,写真撮影等,令和5年2月10日(金) 午後4時30分ころ,東温市南方の路上,小学生女児が一般住宅の玄関先にいたところ、徒歩で近づいてきた男から、腰辺りに構えたスマートフォンを向けられたもの。男は、小学生女児の横を通り過ぎた後も、スマートフォンを向けていた。,30~40歳位、小肥、身長160センチ位、上下黒色様の服、黒色スマートフォン所持、メガネなし、徒歩,東温市南方の,東温市南方,0,写真撮影等,38.0,愛媛県,エヒメケン,EHIME KEN,38215.0,東温市,トウオンシ,TOON SHI,南方,ミナミガタ,MINAMIGATA,,33.788918,132.902291
187,大洲署管内,つきまとい,令和5年2月9日(木)午後10時ころ,大洲市東大洲の路上,女性が歩行中、車両に乗車の男から、歩く速度に合わせて並走されつきまとわれたもの。,30歳位、黒色様短髪、メガネ・帽子なし、黒色の軽四自動車使用,大洲市東大洲の,大洲市東大洲,0,blue,38.0,愛媛県,エヒメケン,EHIME KEN,38207.0,大洲市,オオズシ,OZU SHI,東大洲,ヒガシオオズ,HIGASHIOZU,,33.527646,132.571139
188,松山南署管内,写真撮影等,令和5年2月9日(木)午前7時ころ,松山市東方町甲の路上,女子中学生2人が自転車で走行中、路上に停車していた車両に乗車の男から、スマートフォンを向けられたもの。,40歳位、白髪混じりの頭髪、黒色スマートフォン所持、メガネ・マスク・ひげなし、灰色の自動車使用(セダンタイプ),松山市東方町甲の,松山市東方町,0,写真撮影等,38.0,愛媛県,エヒメケン,EHIME KEN,38201.0,松山市,マツヤマシ,MATSUYAMA SHI,東方町,ヒガシガタマチ,HIGASHIGATAMACHI,,33.763088,132.820612
189,大洲署管内,声かけ,令和5年2月8日(水) 午後3時10分ころ,大洲市若宮の路上,小学生男女児4人が歩行中、後方から来た自転車に乗車の男から「お名前は何?」と声をかけられたもの。,60~70歳位、中肉、黒色短髪、茶色の服、黒色ズボン、マスクなし、自転車使用,大洲市若宮の,大洲市若宮,0,green,38.0,愛媛県,エヒメケン,EHIME KEN,38207.0,大洲市,オオズシ,OZU SHI,若宮,ワカミヤ,WAKAMIYA,,33.521514,132.549221
190,大洲署管内,声かけ,令和5年2月6日(月) 午後3時ころ,喜多郡内子町内子の店舗内,未就学児が親族と店舗内にいたところ、男から腕を掴まれ「どこの子?」等と声をかけられたもの。,70~80歳位、上衣:紺色トレーナー、下衣:灰色ズボン、黒色帽子着用、徒歩,喜多郡内子町内子の,喜多郡内子町内子,0,green,38.0,愛媛県,エヒメケン,EHIME KEN,38422.0,喜多郡内子町,キタグンウチコチョウ,KITA GUN UCHIKO CHO,内子,ウチコ,UCHIKO,,33.551735,132.647879
191,新居浜署管内,声かけ,令和5年2月5日(日) 午前8時30分ころ,新居浜市角野新田町三丁目の屋外施設,小学生男児が親族と屋外施設で遊んでいたところ、女から暴言を吐かれ、持っていたスマートフォンを向けられたもの。,20~40歳位、耳が出る位の長さの黒髪、ベージュ色ノースリーブダウン、暗色の長ズボン、スマートフォン所持、徒歩,新居浜市角野新田町三丁目の,新居浜市角野新田町三丁目,0,green,38.0,愛媛県,エヒメケン,EHIME KEN,38205.0,新居浜市,ニイハマシ,NIIHAMA SHI,角野新田町三丁目,スミノシンデンチョウ 3,SUMINOSHINDENCHO 3,,33.923881,133.311069
192,今治署管内,のぞき・盗撮,令和5年2月4日(土) 午前0時ころ,今治市宮下町一丁目の集合住宅,女性が在宅中、男から窓越しに室内を覗かれたもの。,中肉、身長170~175センチ位、長めの髪、黒色様ダウン、ジーパン、徒歩,今治市宮下町一丁目の集合,今治市宮下町一丁目の集合,0,pink,,,,,,,,,,,,,,
193,松山西署管内,のぞき・盗撮,令和5年2月3日(金) 午後4時25分ころ,松山市高岡町の路上,女子中学生が歩行中、後方を歩いていた男から、中腰の状態でスマートフォンをスカート内に向けられたもの。,25~30歳位、やせ型、身長170センチ位、黒色短髪(眉毛にかかる位の長さ)、黒色ジャンパー、黒色長ズボン、黒色ブーツ・紺色マスク着用、黒色手帳型カバー付きスマートフォン所持、徒歩,松山市高岡町の,松山市高岡町,3,pink,38.0,愛媛県,エヒメケン,EHIME KEN,38201.0,松山市,マツヤマシ,MATSUYAMA SHI,高岡町,タカオカマチ,TAKAOKAMACHI,,33.830862,132.720361
194,松山南署管内,つきまとい,令和5年2月2日(木) 午後5時ころ,松山市東石井七丁目から同市北井門一丁目までの路上,女子中学生が歩行中、男から一定の距離を保ちながらつきまとわれたもの。,20~30歳位、やせ型、身長170センチ位、黒色短髪、モコモコした黒色ジャンパー、黒色スラックス、白色マスク着用、メガネなし、徒歩,松山市東石井七丁目から同市北井門一丁目までの,松山市東石井七丁目から同市北井門一丁目まで,0,blue,,,,,,,,,,,,,,
195,新居浜署管内,身体露出,令和5年1月31日(火) 午後7時15分ころ,新居浜市東雲町三丁目の路上,男がズボンを太もも辺りまで下ろし、下半身を露出させた状態で歩いていたもの。,30歳位、やせ型、低めの身長、上衣:ジャージ様、下衣:ジーンズ様、徒歩,新居浜市東雲町三丁目の,新居浜市東雲町三丁目,0,orange,38.0,愛媛県,エヒメケン,EHIME KEN,38205.0,新居浜市,ニイハマシ,NIIHAMA SHI,東雲町三丁目,シノノメチョウ 3,SHINONOMECHO 3,,33.9611,133.300771
196,松山東署管内,身体露出,令和5年1月31日(火) 午後4時30分ころ,松山市緑町二丁目の集合住宅,男がズボンのチャックから下半身を露出させた状態で、集合住宅の階段上に立っていたもの。,30~40歳位、中肉、ボサっとした短髪、マスク・メガネなし、徒歩,松山市緑町二丁目の集合,松山市緑町二丁目の集合,0,orange,,,,,,,,,,,,,,
197,松山西署管内,声かけ,令和5年1月30日(月) 午後1時15分ころ,松山市久万ノ台の路上,女性ら数人が店舗先の路上に並んでいたところ、犬を連れて歩く男から大声で暴言を吐かれたもの。,40~60歳位、身長160~165センチ位、白髪混じりで長くも短くもない髪型、黒色様ジャンパー、犬を連れていた、徒歩,松山市久万ノ台の,松山市久万ノ台,0,green,38.0,愛媛県,エヒメケン,EHIME KEN,38201.0,松山市,マツヤマシ,MATSUYAMA SHI,久万ノ台,クマノダイ,KUMANODAI,,33.859432,132.742567
198,松山西署管内,声かけ,令和5年1月28日(土) 午後6時ころ,松山市北条の路上,女子中学生が歩行中、犬を連れて歩く男から「LINE交換しない?」等と声をかけられたもの。,50~60歳位、中肉、身長170センチ位、白髪混じりの短髪、オレンジ色ジャンパー、犬を連れている、徒歩,松山市北条の,松山市北条,0,green,38.0,愛媛県,エヒメケン,EHIME KEN,38201.0,松山市,マツヤマシ,MATSUYAMA SHI,北条,ホウジョウ,HOJO,,33.978983,132.779623
199,松山東署管内,声かけ,令和5年1月27日(金) 午後4時20分ころ,松山市岩崎町二丁目の路上,小学生女児が歩行中、男から「6年生?」「どこの中学校行くん?」「名前は?」等と声をかけられ、つきまとわれたもの。,70~80歳位、中肉、身長150~160センチ位、黄緑色ダウン、暗色ズボン、黒色か紺色ニット帽・茶色縁メガネ・白色マスク着用、徒歩,松山市岩崎町二丁目の,松山市岩崎町二丁目,0,green,38.0,愛媛県,エヒメケン,EHIME KEN,38201.0,松山市,マツヤマシ,MATSUYAMA SHI,岩崎町二丁目,イワサキマチ 2,IWASAKIMACHI 2,,33.846113,132.784088
200,四国中央署管内,つきまとい,令和5年1月25日(水) 午後7時ころ,四国中央市村松町の路上,女性が子供と歩行中、対向から歩いて来た男から、すれ違い後にUターンしてつきまとわれたもの。,30歳位、中肉、身長175センチ位、上下暗色ジャージ(胸元が白く光っていた)、ニット帽着用、徒歩,四国中央市村松町の,四国中央市村松町,0,blue,38.0,愛媛県,エヒメケン,EHIME KEN,38213.0,四国中央市,シコクチュウオウシ,SHIKOKUCHUO SHI,村松町,ムラマツチョウ,MURAMATSUCHO,,33.997561,133.554638
201,松山東署管内,写真撮影等,令和5年1月24日(火) 午前11時ころ,松山市湊町七丁目の路上,女子高校生が路上にいたところ、電柱に隠れた男からデジタルカメラを向けられたもの。,50~60歳位、ベージュ色の服、紺色ジーパン、灰色ニット帽・黒色運動靴着用、黒色リュックサック・レジ袋・銀色デジタルカメラ所持、徒歩,松山市湊町七丁目の,松山市湊町七丁目,0,写真撮影等,38.0,愛媛県,エヒメケン,EHIME KEN,38201.0,松山市,マツヤマシ,MATSUYAMA SHI,湊町七丁目,ミナトマチ 7,MINATOMACHI 7,,33.835713,132.755855
202,今治署管内,凝視,令和5年1月23日(月) 午後4時ころ,今治市別宮町九丁目の集合住宅敷地内,小学生女児が集合住宅の敷地内で、男から凝視されたもの。,30~40歳位、中肉、身長170センチ位、黒色短髪、上下紺色作業着、徒歩,今治市別宮町九丁目の集合,今治市別宮町九丁目の集合,0,凝視,,,,,,,,,,,,,,
203,松山東署管内,つきまとい,令和5年1月23日(月) 午後3時50分ころ,松山市湊町五丁目から同市立花二丁目までを走行中の電車内,女子高校生が電車に乗車中、男から「高校生ですか?専門学生ですか?帰りですか?」等と声をかけられ、電車から降車した後もつきまとわれたもの。,20~30歳位、中肉、身長165~170センチ位、黒色短髪(目・耳にかからない程度)、上衣長袖、茶色長ズボン、黒色スニーカー着用、黒色リュックサック所持、メガネ・マスク・ヒゲなし、徒歩,松山市湊町五丁目から同市立花二丁目までを走行中の電車内,松山市湊町五丁目から同市立花二丁目までを走行中の電車内,0,blue,,,,,,,,,,,,,,
204,西条署管内,身体露出,令和5年1月23日(月) 午前10時30分ころ,西条市飯岡から同市下島山甲までの路上,女子中学生が自転車で走行中、自転車に乗った全裸の男からつきまとわれたもの。,30~50歳位、中肉、身長160~170センチ位、黒色短髪(薄毛)、全裸、自転車使用(銀色、カゴ付き、ママチャリ様),西条市飯岡から同市下島山甲までの,西条市飯岡から同市下島山甲まで,0,orange,,,,,,,,,,,,,,
205,新居浜署管内,つきまとい,令和5年1月19日(木) 午後4時30分ころ,新居浜市泉宮町から同市泉池町までの路上,小学生男児が歩行中、自転車に乗った男から「こんにちは」と声をかけられ、すれ違い後Uターンして後方をつきまとわれたもの。,60歳位、中肉、白色短髪、赤色ジャンパー、黒色長ズボン、灰色帽子着用、銀色自転車使用,新居浜市泉宮町から同市泉池町までの,新居浜市泉宮町から同市泉池町まで,0,blue,,,,,,,,,,,,,,
206,四国中央署管内,身体露出,令和5年1月17日(火) 午後6時45分ころ,四国中央市寒川町の路上,女子中学生が歩行中、男から追い抜きざまに声をかけられ、露出させた下半身を見せつけられたもの。,男、徒歩,四国中央市寒川町の,四国中央市寒川町,0,orange,38.0,愛媛県,エヒメケン,EHIME KEN,38213.0,四国中央市,シコクチュウオウシ,SHIKOKUCHUO SHI,寒川町,サンガワチョウ,SANGAWACHO,,33.952462,133.507717
207,四国中央署管内,身体露出,令和5年1月17日(火) 午後6時45分ころ,四国中央市寒川町の路上,女子中学生が歩行中、男から追い抜きざまに声をかけられ、露出させた下半身を見せつけられたもの。,男、徒歩,四国中央市寒川町の,四国中央市寒川町,0,orange,38.0,愛媛県,エヒメケン,EHIME KEN,38213.0,四国中央市,シコクチュウオウシ,SHIKOKUCHUO SHI,寒川町,サンガワチョウ,SANGAWACHO,大門,33.967211,133.503062
208,今治署管内,声かけ,令和5年1月17日(火) 午後3時50分ころ,今治市喜田村六丁目の路上,小学生男児2人が歩行中、2人組の男から「写真を撮らせてほしい。」「写真を送るから住所教えて。」「ジュース買ってあげるから。」等と声をかけられたもの。,20~30歳位、中肉、身長170センチ位、黒色短髪、上下黒色様の服、黒色マスク着用、スマートフォン所持、徒歩、同伴者:男(20~30歳位、中肉、身長165センチ位、黒色短髪、上下黒色様の服),今治市喜田村六丁目の,今治市喜田村六丁目,0,green,38.0,愛媛県,エヒメケン,EHIME KEN,38202.0,今治市,イマバリシ,IMABARI SHI,喜田村六丁目,キタムラ 6,KITAMURA 6,,34.044306,133.022631
209,今治署管内,写真撮影,令和5年1月16日(月) 午後1時ころ,今治市馬越町四丁目の店舗駐車場内,女性が駐車中の車両内にいたところ、隣に駐車した車両の運転席に乗っていた男から、女性に背を向けて自撮りするような状態でスマートフォンを向けられたもの。,40歳位、小肥、黒色短髪、黒色様長袖、大きな目、タバコを吸っていた、メガネ・マスクなし、黒色普通乗用車使用,今治市馬越町四丁目の,今治市馬越町四丁目,0,lightred,38.0,愛媛県,エヒメケン,EHIME KEN,38202.0,今治市,イマバリシ,IMABARI SHI,馬越町四丁目,ウマゴエチョウ 4,UMAGOECHO 4,,34.055246,132.981332
210,松山南署管内,身体露出,令和5年1月13日(金) 午後7時20分ころ,東温市牛渕の路上,全裸の男が、路上に立っていたもの。,全裸、目出し帽着用、徒歩,東温市牛渕の,東温市牛渕,0,orange,38.0,愛媛県,エヒメケン,EHIME KEN,38215.0,東温市,トウオンシ,TOON SHI,牛渕,ウシブチ,USHIBUCHI,,33.790706,132.848621
211,西条西署管内,身体露出,令和5年1月12日(木) 午後5時ころ,西条市三津屋の路上,女性が歩行中、車両から声をかけてきた男が、車を止めて降車し「出すぞ、出すぞ。」と言って近づきながら、ズボンから露出させた下半身を見せつけてきたもの。,20~30歳位、中肉、ツーブロックの黒髪、黒色トレーナー、黒色ズボン、軽トラック使用,西条市三津屋の,西条市三津屋,0,orange,38.0,愛媛県,エヒメケン,EHIME KEN,38206.0,西条市,サイジョウシ,SAIJO SHI,三津屋,ミツヤ,MITSUYA,,33.934752,133.086945
212,松山東署管内,つきまとい,令和5年1月11日(水) 午後8時ころ,松山市道後湯之町の路上,女性が歩行中、男から「あのー、こんばんは。」と声をかけられ、つきまとわれたもの。,30~40歳位、中肉、身長160センチ位、黒色短髪、濃い緑色ジャンパー、青色ジーパン、濃い顔、白色マスク着用、メガネなし、徒歩,松山市道後湯之町の,松山市道後湯之町,0,blue,38.0,愛媛県,エヒメケン,EHIME KEN,38201.0,松山市,マツヤマシ,MATSUYAMA SHI,道後湯之町,ドウゴユノマチ,DOGO YUNOMACHI,,33.851251,132.785321
213,松山東署管内,つきまとい,令和5年1月11日(水) 午後5時50分ころ,松山市湊町七丁目の施設内,女子高校生が施設内で、男から聞き取れない言葉をかけられ、つきまとわれたもの。,30~45歳位、やせ型、身長165~170センチ位、黒色短髪、上衣:黒色長袖ジャンパー・灰色トレーナー、下衣:灰色長ズボン、猫背、ショルダーバッグ所持、黒縁メガネ・白色不織布マスク着用、帽子なし、徒歩,松山市湊町七丁目の,松山市湊町七丁目,1,blue,38.0,愛媛県,エヒメケン,EHIME KEN,38201.0,松山市,マツヤマシ,MATSUYAMA SHI,湊町七丁目,ミナトマチ 7,MINATOMACHI 7,,33.835713,132.755855
214,西条西署管内,身体露出,令和5年1月10日(火) 午後5時30分ころ,西条市三津屋東の路上,女性が歩行中、前方に立ち塞がった男から「見える?」と声をかけられ、下半身を見せつけられたもの。,25~30歳位、中肉、黒色短髪、上下灰色の服、メガネ・マスクなし、徒歩,西条市三津屋東の,西条市三津屋東,0,orange,38.0,愛媛県,エヒメケン,EHIME KEN,38206.0,西条市,サイジョウシ,SAIJO SHI,三津屋東,ミツヤヒガシ,MITSUYAHIGASHI,,33.933834,133.092862
215,松山南署管内,不審者,令和5年1月10日(火) 午後5時ころ,東温市下林の一般住宅,小学生女児が在宅中、男から玄関のドアノブをガチャガチャと回され、ドアを開けられそうになったもの。,70歳位、キャップ帽着用,東温市下林の,東温市下林,0,purple,38.0,愛媛県,エヒメケン,EHIME KEN,38215.0,東温市,トウオンシ,TOON SHI,下林,シモバヤシ,SHIMOBAYASHI,,33.758917,132.869324
216,松山東署管内,不審者,令和5年1月9日(月) 午後9時ころ,松山市小栗三丁目の路上,女性が自転車で走行中、道路を横断して駆け寄ってきた徒歩の男から腕を掴まれそうになったもの。,20~30歳位、中肉、身長170センチ位、上衣:黒色パーカー、下衣:黒色スウェット、徒歩,松山市小栗三丁目の,松山市小栗三丁目,0,purple,38.0,愛媛県,エヒメケン,EHIME KEN,38201.0,松山市,マツヤマシ,MATSUYAMA SHI,小栗三丁目,オグリ 3,OGURI 3,,33.827376,132.759671
217,松山南署管内,不審者,令和5年1月9日(月) 午後4時30分ころ,松山市鷹子町の集合住宅敷地内,男が集合住宅の敷地内に立っていたもの。別の日も、同男が同じ場所に立っており、目撃者が男に目を向けると逃げて行った。,25~40歳位、身長170~180センチ位、短髪、黒色コート、ズボン様、大きい目、マスク着用、徒歩,松山市鷹子町の集合,松山市鷹子町の集合,0,purple,,,,,,,,,,,,,,
218,松山東署管内,つきまとい,令和5年1月7日(土) 午前1時ころ,松山市本町六丁目から同市東長戸四丁目までの路上,女性が車両で走行中、車両に乗車の男から後方を追従され、追い越された後に待ち伏せされるなどしてつきまとわれたもの。,25~40歳位、中肉、メガネ着用、銀色様の軽四自動車利用,松山市本町六丁目から同市東長戸四丁目までの,松山市本町六丁目から同市東長戸四丁目まで,0,blue,,,,,,,,,,,,,,
219,松山東署管内,のぞき・盗撮,令和5年1月6日(金) 午後2時20分ころ,松山市三番町六丁目の施設敷地内,男が、窓ガラス越しにカーテンの隙間から、室内を覗き見ていたもの。,40歳位、身長170センチ位、上下黒色様の服、黒色ニット帽着用、黒色リュックサック所持、徒歩,松山市三番町六丁目の,松山市三番町六丁目,0,pink,38.0,愛媛県,エヒメケン,EHIME KEN,38201.0,松山市,マツヤマシ,MATSUYAMA SHI,三番町六丁目,サンバンチョウ 6,SAMBANCHO 6,,33.837928,132.760035
220,松山東署管内,声かけ,令和5年1月6日(金) 午前11時20分ころ,松山市畑寺二丁目の路上,男子中学生が歩行中、すれ違った車両が後退して真横で停車し、乗車していた男から暴言を吐かれたもの。,50~60歳位、白髪混じりの黒色短髪、オレンジ色ダウンジャケット、白色マスク着用、帽子・メガネなし、こげ茶色の軽四自動車使用,松山市畑寺二丁目の,松山市畑寺二丁目,0,green,38.0,愛媛県,エヒメケン,EHIME KEN,38201.0,松山市,マツヤマシ,MATSUYAMA SHI,畑寺二丁目,ハタデラ 2,HATADERA 2,,33.83093,132.799445
221,松山東署管内,写真撮影等,令和5年1月5日(木) 午後5時ころ,松山市小栗一丁目の河川敷,女性が男児と歩行中、付近をランニングしていた男が前方約50メートル先に立ち止まり、リュックサックから取り出したデジタルカメラ様のものを男児に向けてきたもの。,40~50歳位、やせ型、身長160センチ位、灰色長袖ジャージ、灰色ジャージズボン、黒色リュックサック・デジタルカメラ様のもの所持、黒色キャップ帽着用、徒歩,松山市小栗一丁目の,松山市小栗一丁目,0,写真撮影等,38.0,愛媛県,エヒメケン,EHIME KEN,38201.0,松山市,マツヤマシ,MATSUYAMA SHI,小栗一丁目,オグリ 1,OGURI 1,,33.826979,132.763189
222,松山西署管内,つきまとい,令和5年1月2日(月) 午後0時30分ころ,松山市北条辻の店舗内,女性2人が家族等と買い物中、男から数メートル後方をつきまとわれたもの。,20~40歳位、小肥、身長175センチ位、黒色短髪・天然パーマ、上衣:青色と黒色のジャンパー、下衣:白色長ズボン、黒色ショルダーバッグ、黒色トートバッグ所持、徒歩,松山市北条辻の,松山市北条辻,1,blue,38.0,愛媛県,エヒメケン,EHIME KEN,38201.0,松山市,マツヤマシ,MATSUYAMA SHI,北条辻,ホウジョウツジ,HOJO TSUJI,,33.968379,132.777843
