,管轄署,種別,日時,場所,状況,特徴,住所,address,count,color,都道府県コード,都道府県名,都道府県名カナ,都道府県名ローマ字,市区町村コード,市区町村名,市区町村名カナ,市区町村名ローマ字,大字町丁目コード,大字町丁目名,緯度,経度
0,松山西署管内,つきまとい,令和3年3月29日(月)午後5時ころ,松山市別府町駐車場内,女児小学生らが歩いていたところ、後方を男につきまとわれたもの。男は駐車場に駐車していた車(クリーム色の普通車様)に乗って立ち去った。,やせ型、白色ジャケット、灰色長ズボン、白色キャップ帽着用、眼鏡・マスクなし,松山市別府町,松山市別府町,0,blue,38.0,愛媛県,エヒメケン,EHIME KEN,38201.0,松山市,マツヤマシ,MATSUYAMA SHI,382010280000.0,別府町,33.846241,132.720868
1,松山南署管内,不審者,令和3年3月27日(土)午後4時10分ころ,伊予郡砥部町北川毛一般住宅玄関先,女児小学生が在宅中、玄関のガラス越しに何かを置く男の姿を目撃し、しばらくして玄関先を確認すると、小石が置かれていたもの。,中肉、身長160〜165センチ位、青色フード付き上衣,伊予郡砥部町北川毛,伊予郡砥部町北川毛,0,purple,38.0,愛媛県,エヒメケン,EHIME KEN,38402.0,伊予郡砥部町,イヨグントベチョウ,IYO GUN TOBE CHO,384020012000.0,北川毛,33.739711,132.784622
2,西条署管内,身体露出,令和3年3月27日(土)午後3時ころ,西条市喜多川路上,後方からゆっくり近づいてきた車(黒色)に乗った男が下半身を露出していたもの。,,西条市喜多川,西条市喜多川,0,orange,38.0,愛媛県,エヒメケン,EHIME KEN,38206.0,西条市,サイジョウシ,SAIJO SHI,382060025000.0,喜多川,33.922611,133.170114
3,松山東署管内,つきまとい,令和3年3月26日(金)午後8時20分ころ,松山市千舟町七丁目一般住宅,女性が帰宅のため、自転車を自宅駐輪場に置き、自宅につながる外階段を上がっていたところ、駐輪場に立っていた男が女性を見上げながら、階段を上がってきたもの。,20〜30歳位、中肉、上下黒色様の服、黒色リュックサック所持,松山市千舟町七丁目,松山市千舟町七丁目,0,blue,38.0,愛媛県,エヒメケン,EHIME KEN,38201.0,松山市,マツヤマシ,MATSUYAMA SHI,382010185007.0,千舟町七丁目,33.837093,132.75672
4,松山西署管内,つきまとい,令和3年3月25日(木)午後3時30分ころ,松山市空港通六丁目店舗から同市空港通五丁目路上までの間,女性が店舗内で買い物中、後方から様子を窺うようにしていた男に、店外に出た後もつきまとうように後方をつきまとわれたもの。,30〜40歳位、小肥、身長160〜170センチ位、黒色でくせ毛の長髪、薄紫色Tシャツ、黒色ズボン、黒色サングラス着用、折り畳んだオレンジ色の服を所持),松山市空港通六丁目,松山市空港通六丁目,0,blue,38.0,愛媛県,エヒメケン,EHIME KEN,38201.0,松山市,マツヤマシ,MATSUYAMA SHI,382010106006.0,空港通六丁目,33.827811,132.730422
5,松山東署管内,声かけ,令和3年3月24日(水)午後4時30分ころ,松山市清水町二丁目路上,女子小学生2名が歩いていたところ、男2名に現金を手渡され、執拗に氏名や住所等を聞かれながらつきまとわれたもの。,A(20歳位、やせ型、身長170センチ位、上下黒色の服、眼鏡・黒色キャップ帽着用、マスク無し、スマートフォン所持、青色スポーツタイプ自転車利用)、B(20歳位、やせ型、身長170センチ位、黒色短髪、黒色上衣、灰色下衣、顔に赤色のにきび多数あり、眼鏡・マスクなし),松山市清水町二丁目,松山市清水町二丁目,0,green,38.0,愛媛県,エヒメケン,EHIME KEN,38201.0,松山市,マツヤマシ,MATSUYAMA SHI,382010139002.0,清水町二丁目,33.850248,132.764059
6,松山東署管内,ちかん,令和3年3月21日(日)午後5時ころ,松山市湯の山店舗内,女子高校生が店内にいたところ、男に軽く臀部を触られ、店外に出た後も近づいてこられ、再度臀部を触られそうになったもの。男は、車に乗って立ち去った。,30〜40歳位、中肉、身長170センチ位、黒色短髪、黒色ロングTシャツ、黒色ジャージ、白色の普通乗用車利用、目が細い、マスク着用、レジ袋所持,松山市湯の山,松山市湯の山,0,gray,,,,,,,,,,,,
7,松山南署管内,声かけ,令和3年3月20日(土)午後0時40分ころ,松山市居相一丁目路上,男児小学生が徒歩で移動中、車(黒色、四角で小さい)に乗った男に「おい、お父さんが大変だ。」などと声をかけられた上、車から降りた男に追いかけられたもの。,30歳位、中肉、黒色短髪、黒色の上衣、黒色サングラス・ピアス着用,松山市居相一丁目,松山市居相一丁目,0,green,38.0,愛媛県,エヒメケン,EHIME KEN,38201.0,松山市,マツヤマシ,MATSUYAMA SHI,382010016001.0,居相一丁目,33.810574,132.774073
8,松山東署管内,身体露出,令和3年3月20日(土)午前2時20分ころ,松山市平和通四丁目路上から同市平和通六丁目路上までの間,女性が歩いていたところ、男に先回りされたりしてつきまとわれた上、露出した下半身を見せつけられたもの。,20〜30歳位、身長160〜170センチ位、やせ型、黒色様短髪、上下灰色スウェット(背中に黒色で柄あり)、眼鏡・髭・マスクなし,松山市平和通四丁目,松山市平和通四丁目,0,orange,38.0,愛媛県,エヒメケン,EHIME KEN,38201.0,松山市,マツヤマシ,MATSUYAMA SHI,382010279004.0,平和通四丁目,33.84723,132.763343
9,松山東署管内,つきまとい,令和3年3月18日(木)午前11時15分ころ,松山市南江戸一丁目施設内,女子中学生が施設内にいたところ、居合わせた男に凝視されたもの。視線に気がついた女子中学生が席を替えても男がついてきた。,40〜50歳位、中肉、白髪混じり短髪、紺色ジャンパー、灰色長ズボン、灰色ネックウォーマー・眼鏡・白色マスク着用,松山市南江戸一丁目,松山市南江戸一丁目,0,blue,38.0,愛媛県,エヒメケン,EHIME KEN,38201.0,松山市,マツヤマシ,MATSUYAMA SHI,382010313001.0,南江戸一丁目,33.838208,132.75005
10,四国中央署管内,不審者,令和3年3月18日(木)午前0時45分ころ,四国中央市川之江町路上,隣家の敷地からフードを被った男が出てきたため、目撃者が声をかけるも、男は無視してそのまま立ち去ったもの。,中年、身長180センチ位、小肥、灰色パーカー、灰色スウェット、黒色トートバッグ所持,四国中央市川之江町,四国中央市川之江町,0,purple,38.0,愛媛県,エヒメケン,EHIME KEN,38213.0,四国中央市,シコクチュウオウシ,SHIKOKUCHUO SHI,382130008000.0,川之江町,34.014304,133.579682
11,松山西署管内,声かけ,令和3年3月17日(水)午後5時ころ,松山市片山屋外施設,男児小学生らが屋外施設から歩いて帰宅しようとしたところ、入口に立っていた女に「何してくれてんだ。」などと怒鳴られたもの。,30〜40歳位、肥満、身長155センチ位、黒髪(長めの髪を後ろで結んでいる)、黒色様の服、黒色ズボン、白色キャップ帽・ピンク色サングラス着用,松山市片山,松山市片山,0,green,38.0,愛媛県,エヒメケン,EHIME KEN,38201.0,松山市,マツヤマシ,MATSUYAMA SHI,382010070000.0,片山,33.949053,132.777825
12,松山西署管内,声かけ,令和3年3月17日(水)午後3時30分ころ,松山市堀江町路上,女子小学生が歩いていたところ、自転車(灰色、軽快兼用)に乗った男に近づかれ、「おい。」と声をかけられたもの。,40歳位、中肉、黒色短髪、灰色長袖Tシャツ、緑色長ズボン、マスク・眼鏡なし,松山市堀江町,松山市堀江町,0,green,38.0,愛媛県,エヒメケン,EHIME KEN,38201.0,松山市,マツヤマシ,MATSUYAMA SHI,382010288000.0,堀江町,33.908885,132.759138
13,松山東署管内,声かけ,令和3年3月12日(金)午後5時30分ころ,松山市保免西一丁目一般住宅玄関先,女児小学生が自宅に入ろうとしたところ、後方から近づいてきた男に「大人の人に渡しておいて。」と言いながら新品のハンドクリームを渡されたもの。,30〜40歳位、やせ型、黒髪、黒色様の服、黒色様ズボン,松山市保免西一丁目,松山市保免西一丁目,0,green,38.0,愛媛県,エヒメケン,EHIME KEN,38201.0,松山市,マツヤマシ,MATSUYAMA SHI,382010285001.0,保免西一丁目,33.817546,132.744424
14,松山東署管内,声かけ,令和3年3月11日(木)午後3時10分ころ,松山市朝日ヶ丘二丁目路上,女児小学生が歩行中、車に乗った男に怒鳴られたもの。,,松山市朝日ヶ丘二丁目,松山市朝日ヶ丘二丁目,0,green,,,,,,,,,,,,
15,松山東署管内,声かけ,令和3年3月10日(水)午後3時5分ころ,松山市美沢二丁目路上,女児小学生らが歩いて横断歩道を渡ろうとすると、車(赤色、軽四自動車)が来たため渡るのをやめたところ、車に乗った男に暴言を吐かれたもの。,30〜40歳位、やせ型、眼鏡なし,松山市美沢二丁目,松山市美沢二丁目,0,green,38.0,愛媛県,エヒメケン,EHIME KEN,38201.0,松山市,マツヤマシ,MATSUYAMA SHI,382010300002.0,美沢二丁目,33.849809,132.744542
16,四国中央署管内,写真撮影,令和3年3月9日(火)午後6時5分ころ,四国中央市中之庄町路上,女子中学生が歩いていたところ、男にスマートフォン(銀色)を向けられたもの。,60歳位、やせ型、身長170センチ位、白髪混じり短髪、上下黒色様作業着,四国中央市中之庄町,四国中央市中之庄町,0,lightred,38.0,愛媛県,エヒメケン,EHIME KEN,38213.0,四国中央市,シコクチュウオウシ,SHIKOKUCHUO SHI,382130046000.0,中之庄町,33.963258,133.536488
17,松山西署管内,写真撮影,令和3年3月9日(火)午後6時ころ,松山市会津町店舗内,女児小学生が保護者と店内で買い物中、男にスマートフォンで容姿を撮影されたもの。保護者が男に「写真を撮っていましたか。消して。」と声をかけると、男は車(銀色、ステーションワゴン)に乗って逃走した。,35歳位、中肉、身長165センチ位、茶色短髪、紺色ジャンパー、茶色ベスト、紺色ジーパン、マスクなし,松山市会津町,松山市会津町,0,lightred,38.0,愛媛県,エヒメケン,EHIME KEN,38201.0,松山市,マツヤマシ,MATSUYAMA SHI,382010003000.0,会津町,33.862186,132.726065
18,四国中央署管内,声かけ,令和3年3月7日(日)午後3時40分ころ,四国中央市土居町天満路上,小学生3名が公園で遊んでいたところ、自転車(カゴに手袋を積載)を押して通りかかった男が、下半身を触りながら、意味不明な言葉をかけてきたもの。,70歳位、中肉、身長165センチ位、上下黒色ジャージ、ニット帽着用,四国中央市土居町天満,四国中央市土居町天満,0,green,38.0,愛媛県,エヒメケン,EHIME KEN,38213.0,四国中央市,シコクチュウオウシ,SHIKOKUCHUO SHI,382130031000.0,土居町天満,33.978484,133.406257
19,四国中央署管内,つきまとい,令和3年3月5日(金)午後4時20分ころ,四国中央市中曽根町路上,女児小学生が歩いていたところ、男につきまとわれ、凝視されたもの。,40〜50歳位、やせ型、身長170センチ位、暗い茶髪、白色シャツ、青色上着、灰色ズボン、黒色スニーカー着用、黒色かばん・傘所持,四国中央市中曽根町,四国中央市中曽根町,0,blue,38.0,愛媛県,エヒメケン,EHIME KEN,38213.0,四国中央市,シコクチュウオウシ,SHIKOKUCHUO SHI,382130045000.0,中曽根町,33.965099,133.549186
20,今治署管内,声かけ,令和3年3月4日(木)午後3時45分ころ,今治市黄金町三丁目路上,男児小学生が歩いていたところ、停車している車に乗った男に「僕、車に乗っていかん。」と声をかけられたもの。,80歳位、白髪、灰色の服、銀色の軽四自動車利用、白色マスク着用、眼鏡なし,今治市黄金町三丁目,今治市黄金町三丁目,0,green,38.0,愛媛県,エヒメケン,EHIME KEN,38202.0,今治市,イマバリシ,IMABARI SHI,382020088003.0,黄金町三丁目,34.062591,133.00491
21,松山東署管内,声かけ,令和3年3月4日(木)午後3時30分ころ,松山市衣山付近走行中の列車内,女児小学生が列車に乗っていたところ、車内に居合わせた男に「ここで降りるんだ。」と声をかけられたもの。数日前には、同一の男に「今何時。」と声をかけられている。,50〜60歳位、黒髪、灰色ジャケット、マスク着用、赤色バッグ所持,松山市衣山,松山市衣山,0,green,,,,,,,,,,,,
22,松山西署管内,写真撮影,令和3年3月4日(木)午前7時05分ころ,松山市東大栗町甲路上,男女児小学生3名が歩いていたところ、車に乗った男に近づかれ、車内からスマートフォンを向けられたもの。,30〜40歳位、黒色短髪、自動車利用(薄いメタリックブルー、普通車、コンパクトカー様)、眼鏡なし,松山市東大栗町甲,松山市東大栗町,0,lightred,38.0,愛媛県,エヒメケン,EHIME KEN,38201.0,松山市,マツヤマシ,MATSUYAMA SHI,382010250000.0,東大栗町,33.904426,132.782986
23,松山東署管内,卑わいな言動,令和3年3月3日(水)午後7時30分ころ,松山市余戸中六丁目路上,女子高校生が自転車で走行中、交差点で一時停止したところ、軽四自動車(白色、箱形)に横付けされ、運転席に座っていた男に車内から卑わいな言葉をかけられたもの。,30歳位、中肉、黒色短髪、黒縁眼鏡着用,松山市余戸中六丁目,松山市余戸中六丁目,0,卑わいな言動,38.0,愛媛県,エヒメケン,EHIME KEN,38201.0,松山市,マツヤマシ,MATSUYAMA SHI,382010351006.0,余戸中六丁目,33.81758,132.733672
24,松山南署管内,写真撮影,令和3年3月2日(火)午後4時35分ころ,東温市北方路上,女子中学生2名が歩いていたところ、対向から歩いてきた男に、すれ違いざま、スマートフォンと黒色一眼レフ様カメラで容姿を撮影されたもの。その後、男はニヤっとした後、走り去った。,20歳位、やせ型、身長180センチ位、前髪が目にかかる程度の黒髪、カーキ色フード付きジャンパー、黒色長ズボン、斜め掛けリュック所持,東温市北方,東温市北方,0,lightred,38.0,愛媛県,エヒメケン,EHIME KEN,38215.0,東温市,トウオンシ,TOON SHI,382150006000.0,北方,33.820826,132.91541
25,四国中央署管内,住居侵入,令和3年3月1日(月)午後4時ころ,四国中央市土居町北野一般住宅,住民らが庭先にいたところ、男が住宅の敷地に無断で立ち入り、郵便受けに記載された女子児童の名前を読み上げたもの。住民が声をかけるも、男は何も答えず路上に停めてあった自転車(黒色、通学用自転車、前カゴ付き)に乗って走り去った。,20〜25歳位、やせ型、身長160〜170センチ位、黒色短髪、上下黒色ジャージ(白色三本ライン入り)、黒縁眼鏡・黒色ヘルメット着用、ひげなし、黒色スポーツバッグ所持,四国中央市土居町北野,四国中央市土居町北野,0,darkred,38.0,愛媛県,エヒメケン,EHIME KEN,38213.0,四国中央市,シコクチュウオウシ,SHIKOKUCHUO SHI,382130028000.0,土居町北野,33.959404,133.393946
26,松山東署管内,身体露出,令和3年2月27日(土)午後5時10分ころ,松山市南江戸二丁目路上,自転車に跨って、露出した下半身を触っている男の姿が目撃されたもの。,30〜40歳位、中肉、身長170センチ位、天然パーマ様の黒色短髪、上衣:緑色ベスト、黒色長ズボン、黒色自転車利用、黒色スマートフォン所持,松山市南江戸二丁目,松山市南江戸二丁目,0,orange,38.0,愛媛県,エヒメケン,EHIME KEN,38201.0,松山市,マツヤマシ,MATSUYAMA SHI,382010313002.0,南江戸二丁目,33.837105,132.747599
27,松山西署管内,不審者,令和3年2月25日(木)午後5時40分ころ,松山市別府町公園,女児小学生2名が公園で遊んでいたところ、バイク(銀色スクーター型、前カゴ付)を駐輪し、煙草を吸っている男に凝視されたもの。,60〜70歳位、小肥、白髪混じり天然パーマ様の巻髪、えんじ色のジャンパー、青色様ジーンズ、黒色手袋様・銀色フルフェイス型ヘルメット着用,松山市別府町,松山市別府町,1,purple,38.0,愛媛県,エヒメケン,EHIME KEN,38201.0,松山市,マツヤマシ,MATSUYAMA SHI,382010280000.0,別府町,33.846241,132.720868
28,松山東署管内,身体露出,令和3年2月25日(木)午後4時30分ころ,松山市桑原二丁目路上,ズボンを下げ、女性用下着を身に着けた男が自転車を立ちこぎしながら、路上を往復したもの。,50歳位、中肉、身長165〜170センチ位、黒色短髪、黒色様の上衣、ジーパン、女性用ショーツ、自転車利用(銀色、ママチャリ)、マスク着用、髭なし、つり目,松山市桑原二丁目,松山市桑原二丁目,0,orange,38.0,愛媛県,エヒメケン,EHIME KEN,38201.0,松山市,マツヤマシ,MATSUYAMA SHI,382010115002.0,桑原二丁目,33.835795,132.791822
29,松山東署管内,卑わいな言動,令和3年2月25日(木)午後0時20分ころ,松山市姫原公園,女子高校生が自転車で走行中、自転車(銀色、前カゴ付き)に乗った男に後方をつきまとわれ、逃げ込んだ公園内で卑わいな言葉をかけられたもの。,30〜40歳位、中肉、黒色短髪、黒色ジャンパー、灰色作業ズボン様、白色マスク着用,松山市姫原,松山市姫原,0,卑わいな言動,,,,,,,,,,,,
30,松山東署管内,声かけ,令和3年2月23日(火)午後6時10分ころ,松山市松末一丁目路上から同市三町三丁目路上までの間,女性が自転車で走行中、自転車(軽快兼用、前カゴ付き)に乗った男に並走され、「こんにちは、素敵な出会いですね、どこか行きましょう。」と声をかけられたもの。,30〜35歳位、やせ型、坊主頭、ベージュ色セーター、丸型の眼鏡着用、マスクなし,松山市松末一丁目,松山市松末一丁目,0,green,38.0,愛媛県,エヒメケン,EHIME KEN,38201.0,松山市,マツヤマシ,MATSUYAMA SHI,382010296001.0,松末一丁目,33.826837,132.790334
31,松山東署管内,声かけ,令和3年2月22日(月)午後2時10分ころ,松山市畑寺三丁目から四丁目までの路上,女児小学生が徒歩で移動中、自転車に乗った男に何かボソボソと声をかけられ、ニヤつかれたもの。,30〜40歳位、中肉、灰色スウェット、マスク着用,松山市畑寺三丁目から四丁目までの,松山市畑寺三丁目から四丁目まで,0,green,,,,,,,,,,,,
32,新居浜署管内,写真撮影,令和3年2月22日(月)午前8時ころ,新居浜市瀬戸町路上から同市岸の上町一丁目路上までの間,男児小学生が歩いていたところ、車に乗った男に複数回にわたってスマートフォンを向けられ、つきまとわれたもの。,60歳位、灰色自動車利用、スマートフォン所持,新居浜市瀬戸町,新居浜市瀬戸町,0,lightred,38.0,愛媛県,エヒメケン,EHIME KEN,38205.0,新居浜市,ニイハマシ,NIIHAMA SHI,382050052000.0,瀬戸町,33.944717,133.3005
33,四国中央署管内,声かけ,令和3年2月21日(日)午後5時20分ころ,四国中央市土居町入野路上,女性が農作業中、男にトイレの場所を尋ねられたが無視していると、他の通行人には声をかけず立ち去ったもの。なお、数か月前にも同じ行為者から同様の声かけをされている。,20〜30歳位、やせ型、身長170センチ位、黒色短髪、黒色長袖上衣、緑色スウェットズボン、黒縁眼鏡着用、黒色リュックサック所持,四国中央市土居町入野,四国中央市土居町入野,0,green,38.0,愛媛県,エヒメケン,EHIME KEN,38213.0,四国中央市,シコクチュウオウシ,SHIKOKUCHUO SHI,382130024000.0,土居町入野,33.950339,133.421129
34,松山西署管内,声かけ,令和3年2月21日(日)午後2時30分ころ,松山市西垣生町公園,女児小学生4名が公園で遊んでいたところ、男に「名前なんて言うんぞ。」「何年生ぞ。」「なんでマスクつけとるんぞ。」などと声をかけられたもの。,75〜80歳位、中肉、身長160センチ位、白髪混じりの短髪、白色長袖シャツ、肌色ベスト(ケチャップ様の汚れが付着している)、長ズボン、黒色スニーカー・黒色キャップ帽・銀縁眼鏡着用、目の下にほくろがある,松山市西垣生町,松山市西垣生町,0,green,38.0,愛媛県,エヒメケン,EHIME KEN,38201.0,松山市,マツヤマシ,MATSUYAMA SHI,382010233000.0,西垣生町,33.813675,132.701207
35,大洲署管内,声かけ,令和3年2月20日(土)午前10時ころ,喜多郡内子町大瀬中央路上,女児小学生が自転車で走行中、男に「望遠鏡を見せてあげる。」と声をかけられたもの。,60〜70歳位、中肉、身長170センチ位、白髪、黒色上衣、望遠鏡所持、マスクなし,喜多郡内子町大瀬中央,喜多郡内子町大瀬中央,0,green,38.0,愛媛県,エヒメケン,EHIME KEN,38422.0,喜多郡内子町,キタグンウチコチョウ,KITA GUN UCHIKO CHO,384220008000.0,大瀬中央,33.600222,132.734117
36,四国中央署管内,のぞき・盗撮,令和3年2月18日(木)午後11時ころ,四国中央市金生町下分一般住宅敷地内,女性が脱衣所にいたところ、男に脱衣所の窓から覗かれたもの。,若い男、やせ型、顔が小さめ,四国中央市金生町下分,四国中央市金生町下分,0,pink,38.0,愛媛県,エヒメケン,EHIME KEN,38213.0,四国中央市,シコクチュウオウシ,SHIKOKUCHUO SHI,382130013000.0,金生町下分,34.00079,133.582415
37,松山南署管内,不審者,令和3年2月18日(木)午後8時ころ,松山市福音寺町店舗駐車場内,営業中の店舗周辺を徘徊しながら、店舗内を覗き込む男がいたもの。男は、店舗従業員が声かけするも、無視して徘徊を続けた後、立ち去った。,60〜70歳位、中肉、身長160センチ位、黒色ダウンジャケット、黒色ズボン、黒色ニット帽着用,松山市福音寺町,松山市福音寺町,0,purple,38.0,愛媛県,エヒメケン,EHIME KEN,38201.0,松山市,マツヤマシ,MATSUYAMA SHI,382010263000.0,福音寺町,33.821822,132.790842
38,松山東署管内,不審者,令和3年2月18日(木)午前7時20分ころ,松山市辻町路上,男児小学生が歩いていたところ、前方から歩いてきた男とすれ違った後、反転した男に近づかれ、凝視されたもの。,40歳位、中肉、身長175センチ位、短髪、黒色ダウンジャケット、黒色ズボン、黒色キャップ帽・黒色マスク着用、目が細い,松山市辻町,松山市辻町,0,purple,38.0,愛媛県,エヒメケン,EHIME KEN,38201.0,松山市,マツヤマシ,MATSUYAMA SHI,382010189000.0,辻町,33.84332,132.748952
39,松山東署管内,声かけ,令和3年2月16日(火)午後5時ころ,松山市宮西二丁目路上,女子高校生が自転車で走行中、信号待ちで停車していると、付近に立っていた男に「後ろに乗せてくれん。」と声をかけられたもの。女子高校生がこれを断ると、男は「あっそ。」と言い、立ち去った。,20〜30歳位、黒色様の上衣、白色様帽子・白色マスク着用,松山市宮西二丁目,松山市宮西二丁目,0,green,38.0,愛媛県,エヒメケン,EHIME KEN,38201.0,松山市,マツヤマシ,MATSUYAMA SHI,382010326002.0,宮西二丁目,33.848687,132.752838
40,宇和島署管内,声かけ,令和3年2月16日(火)午後4時40分ころ,宇和島市伊吹町路上,女児小学生が徒歩で移動中、前方から近づいてきた男にお辞儀をしたところ、「一緒に家に行かない。」と声をかけられたもの。,50〜60歳位、肥満、身長165センチ位、白髪混じりで頭頂部がはげ、黒色パーカー(胸元に白色の英語文字入り)、ズボン、黒色マスク着用、眼鏡なし,宇和島市伊吹町,宇和島市伊吹町,0,green,38.0,愛媛県,エヒメケン,EHIME KEN,38203.0,宇和島市,ウワジマシ,UWAJIMA SHI,382030005000.0,伊吹町,33.234583,132.579287
41,松山西署管内,声かけ,令和3年2月16日(火)午後4時30分ころ,松山市馬木町路上,女児小学生2名が路上にいたところ、自転車に乗った男に「ジュース代あげる。」などと声をかけられたもの。,60〜70歳位、中肉、身長160〜170センチ位、耳にかからない程度の白色短髪、ウィンドブレーカー、自転車利用(ママチャリ様、前カゴ付き)、白色マスク着用,松山市馬木町,松山市馬木町,0,green,38.0,愛媛県,エヒメケン,EHIME KEN,38201.0,松山市,マツヤマシ,MATSUYAMA SHI,382010043000.0,馬木町,33.893107,132.744688
42,宇和島署管内,暴行,令和3年2月15日(月)午後5時ころ,宇和島市柿原甲路上,女児小学生が歩いていたところ、自転車に乗った男に後方から近づかれ、「覚えとけよ。」などと言われながら、頭を1回叩かれたもの。,60歳位、中肉、黒色パーカーの下にチェック柄シャツ、青色ズボン、青色ニット帽・黒色マスク着用、眼鏡なし、銀色軽快兼用自転車利用,宇和島市柿原甲,宇和島市柿原,0,red,38.0,愛媛県,エヒメケン,EHIME KEN,38203.0,宇和島市,ウワジマシ,UWAJIMA SHI,382030011000.0,柿原,33.239534,132.594091
43,松山南署管内,声かけ,令和3年2月15日(月)午後4時20分ころ,松山市和泉南一丁目路上,女児小学生2名が路上にいたところ、車に乗って近づいてきた男に「飴いる。」と声をかけられ、断ると、地面に向けて飴を投げつけられたもの。,60〜70歳位、中肉、黒色短髪、黒色ジャージ、黒色スウェットズボン、コンパクトカー様の黒色自動車利用、銀色で細いフレームの眼鏡着用,松山市和泉南一丁目,松山市和泉南一丁目,0,green,38.0,愛媛県,エヒメケン,EHIME KEN,38201.0,松山市,マツヤマシ,MATSUYAMA SHI,382010028001.0,和泉南一丁目,33.818264,132.764546
44,松山東署管内,つきまとい,令和3年2月14日(日)午後6時10分ころ,松山市湯渡町路上から同市石手五丁目路上までの間,女性が車で走行中、車(灰色、軽四箱バン)に乗った男に後方を執拗につきまとわれ、女性が駐車場に入った後も付近に停車し、車内から凝視してきたもの。,黒色マスク着用,松山市湯渡町,松山市湯渡町,0,blue,38.0,愛媛県,エヒメケン,EHIME KEN,38201.0,松山市,マツヤマシ,MATSUYAMA SHI,382010350000.0,湯渡町,33.840046,132.783517
45,宇和島署管内,ちかん,令和3年2月14日(日)午後2時30分ころ,宇和島市伊吹町甲店舗内,女性が店舗で勤務中、後方を通過した男に手で臀部を軽く触れられた。後刻、同所において、別の従業員も同様に臀部を触れられたもの。,40〜50歳位、中肉、身長160センチ位、黒色長髪、黄色と灰色のトレーナー、黒色様スラックス、白色軽四乗用自動車利用、黒縁眼鏡・白色マスク・黒色様靴着用,宇和島市伊吹町甲,宇和島市伊吹町,1,gray,38.0,愛媛県,エヒメケン,EHIME KEN,38203.0,宇和島市,ウワジマシ,UWAJIMA SHI,382030005000.0,伊吹町,33.234583,132.579287
46,松山東署管内,つきまとい,令和3年2月14日(日)午前2時50分ころ,松山市三番町路上から同市清水町一丁目路上までの間,女性が自転車で走行中、自転車に乗った男に後方をつきまとわれたもの。,20〜30歳位、身長160センチ位、中肉、耳にかかる程度の黒髪、黒色様上衣、黒色様ズボン、白色マスク着用、眼鏡なし、黒色様自転車(後部荷台にビニールカバーで覆われた荷物積載)利用,松山市三番町,松山市三番町,0,blue,,,,,,,,,,,,
47,松山西署管内,写真撮影,令和3年2月11日(木)午前9時35分ころ,松山市西垣生町公園内,女児小学生2名が公園内で遊んでいたところ、付近に車を停めて降りてきた男2名が公園内の写真を大量に撮り始め、女児小学生らにもカメラを向け、写真を撮られたもの。男らは、写真を撮った後、車で立ち去った。,A(50〜60歳位、身長170センチ位、やせ型、上下緑色様の服、帽子着用、携帯電話所持)、B(50〜60歳位、身長170センチ位、やせ型、上下緑色様の服、帽子着用)、白色セダン型自動車利用,松山市西垣生町,松山市西垣生町,1,lightred,38.0,愛媛県,エヒメケン,EHIME KEN,38201.0,松山市,マツヤマシ,MATSUYAMA SHI,382010233000.0,西垣生町,33.813675,132.701207
48,松山南署管内,不審者,令和3年2月9日(火)午後6時5分ころ,松山市東方町甲一般住宅,女児小学生が自宅の玄関先にいたところ、自宅と隣家の間に入り込んだ男が女児小学生の様子を窺いながら塀を叩いているのを目撃したもの。,35〜40歳位、身長175センチ位、やせ型、耳が隠れる長さの黒髪、黒色ジャンパー、黒色ズボン、黒色サングラス、黒色マスク、暗色ニット帽、赤色と黒色のチェック柄手袋着用,松山市東方町甲,松山市東方町,0,purple,38.0,愛媛県,エヒメケン,EHIME KEN,38201.0,松山市,マツヤマシ,MATSUYAMA SHI,382010251000.0,東方町,33.763088,132.820612
49,宇和島署管内,暴行,令和3年2月9日(火)午後5時ころ,宇和島市伊吹町路上,男児小学生が徒歩で移動中、道端に立っていた男に挨拶をしたところ、「うるさいてや、近所迷惑になるぞ。」と怒鳴られた。その後、男児小学生が男の前を通り過ぎると、後ろから自転車に乗った男に追い越され、自転車から降りて近づいてきた男に肩を1回叩かれ、「今度からは黙って下校しろ。」などと言われたもの。,60歳位、身長170センチ位、やせ型、ボサボサの白色短髪、インナー様の青色長袖シャツ(左胸に白色でロゴ入り)、黒色様長ズボン,宇和島市伊吹町,宇和島市伊吹町,2,red,38.0,愛媛県,エヒメケン,EHIME KEN,38203.0,宇和島市,ウワジマシ,UWAJIMA SHI,382030005000.0,伊吹町,33.234583,132.579287
50,四国中央署管内,声かけ,令和3年2月9日(火)午後3時10分ころ,四国中央市金生町下分路上,女児小学生が歩いていたところ、対向してきた車が付近の駐車場に停まり、車から降りてきた男に「一緒に乗っていこう。」と声をかけられたもの。女児小学生が走って逃げると、男は車で走り去った。,小肥、身長165センチ位、横側は短く後ろ髪が肩にかかる長さの黒髪、赤色と緑色のチェック柄シャツ、ベージュ色ズボン、黒色キャップ帽、サングラス、ピンク色サンダル着用、マスクなし、年配ではない、日焼けした肌、白色軽四貨物車利用,四国中央市金生町下分,四国中央市金生町下分,1,green,38.0,愛媛県,エヒメケン,EHIME KEN,38213.0,四国中央市,シコクチュウオウシ,SHIKOKUCHUO SHI,382130013000.0,金生町下分,34.00079,133.582415
51,新居浜署管内,写真撮影,令和3年2月6日(土)午後8時ころ,新居浜市高木町店舗内,女子高校生ら3名が店舗を訪れ自転車を駐輪していたところ、店内から女子高校生らの様子を窺う男に気が付いた。その後、女子高校生らが飲食していたところ、男が女子高校生らに携帯電話機のレンズを向けながらテーブル脇を通り過ぎたもの。,30〜40歳位、小肥、スキンヘッド、黒縁眼鏡、暗色の手提げバッグ4個程度所持、黒色系の自動車(小型、車高が低い)利用,新居浜市高木町,新居浜市高木町,0,lightred,38.0,愛媛県,エヒメケン,EHIME KEN,38205.0,新居浜市,ニイハマシ,NIIHAMA SHI,382050055000.0,高木町,33.951505,133.285612
52,松山南署管内,写真撮影,令和3年2月6日(土)午後1時ころ,松山市天山一丁目店舗内,女性が小学生の娘と2人で店舗内を移動中、男に後方をつきまとわれ、携帯電話のカメラを向けられたもの。,50〜60歳位、中肉、耳にかかる長さの黒髪、灰色とピンク色ボーダー柄セーター、茶色様柄入り長ズボン、白色マスク・茶色靴着用、黒色ガラケー所持,松山市天山一丁目,松山市天山一丁目,0,lightred,38.0,愛媛県,エヒメケン,EHIME KEN,38201.0,松山市,マツヤマシ,MATSUYAMA SHI,382010012001.0,天山一丁目,33.822489,132.778633
53,松山東署管内,声かけ,令和3年2月5日(金)午前0時30分ころ,松山市大街道三丁目路上及び同市平和通二丁目路上,女性が自転車で移動中、車(白色、セダン型)で並走してきた男に車内から「ドライブに行こう。」と声をかけられ、断るも、別の場所に再度現れ、車から降りてきた男に太ももを触られながら卑わいな言葉を言われたもの。,20歳位、中肉、身長170センチ位、茶髪パーマ、黒色様ジャンパー、ベージュ色様長ズボン、色白、マスク・眼鏡・髭なし,松山市大街道三丁目,松山市大街道三丁目,0,green,38.0,愛媛県,エヒメケン,EHIME KEN,38201.0,松山市,マツヤマシ,MATSUYAMA SHI,382010052003.0,大街道三丁目,33.843224,132.770284
54,新居浜署管内,つきまとい,令和3年2月3日(水)午後3時20分ころ,新居浜市又野一丁目路上から同市又野三丁目までの間,女児小学生が歩いていたところ、挨拶してすれ違った自転車(前カゴ付)に乗った男が再び現れ、つきまとわれたもの。,40〜50歳位、やせ型、赤縁眼鏡着用、色白,新居浜市又野一丁目,新居浜市又野一丁目,0,blue,38.0,愛媛県,エヒメケン,EHIME KEN,38205.0,新居浜市,ニイハマシ,NIIHAMA SHI,382050095001.0,又野一丁目,33.971004,133.325672
55,松山南署管内,写真撮影,令和3年2月3日(水)午前10時05分ころ,松山市平井町甲路上,園児らが児童施設の敷地内で遊んでいたところ、男にスマートフォン(黒色)を向けられたもの。,30〜40歳位、身長170センチ位、小肥、黒色短髪、黒色ダウンジャケット、ベージュ色チノパン、黒色マスク・白色靴着用,松山市平井町甲,松山市平井町,0,lightred,38.0,愛媛県,エヒメケン,EHIME KEN,38201.0,松山市,マツヤマシ,MATSUYAMA SHI,382010260000.0,平井町,33.824694,132.836156
56,宇和島署管内,声かけ,令和3年1月30日(土)午後5時35分ころ,宇和島市鶴島町路上,女児小学生2名が施設を出たところ、施設内で独り言を言っていた男に近づいてこられ、意味不明の言葉をかけられたり、「一緒にトイレに行こう。」と言われたもの。断ると、男は歩いて立ち去った。,60〜70歳位、小肥、身長170センチ位、白色短髪、上下黒色様の服、灰色シャツ、白色マスク・黒色と白色の靴(スニーカー)着用、色黒、ポケットに手を突っ込んでいた,宇和島市鶴島町,宇和島市鶴島町,0,green,38.0,愛媛県,エヒメケン,EHIME KEN,38203.0,宇和島市,ウワジマシ,UWAJIMA SHI,382030073000.0,鶴島町,33.226361,132.565391
57,大洲署管内,つきまとい,令和3年1月28日(木)午後4時30分ころ,大洲市東大洲路上,女子中学生が歩いていたところ、前方からきた男に凝視され、すれ違った後、Uターンした男に追いかけられたもの。,65〜70歳位、中肉、白色短髪、黒か灰色の長袖、銀色自転車利用(前カゴ付)、マスク・サングラス着用,大洲市東大洲,大洲市東大洲,0,blue,38.0,愛媛県,エヒメケン,EHIME KEN,38207.0,大洲市,オオズシ,OZU SHI,382070061000.0,東大洲,33.527646,132.571139
58,伊予署管内,声かけ,令和3年1月28日(木)午後3時30分ころ,伊予郡松前町大字昌農内路上,女児小学生が歩いていたところ、男に道を聞かれ答えると、名札を持ち上げるように触られた上、顔を近づけられたもの。,60〜70歳位、中肉、茶色コート、長ズボン、茶色ハット帽・黒色様靴・白色紙マスク着用、茶色手提げかばん所持,伊予郡松前町大字昌農内,伊予郡松前町大字昌農内,0,green,38.0,愛媛県,エヒメケン,EHIME KEN,38401.0,伊予郡松前町,イヨグンマサキチョウ,IYO GUN MASAKI CHO,384010008000.0,大字昌農内,33.800268,132.720447
59,松山西署管内,声かけ,令和3年1月27日(水)午後5時10分ころ,松山市南斎院町路上,女性が勤務を終え、駐車場まで徒歩で移動中、後方から歩いてきた男と肩がぶつかり、「痛い、痛い」と言いながら近づいてこられたもの。女性が男の相手をせず、車に乗り込むと、車の窓を手で叩かれ、聞き取れない言葉をかけられた。,30歳位、中肉、身長160センチ位、黒色短髪(前髪やや長め)、白色ジャンパー(一部黒色で背面にイラスト入り)、黒色長ズボン、黒色サングラス・黒色マスク着用、髭なし,松山市南斎院町,松山市南斎院町,0,green,38.0,愛媛県,エヒメケン,EHIME KEN,38201.0,松山市,マツヤマシ,MATSUYAMA SHI,382010316000.0,南斎院町,33.83303,132.731679
60,松山西署管内,つきまとい,令和3年1月27日(水)午後4時ころ,松山市八反地路上,小学生らが歩いていたところ、後方を男につきまとわれたもの。,50〜60歳位、身長170センチ位、ベージュ色ナイロン製長袖、黒色長ズボン、ニット帽・マスク・ネックウォーマー着用,松山市八反地,松山市八反地,0,blue,38.0,愛媛県,エヒメケン,EHIME KEN,38201.0,松山市,マツヤマシ,MATSUYAMA SHI,382010243000.0,八反地,33.965262,132.791637
61,松山東署管内,声かけ,令和3年1月26日(火)午前8時ころ,松山市枝松四丁目駐車場内,男子中学生が車から降車中、男に大声で何か言われたもの。,40〜50歳位、やせ型、身長180センチ位、白色Tシャツ、薄い灰色の羽織、黒色ズボン、黒色ニット帽着用、マスク・髭なし、煙草を吸っていた,松山市枝松四丁目,松山市枝松四丁目,0,green,38.0,愛媛県,エヒメケン,EHIME KEN,38201.0,松山市,マツヤマシ,MATSUYAMA SHI,382010048004.0,枝松四丁目,33.830769,132.784912
62,松山東署管内,声かけ,令和3年1月26日(火)午前7時50分ころ,松山市道後町二丁目路上,女子中学生が歩いていたところ、女に「死ね。お前なんかいらんのじゃ。」などと怒鳴られ、追いかけられたもの。,40〜50歳位、小肥、身長150〜160センチ位、黒髪ショートカット、エプロン、赤色縁の眼鏡着用,松山市道後町二丁目,松山市道後町二丁目,0,green,38.0,愛媛県,エヒメケン,EHIME KEN,38201.0,松山市,マツヤマシ,MATSUYAMA SHI,382010207002.0,道後町二丁目,33.848894,132.781027
63,松山東署管内,つきまとい,令和3年1月23日(土)午後8時ころ,松山市三番町一丁目路上,女性が店舗を出たところ、店先にいた男に後をつけられたもの。,50〜60歳位、やせ型、身長170センチ位、白色短髪、灰色ナイロン製ジャケット、黒色長ズボン、眼鏡・マスク着用、帽子なし,松山市三番町一丁目,松山市三番町一丁目,0,blue,38.0,愛媛県,エヒメケン,EHIME KEN,38201.0,松山市,マツヤマシ,MATSUYAMA SHI,382010135001.0,三番町一丁目,33.838004,132.773579
64,大洲署管内,写真撮影,令和3年1月22日(金)午後4時ころ,大洲市中村路上,女児小学生が歩いていたところ、車に乗った男に、カメラを向けられたもの。,40歳位、灰色自動車利用(細長い型)、眼鏡着用、一眼レフ様黒色カメラ所持,大洲市中村,大洲市中村,0,lightred,38.0,愛媛県,エヒメケン,EHIME KEN,38207.0,大洲市,オオズシ,OZU SHI,382070053000.0,中村,33.514703,132.54232
65,新居浜署管内,声かけ,令和3年1月22日(金)午前7時30分ころ,新居浜市繁本町路上,小学生男女2名が路上にいたところ、男に「鍵をなくしたので一緒に探してほしい。」と声をかけられ、一緒に探していると、小学生女児がかがんで探している姿を、男にスマートフォンで撮影されたもの。,20〜30歳位、身長170センチ位、黒髪、上下黒色ウィンドブレーカー,新居浜市繁本町,新居浜市繁本町,0,green,38.0,愛媛県,エヒメケン,EHIME KEN,38205.0,新居浜市,ニイハマシ,NIIHAMA SHI,382050040000.0,繁本町,33.962307,133.281577
66,大洲署管内,住居侵入,令和3年1月22日(金)午前0時20分ころ,大洲市西大洲マンション,男性が帰宅したところ、自宅玄関から全裸の男が飛び出してきたもの。,20〜50歳位、中肉、身長170センチ位、黒色短髪、全裸,大洲市西大洲,大洲市西大洲,0,darkred,38.0,愛媛県,エヒメケン,EHIME KEN,38207.0,大洲市,オオズシ,OZU SHI,382070057000.0,西大洲,33.50053,132.530027
67,松山東署管内,声かけ,令和3年1月21日(木)午後4時10分ころ,松山市高砂町一丁目路上,女児小学生が歩いていたところ、車に乗った男から「飴あげるから車に乗らない。」と声をかけられたもの。,40歳位、中肉、黒色短髪、濃紺色ジャンパー、白色の軽四自動車利用、無精ひげあり、マスク・眼鏡・帽子なし,松山市高砂町一丁目,松山市高砂町一丁目,0,green,38.0,愛媛県,エヒメケン,EHIME KEN,38201.0,松山市,マツヤマシ,MATSUYAMA SHI,382010167001.0,高砂町一丁目,33.848564,132.761978
68,松山東署管内,身体露出,令和3年1月21日(木)午後4時30分ころ,松山市中村一丁目駐車場,男子小学生が男に下半身を見せられた。,若い感じ、中肉、170-180cm位、黒髪短髪、黒色の服、徒歩,松山市中村一丁目,松山市中村一丁目,0,orange,38.0,愛媛県,エヒメケン,EHIME KEN,38201.0,松山市,マツヤマシ,MATSUYAMA SHI,382010225001.0,中村一丁目,33.834948,132.777786
69,松山南署管内,声かけ,令和3年1月20日(水)午後8時10分ころ,松山市東石井四丁目路上,自転車で帰宅中の女子高校生が、自転車に乗った男に道を尋ねられた後、「よかったらスカートの中のパンツ見せて。」と声をかけられた。,30歳位、小太り、165-170,松山市東石井四丁目,松山市東石井四丁目,0,green,38.0,愛媛県,エヒメケン,EHIME KEN,38201.0,松山市,マツヤマシ,MATSUYAMA SHI,382010248004.0,東石井四丁目,33.812216,132.781068
