,管轄署,種別,日時,場所,状況,特徴,住所,address,count,color,都道府県コード,都道府県名,都道府県名カナ,都道府県名ローマ字,市区町村コード,市区町村名,市区町村名カナ,市区町村名ローマ字,大字町丁目名,大字町丁目名カナ,大字町丁目名ローマ字,小字・通称名,緯度,経度
0,松山東署管内,不審者,令和4年10月29日(土) 午前5時30分ころ,松山市平和通二丁目のマンション,女性がマンションの通路で振り返ると男が立っており、同女が「何ですか。」と声をかけると男は走り去ったもの。,中肉、身長170cm位、黒色短髪、上衣:灰色パーカー、下衣:黒色様ズボン、徒歩,松山市平和通二丁目の,松山市平和通二丁目,0,purple,38.0,愛媛県,エヒメケン,EHIME KEN,38201.0,松山市,マツヤマシ,MATSUYAMA SHI,平和通二丁目,ヘイワドオリ 2,HEIWADORI 2,,33.847649,132.770418
1,西条署管内,声かけ,令和4年10月27日(木) 午後1時ころ,西条市玉津の店舗内,女性が店舗内で買い物中、男から卑猥な声かけをされたもの。,がっちり型、身長170センチ以上、黒色短髪、黒色長袖ジャージ様(赤色ライン入り)、黒色長ズボン、買い物かご所持、徒歩,西条市玉津の,西条市玉津,0,green,38.0,愛媛県,エヒメケン,EHIME KEN,38206.0,西条市,サイジョウシ,SAIJO SHI,玉津,タマツ,TAMATSU,,33.925796,133.201258
2,松山東署管内,身体露出,令和4年10月26日(水) 午後7時ころ,松山市鉄砲町の駐車場,駐車場のブロック塀にもたれかかっていた男が下半身を露出していたもの。,35~40歳位、白色様シャツ、チャック付きのズボン、帽子・眼鏡なし、徒歩,松山市鉄砲町の,松山市鉄砲町,0,orange,38.0,愛媛県,エヒメケン,EHIME KEN,38201.0,松山市,マツヤマシ,MATSUYAMA SHI,鉄砲町,テッポウチョウ,TEPPOCHO,,33.848652,132.765956
3,今治署管内,声かけ,令和4年10月26日(水) 午後6時ころ,今治市松木の路上,女子中学生が歩行中、徒歩の男からすれ違いざまに暴言を吐かれたもの。,45~50歳位、中肉、身長170センチ位、黒色短髪、黒色長袖Tシャツ、ジーパン、徒歩,今治市松木の,今治市松木,0,green,38.0,愛媛県,エヒメケン,EHIME KEN,38202.0,今治市,イマバリシ,IMABARI SHI,松木,マツギ,MATSUGI,,34.031383,133.003467
4,松山南署管内,声かけ,令和4年10月24日(月) 午後4時15分ころ,松山市久米窪田町の路上,女子中学生が歩行中、対向から近づいてきた自転車に乗車の男から、すれ違い後、Uターンして近づかれ「お小遣い貰ってる?足りてる?あげようか?」などと声をかけられたもの。,40~50歳位、中肉、坊主頭、上下灰色作業着、自転車(塗色不明)使用、メガネ・帽子なし,松山市久米窪田町の,松山市久米窪田町,0,green,38.0,愛媛県,エヒメケン,EHIME KEN,38201.0,松山市,マツヤマシ,MATSUYAMA SHI,久米窪田町,クメクボタマチ,KUMEKUBOTAMACHI,,33.804652,132.811203
5,四国中央署管内,身体露出,令和4年10月23日(日) 午後4時40分ころ,四国中央市三島金子一丁目の建物敷地内,女子中学生2人が歩行中、建物敷地内に立つ男の近くを通りかかったところ、男から咳払いされ、男の方を見ると、男がズボンを履かず下半身を露出していたもの。,60~70歳位、黒色短髪(額が広い)、上衣:くすんだ水色シャツ、下衣:黒色様ジーンズ、徒歩、白色マスク着用,四国中央市三島金子一丁目の建物敷地内,四国中央市三島金子一丁目の建物敷地内,0,orange,,,,,,,,,,,,,,
6,松山南署管内,つきまとい,令和4年10月23日(日) 午後3時ころ,東温市野田三丁目の店舗内,女子中学生が友人1人と店内にいたところ、男から近寄られ、店内を移動の度に執拗につきまとわれたもの。,30~40歳位、がっちり体型、黒髪短髪、黒色長袖Tシャツ、スマートフォン所持,東温市野田三丁目の,東温市野田三丁目,0,blue,38.0,愛媛県,エヒメケン,EHIME KEN,38215.0,東温市,トウオンシ,TOON SHI,野田三丁目,ノダ 3,NODA 3,,33.794556,132.835071
7,松山東署管内,声かけ(卑わいな言動),令和4年10月22日(土) 午後9時ころ,松山市大街道一丁目の路上,女性2人が歩行中、自転車に乗車の男から卑わいな言葉を掛けられたもの。,45~50歳位、中肉、170cm位、黒髪短髪、灰色様長袖、黒色長ズボン、黒色マスク着用、自転車(塗色不明)使用,松山市大街道一丁目の,松山市大街道一丁目,0,声かけ(卑わいな言動),38.0,愛媛県,エヒメケン,EHIME KEN,38201.0,松山市,マツヤマシ,MATSUYAMA SHI,大街道一丁目,オオカイドウ 1,OKAIDO 1,,33.83716,132.77011
8,松山東署管内,写真撮影,令和4年10月22日(土) 午後4時45分ころ,松山市二番町三丁目の路上,女子高校生2人が路上で談笑していたところ、自転車に乗車した男からスマートフォンを向けられたもの。,60~70歳位、やせ型、165cm位、肩までの長さの白髪頭で頭頂部は禿げ、緑色長袖の上衣、ベージュ色長ズボン、白色マスク着用、白色折りたたみ式自転車使用,松山市二番町三丁目の,松山市二番町三丁目,0,lightred,38.0,愛媛県,エヒメケン,EHIME KEN,38201.0,松山市,マツヤマシ,MATSUYAMA SHI,二番町三丁目,ニバンチョウ 3,NIBANCHO 3,,33.8396,132.768883
9,今治署管内,不審者,令和4年10月22日(土) 午前8時50分ころ,今治市波方町大浦甲の路上,女性が家から外に出たところ、路上に立っていた男が薄ら笑いながら、女性の家を凝視していたもの。,30歳位、やせ型、170cm位、黒髪短髪、黒色の上衣、黒色ジャージズボン、徒歩,今治市波方町大浦甲の,今治市波方町大浦,0,purple,38.0,愛媛県,エヒメケン,EHIME KEN,38202.0,今治市,イマバリシ,IMABARI SHI,波方町大浦,ナミカタチョウオオウラ,NAMIKATACHO OURA,,34.113951,132.963879
10,伊予署管内,不審者,令和4年10月21日(金) 午後6時ころ,伊予郡松前町大字恵久美の路上,女性が歩行中、対向から近づいてきた自転車に乗車の男から、低速で横を通り過ぎられた後、Uターンして再度横を通り過ぎられ、その際、男が聞き取れない言葉を発してきたもの。,30~40歳位、中肉、黒色帽子着用,伊予郡松前町大字恵久美の,伊予郡松前町大字恵久美,0,purple,38.0,愛媛県,エヒメケン,EHIME KEN,38401.0,伊予郡松前町,イヨグンマサキチョウ,IYO GUN MASAKI CHO,大字恵久美,,,,33.793632,132.7284
11,松山西署管内,声かけ,令和4年10月21日(金) 午後5時20分ころ,松山市西垣生町の路上,女子中学生が友人2人と歩行中、対向から自転車で近づいてきた男が女子中学生らの数メートル手前で立ち止まり、暴言を吐いた後、Uターンして立ち去ったもの。,50歳位、肥満、170cm位、白髪混じりの短髪(角刈りが伸びた様な短髪)、灰色と黒色迷彩柄作業着、黒色長ズボン、自転車(銀か黒色、前カゴあり、ママチャリ様)使用,松山市西垣生町の,松山市西垣生町,0,green,38.0,愛媛県,エヒメケン,EHIME KEN,38201.0,松山市,マツヤマシ,MATSUYAMA SHI,西垣生町,ニシハブマチ,NISHIHABUMACHI,,33.813675,132.701207
12,松山東署管内,不審者,令和4年10月18日(火) 午前5時ころ,松山市小坂二丁目のマンション,女性が在宅中、男が無施錠の玄関を開け、室内にいた被害者の方を見ながら笑いかけてきたもの。男は無言で直ぐに立ち去った。,180cm位,松山市小坂二丁目の,松山市小坂二丁目,0,purple,38.0,愛媛県,エヒメケン,EHIME KEN,38201.0,松山市,マツヤマシ,MATSUYAMA SHI,小坂二丁目,コサカ 2,KOSAKA 2,,33.832696,132.781358
13,松山南署管内,つきまとい,令和4年10月中旬から下旬の午前7時50分ころ,松山市福音寺町の施設内,女子高校生が施設内にいたところ、同所にいた男から近づかれ、移動するも再度近づいてこられたもの。,やせ型、160cm位、黒色短髪、上下スーツ、徒歩、紺色ビジネスバッグ所持,松山市福音寺町の,松山市福音寺町,0,blue,38.0,愛媛県,エヒメケン,EHIME KEN,38201.0,松山市,マツヤマシ,MATSUYAMA SHI,福音寺町,フクオンジマチ,FUKUONJIMACHI,,33.821822,132.790842
14,松山東署管内,つきまとい,令和4年10月20日(木) 午前7時10分ころ,松山市下伊台町乙の路上,女子中学生が歩行中、前方のガードレール上に腰掛けていた男から前後をうろつかれ、つきまとわれたもの。,50~60歳位、中肉、身長160~165センチ位、白髪混じり、青色様セーター様長袖、灰色長ズボン、灰色つば付き帽子・緑色マフラー・紺色靴着用、茶色肩掛けバッグ所持、徒歩,松山市下伊台町乙の,松山市下伊台町,0,blue,38.0,愛媛県,エヒメケン,EHIME KEN,38201.0,松山市,マツヤマシ,MATSUYAMA SHI,下伊台町,シモイダイマチ,SHIMOIDAIMACHI,,33.873539,132.799896
15,四国中央署管内,つきまとい,令和4年10月19日(水) 午前9時ころ,四国中央市豊岡町大町の路上,女性が歩行中、徒歩の男から歩調を合わすようにして、つきまとわれたもの。男は、所持していたペン様のものを背中に隠すような仕草をしていた。,40歳位、やせ型、ボサボサの黒色短髪、茶色長袖スウェット、灰色長ズボン、右手にペン様の黒く細いもの所持、マスクなし、徒歩,四国中央市豊岡町大町の,四国中央市豊岡町大町,0,blue,38.0,愛媛県,エヒメケン,EHIME KEN,38213.0,四国中央市,シコクチュウオウシ,SHIKOKUCHUO SHI,豊岡町大町,トヨオカチョウオオマチ,TOYOKACHO OMACHI,,33.962794,133.489105
16,今治署管内,写真撮影等,令和4年10月18日(火) 午前11時ころ,今治市南高下町四丁目の路上,女性が運転中、信号で停止線付近に停車の際、隣の車線で停止線を越えて停車した車がバックして横に並んできて、同車両を運転していた男にスマートフォンを向けられ動画を撮られたもの。,25~35歳位、中肉、黒色短髪、白色シャツ、自動車使用,今治市南高下町四丁目の,今治市南高下町四丁目,0,写真撮影等,38.0,愛媛県,エヒメケン,EHIME KEN,38202.0,今治市,イマバリシ,IMABARI SHI,南高下町四丁目,ミナミコウゲチョウ 4,MINAMIKOGECHO 4,,34.047935,133.011125
17,松山東署管内,つきまとい,令和4年10月17日(月) 午後3時45分ころ,松山市桑原二丁目から同三丁目までの路上,女性が歩行中、自転車に乗車の男から後方をつきまとわれたもの。,40~50歳位、中肉、黒髪短髪、紺色様長袖、紺色様長ズボン、白色マスク着用、メガネ・帽子なし、自転車(塗色不明)使用,松山市桑原二丁目から同三丁目までの,松山市桑原二丁目から同三丁目まで,0,blue,,,,,,,,,,,,,,
18,松山西署管内,声かけ,令和4年10月17日(月) 午後5時30分ころ,松山市西垣生町の路上,女子中学生が歩行中、後方から追い越してきた自転車に乗車の男から、反転して近づかれ、暴言を吐かれたもの。,40~60歳位、肥満、160~170cm位、白髪混じりの黒髪短髪(毛量が多い)、赤色半袖シャツ、黒色様ズボン、自転車(銀色又は黒色、ママチャリ様)使用、メガネ・帽子・ヘルメットなし,松山市西垣生町の,松山市西垣生町,1,green,38.0,愛媛県,エヒメケン,EHIME KEN,38201.0,松山市,マツヤマシ,MATSUYAMA SHI,西垣生町,ニシハブマチ,NISHIHABUMACHI,,33.813675,132.701207
19,松山南署管内,声かけ,令和4年10月16日(日) 午後10時ころ,東温市志津川の路上,女性が歩行中、対向から近づいてきた車両に乗車の男から「おい」「ヘイユー(Hey You)」と声をかけられたもの。,18~30歳位、軽四自動車(白色)使用,東温市志津川の,東温市志津川,0,green,38.0,愛媛県,エヒメケン,EHIME KEN,38215.0,東温市,トウオンシ,TOON SHI,志津川,シツカワ,SHITSUKAWA,,33.809495,132.875036
20,八幡浜署管内,その他(写真撮影),令和4年10月16日(日) 午後0時50分ころ,八幡浜市松柏乙の店舗駐車場,女子高校生が店舗駐車場に立っていたところ、近くに停車した車の車内から男に写真を撮られたもの。その後、男は、女子高校生をチラチラ見ながら車で立ち去った。,中年、禿げてはいない、撮影機器不明、普通乗用車(白色)使用,八幡浜市松柏乙の,八幡浜市松柏,0,その他(写真撮影),38.0,愛媛県,エヒメケン,EHIME KEN,38204.0,八幡浜市,ヤワタハマシ,YAWATAHAMA SHI,松柏,マツカヤ,MATSUKAYA,,33.461662,132.439298
21,松山東署管内,身体露出,令和4年10月12日(水) 午後5時15分ころ,松山市針田町の屋外施設,男が、屋外施設で下半身を露出していたもの。,40~50歳位、黒色Tシャツ、薄緑色ズボン,松山市針田町の,松山市針田町,0,orange,38.0,愛媛県,エヒメケン,EHIME KEN,38201.0,松山市,マツヤマシ,MATSUYAMA SHI,針田町,ハリタマチ,HARITAMACHI,,33.822356,132.735852
22,伊予署管内,声かけ,令和4年10月12日(水) 午後3時ころ,伊予市中山町出渕の路上,小学生女児が歩行中、前方から「やっほー。」と言いながら近づいてきた女から、握手をするような感じで、いきなり両手を握られたもの。,20歳位、小肥、身長160センチ位、黒色短髪、長袖トレーナー、ズボン、首から名札を提げている、リュックサックを背負っている、徒歩,伊予市中山町出渕の,伊予市中山町出渕,0,green,38.0,愛媛県,エヒメケン,EHIME KEN,38210.0,伊予市,イヨシ,IYO SHI,中山町出渕,ナカヤマチョウイズブチ,NAKAYAMACHO IZUBUCHI ,,33.636057,132.729836
23,四国中央署管内,声かけ,令和4年10月9日(日) 午後2時30分ころ,四国中央市下柏町から同市村松町までの路上,小学生女児5名が歩行中、対向から近づいてきた車に乗った男から卑わいな言葉を掛けられたもの。,50歳位、短髪、黒色様の服、黒縁メガネ着用、灰色の車使用,四国中央市下柏町から同市村松町までの,四国中央市下柏町から同市村松町まで,0,green,,,,,,,,,,,,,,
24,伊予署管内,声かけ,令和4年10月7日(金) 午後7時ころ,伊予市下吾川の路上,女子高校生が歩行中、前方から近づいてきた男から「おいで。」と声を掛けられ、女子高校生が反転して逃げると、追従してきたもの。,50歳位、黒色ウィンドブレーカー様、スウェットズボン、徒歩,伊予市下吾川の,伊予市下吾川,0,green,38.0,愛媛県,エヒメケン,EHIME KEN,38210.0,伊予市,イヨシ,IYO SHI,下吾川,シモアガワ,SHIMOAGAWA,,33.767149,132.708137
25,伊予署管内,声かけ,令和4年10月7日(金) 午後7時ころ,伊予市下吾川の路上,女子高校生が歩行中、前方から近づいてきた男から「おいで。」と声を掛けられ、女子高校生が反転して逃げると、追従してきたもの。,50歳位、黒色ウィンドブレーカー様、スウェットズボン、徒歩,伊予市下吾川の,伊予市下吾川,0,green,38.0,愛媛県,エヒメケン,EHIME KEN,38210.0,伊予市,イヨシ,IYO SHI,下吾川,シモアガワ,SHIMOAGAWA,馬塚,33.772775,132.708144
26,今治署管内,のぞき・盗撮(軽犯),令和4年10月6日(木) 午後4時ころ,今治市東村五丁目の一般住宅,小学生女児が在宅中、路上に立っていた男から凝視されたもの。同男は、玄関先に立つなどした後、自転車を押しながら立ち去っていった。,中肉、160cm位、黒色パーカー、黒色長ズボン、黒色サングラス・白色マスク着用、フードを被っている、茶色の封筒所持、自転車使用,今治市東村五丁目の,今治市東村五丁目,0,のぞき・盗撮(軽犯),38.0,愛媛県,エヒメケン,EHIME KEN,38202.0,今治市,イマバリシ,IMABARI SHI,東村五丁目,ヒガシムラ 5,HIGASHIMURA 5,,34.038859,133.023267
27,西予署管内,つきまとい,令和4年10月6日(木) 午前7時20分ころ,西予市明浜町俵津の路上,小学生女児が歩行中、徒歩の男から後方をつきまとわれたもの。,25~35歳位、やせ型、175-180cm位、短髪、黒色様キャップ帽様着用、徒歩,西予市明浜町俵津の,西予市明浜町俵津,0,blue,38.0,愛媛県,エヒメケン,EHIME KEN,38214.0,西予市,セイヨシ,SEIYO SHI,明浜町俵津,アケハマチョウタワラヅ,AKEHAMACHO TAWARAZU,,33.335128,132.482618
28,西条署管内,声かけ,令和4年10月5日(水) 午後3時30分ころ,西条市玉津の路上,小学生女児が歩行中、自転車に乗った3人組の男から「何小ですか?」と繰り返し聞かれたもの。,15~20歳位の3人組の男、自転車使用,西条市玉津の,西条市玉津,1,green,38.0,愛媛県,エヒメケン,EHIME KEN,38206.0,西条市,サイジョウシ,SAIJO SHI,玉津,タマツ,TAMATSU,,33.925796,133.201258
29,松山南署管内,ちかん,令和4年10月4日(火) 午後6時40分ころ,松山南和泉南三丁目の路上,女子高校生が自転車で走行中、後方から近づいてきたバイク乗車の男から、追い越しざま、手で身体を触られたもの。,黒色Tシャツ、黒色長ズボン、黒色フルフェイスヘルメット着用、黒色大き目のリュック、黒色オートバイ使用,松山南和泉南三丁目の,松山南和泉南三丁目,0,gray,,,,,,,,,,,,,,
30,松山南署管内,声かけ,令和4年10月4日(火) 午後5時45分ころ,松山市土居町の路上,女子高校生が自転車で走行中、前方から歩いてきた男から、すれ違い際に近寄られ暴言を吐かれたもの。,50~60歳位、中肉、身長160センチ位、紺色の服、帽子着用、メガネ・マスクなし、徒歩,松山市土居町の,松山市土居町,0,green,38.0,愛媛県,エヒメケン,EHIME KEN,38201.0,松山市,マツヤマシ,MATSUYAMA SHI,土居町,ドイマチ,DOIMACHI,,33.798272,132.790757
31,松山西署管内,写真撮影,令和4年10月4日(火) 午後4時30分ころ,松山市中須賀一丁目の路上,女子中学生が歩行中、路上にいた男からカメラを向けられたもの。,40~50歳位、中肉、身長160~165センチ位、ボサボサの白髪混じりの短髪、白色様半袖シャツ、黒色様長ズボン、黒色サングラス・白色マスク着用、黒色一眼レフ様カメラ所持、徒歩,松山市中須賀一丁目の,松山市中須賀一丁目,0,lightred,38.0,愛媛県,エヒメケン,EHIME KEN,38201.0,松山市,マツヤマシ,MATSUYAMA SHI,中須賀一丁目,ナカスガ 1,NAKASUGA 1,,33.864826,132.723868
32,松山東署管内,凝視,令和4年10月3日(月) 午前7時ころ,松山市三番町七丁目の路上,女性が歩行中、後方からきたバイク乗車の男が追い越し後に速度を緩めて振り返り、数秒間凝視してきたもの。,30~40歳位、中肉、ボサボサの黒髪短髪、灰色半キャップ型ヘルメット着用、青色原付(スクータータイプ)使用,松山市三番町七丁目の,松山市三番町七丁目,0,凝視,38.0,愛媛県,エヒメケン,EHIME KEN,38201.0,松山市,マツヤマシ,MATSUYAMA SHI,三番町七丁目,サンバンチョウ 7,SAMBANCHO 7,,33.838297,132.756718
33,西条署管内,声かけ,令和4年10月3日(月) 午後2時30分ころ,西条市喜多川の路上,小学生女児が歩行中、前方から歩いてきた男から「可愛いね、連れて行ってあげようか。」などと声をかけられたもの。身体接触はなし。,30~35歳位、やせ型、身長160センチ位、黒色短髪(前髪がセンター分け)、水色半袖Tシャツ、黒色半ズボン、スリッパ様のサンダル着用、暗色のスマートフォン所持、徒歩,西条市喜多川の,西条市喜多川,0,green,38.0,愛媛県,エヒメケン,EHIME KEN,38206.0,西条市,サイジョウシ,SAIJO SHI,喜多川,キタガワ,KITAGAWA,,33.922611,133.170114
34,松山東署管内,写真撮影,令和4年10月3日(月) 午前7時40分ころ,松山市桑原三丁目の路上,女が、歩行中の小学校低学年に対し、スマートフォンを向けていたもの。,50~60歳位、上下青色ジャージ、青色帽子・ピンク色靴着用、ピンク色スマートフォン所持,松山市桑原三丁目の,松山市桑原三丁目,0,lightred,38.0,愛媛県,エヒメケン,EHIME KEN,38201.0,松山市,マツヤマシ,MATSUYAMA SHI,桑原三丁目,クワバラ 3,KUWABARA 3,,33.833455,132.795937
35,松山西署管内,つきまとい,令和4年10月2日(日) 午後5時30分ころ,松山市梅津寺町から同市辰巳町までの路上,女性2人が徒歩や車で移動の際、自転車に乗車した男から何度も後を付けられ、少し離れた場所から凝視されたもの。,20~30歳位、中肉、身長165センチ位、長くも短くもない黒髪、黒色Tシャツ、黒色長ズボン、白色マスク・白色履物着用、黒色の軽快兼用自転車使用,松山市梅津寺町から同市辰巳町までの,松山市梅津寺町から同市辰巳町まで,0,blue,,,,,,,,,,,,,,
36,四国中央署管内,暴行,令和4年10月2日(日) 午後2時ころ,四国中央市土居町入野の駐車場,小学生男児が友人5人程と遊びながらコンクリート片を蹴って水路に落としたところ、走って駆け寄ってきた男から服の首元を掴まれ、怒鳴られた後、傍の田んぼに落とされたもの。,白髪、徒歩,四国中央市土居町入野の,四国中央市土居町入野,0,red,38.0,愛媛県,エヒメケン,EHIME KEN,38213.0,四国中央市,シコクチュウオウシ,SHIKOKUCHUO SHI,土居町入野,ドイチョウイリノ,DOICHO IRINO,,33.950339,133.421129
37,松山南署管内,声かけ,令和4年9月30日(金) 午後8時ころ,松山市来住町の土手上,女性が歩行中、いきなり目の前に現れた男から「こんにちは。」と声をかけられたもの。以前、同男が白色の車に乗車するのを目撃している。,30~40歳位、やせ型、身長170センチ位、やや長めの黒髪、白色Tシャツ、短パン、白色の車使用,松山市来住町の土手上,松山市来住町の土手上,0,green,,,,,,,,,,,,,,
38,四国中央署管内,つきまとい,令和4年9月29日(木) 午後6時ころ,四国中央市川之江町の路上,小学生女児が歩行中、男から後方をつきまとわれたもの。,50~60歳位、中肉、身長165~170センチ位、白髪混じりの黒髪、黒色の服、灰色ズボン、徒歩,四国中央市川之江町の,四国中央市川之江町,0,blue,38.0,愛媛県,エヒメケン,EHIME KEN,38213.0,四国中央市,シコクチュウオウシ,SHIKOKUCHUO SHI,川之江町,カワノエチョウ,KAWANOECHO,,34.014304,133.579682
39,四国中央署管内,つきまとい,令和4年9月29日(木) 午後6時ころ,四国中央市川之江町の路上,小学生女児が歩行中、男から後方をつきまとわれたもの。,50~60歳位、中肉、身長165~170センチ位、白髪混じりの黒髪、黒色の服、灰色ズボン、徒歩,四国中央市川之江町の,四国中央市川之江町,0,blue,38.0,愛媛県,エヒメケン,EHIME KEN,38213.0,四国中央市,シコクチュウオウシ,SHIKOKUCHUO SHI,川之江町,カワノエチョウ,KAWANOECHO,塚田,34.000158,133.566627
40,四国中央署管内,つきまとい,令和4年9月29日(木) 午後6時ころ,四国中央市川之江町の路上,小学生女児が歩行中、男から後方をつきまとわれたもの。,50~60歳位、中肉、身長165~170センチ位、白髪混じりの黒髪、黒色の服、灰色ズボン、徒歩,四国中央市川之江町の,四国中央市川之江町,0,blue,38.0,愛媛県,エヒメケン,EHIME KEN,38213.0,四国中央市,シコクチュウオウシ,SHIKOKUCHUO SHI,川之江町,カワノエチョウ,KAWANOECHO,横田,34.003925,133.565172
41,松山南署管内,つきまとい,令和4年9月29日(木) 午後5時ころ,松山市高井町から東温市北野田までの路上,女子中学生が自転車で走行中、自転車に乗車の男から後方をつきまとわれたもの。,40~50歳位、中肉、身長160~170センチ位、短髪、半袖白色Tシャツ、薄い水色の長ズボン、軍手着用、黒色様スマートフォン所持、自転車使用(赤と黒色(チューブ部分が赤、その他黒)),松山市高井町から東温市北野田までの,松山市高井町から東温市北野田まで,0,blue,,,,,,,,,,,,,,
42,松山南署管内,写真撮影,令和4年9月29日(木) 午後5時ころ,東温市田窪の路上,小学生女児2人が徒歩で信号待ち中、自転車に乗車した2人組の男の内1人がニヤニヤしながら近づいてきて、スマートフォンを向けてきたもの。,30歳位、中肉、身長170センチ位、作業着、自転車使用、同伴者:30歳位の男,東温市田窪の,東温市田窪,0,lightred,38.0,愛媛県,エヒメケン,EHIME KEN,38215.0,東温市,トウオンシ,TOON SHI,田窪,タノクボ,TANOKUBO,,33.79037,132.860296
43,松山南署管内,写真撮影,令和4年9月29日(木) 午後5時ころ,東温市田窪の路上,小学生女児2人が徒歩で信号待ち中、自転車に乗車した2人組の男の内1人がニヤニヤしながら近づいてきて、スマートフォンを向けてきたもの。,30歳位、中肉、身長170センチ位、作業着、自転車使用、同伴者:30歳位の男,東温市田窪の,東温市田窪,0,lightred,38.0,愛媛県,エヒメケン,EHIME KEN,38215.0,東温市,トウオンシ,TOON SHI,田窪,タノクボ,TANOKUBO,門田,33.784374,132.855824
44,松山東署管内,声かけ,令和4年9月28日(水) 午前9時20分ころ,松山市北藤原町の路上,女性が歩行中、対向から自転車で近づいてきた男と接触しそうになった後、暴言を吐かれたもの。,20~30歳位、160~170cm位、黒又は茶髪、上衣:灰色半袖、下衣:暗色の長ズボン、マスクなし、銀色軽快兼用自転車使用,松山市北藤原町の,松山市北藤原町,0,green,38.0,愛媛県,エヒメケン,EHIME KEN,38201.0,松山市,マツヤマシ,MATSUYAMA SHI,北藤原町,キタフジワラマチ,KITAFUJIWARAMACHI,,33.834441,132.758681
45,今治署管内,声かけ,令和4年9月27日(火) 午後7時55分ころ,今治市近見町二丁目の路上,女子高校生が自転車で走行中、上半身裸でボクサーパンツ姿の男から「こんにちは。」「学校の帰り?」と声をかけられたもの。,50歳位、小肥、170cm位、黒色天然パーマ、上衣:なし、下衣:赤色ボクサーパンツ、太い眉毛、大きな目で彫が深い、目尻が垂れている、鼻が高い、低い声,今治市近見町二丁目の,今治市近見町二丁目,0,green,38.0,愛媛県,エヒメケン,EHIME KEN,38202.0,今治市,イマバリシ,IMABARI SHI,近見町二丁目,チカミチョウ 2,CHIKAMICHO 2,,34.087933,132.985326
46,松山東署管内,つきまとい,令和4年9月27日(火) 午後5時10分ころ,松山市末広町の路上,女性が歩行中、自転車に乗った男から、すれ違い後Uターンして後方をつきまとわれたもの。,60-70歳位、中肉、170cm位、白髪短髪、無精ひげ、自転車使用,松山市末広町の,松山市末広町,0,blue,38.0,愛媛県,エヒメケン,EHIME KEN,38201.0,松山市,マツヤマシ,MATSUYAMA SHI,末広町,スエヒロマチ,SUEHIROMACHI,,33.833434,132.763254
47,宇和島署管内,声かけ,令和4年9月26日(月) 午後6時ころ,宇和島市三間町宮野下の路上,女子中学生2名が歩行中、男から「○○ちゃん、さよなら。」と声をかけられたもの。,40~60歳位、坊主、黒色ノースリーブシャツ、黒色長ズボン、徒歩,宇和島市三間町宮野下の,宇和島市三間町宮野下,0,green,38.0,愛媛県,エヒメケン,EHIME KEN,38203.0,宇和島市,ウワジマシ,UWAJIMA SHI,三間町宮野下,ミマチョウミヤノシタ,MIMACHO MIYANOSHITA,,33.296159,132.611882
48,大洲署管内,身体露出,令和4年9月25日(日) 午後8時15分ころ,大洲市長浜町出海甲の路上,女性2名が歩行中、上半身裸の男からすれ違いざまに、ズボンを下ろして露出させた下半身を、懐中電灯で照らしながら「見える?見て?」と言って見せつけられたもの。,20~40歳位、中肉、身長170センチ位、天然パーマ様の短髪、上半身裸、黒色長ズボン、黒色マスク着用、懐中電灯所持、徒歩,大洲市長浜町出海甲の,大洲市長浜町出海,0,orange,38.0,愛媛県,エヒメケン,EHIME KEN,38207.0,大洲市,オオズシ,OZU SHI,長浜町出海,ナガハマチョウイズミオツ,NAGAHAMACHO IZUMI OTSU,,33.551379,132.437981
49,大洲署管内,身体露出,令和4年9月25日(日) 午前0時40分ころ,大洲市東大洲の店舗駐車場内,女性3名が駐車場内にいたところ、全裸の男から下半身を触っている姿を見せつけられた上、所持していた自撮り棒に取り付けたスマートフォンを向けられたもの。,18~40歳位、中肉、身長170センチ位、全裸、色白、ムダ毛がない、黒色目出し帽・黒色運動靴着用、スマートフォンを取り付けた自撮り棒所持、徒歩,大洲市東大洲の,大洲市東大洲,0,orange,38.0,愛媛県,エヒメケン,EHIME KEN,38207.0,大洲市,オオズシ,OZU SHI,東大洲,ヒガシオオズ,HIGASHIOZU,,33.527646,132.571139
50,久万高原署管内,つきまとい,令和4年9月24日(土) 午後4時10分ころ,上浮穴郡久万高原町久万の店舗内,小学生女児2名が店舗内で買い物中、男から「こんにちは。」「どこ小?」と声をかけられた上、店内をつきまとわれたもの。,60~70歳位、やせ型、身長180センチ位、前頭部が禿げている、薄茶色半袖シャツ、黒色ジャージ、白色ハット帽(額部にサングラスをかけている)・ネックレス様のもの・黒色様靴着用、メガネ・マスクなし,上浮穴郡久万高原町久万の,上浮穴郡久万高原町久万,0,blue,38.0,愛媛県,エヒメケン,EHIME KEN,38386.0,上浮穴郡久万高原町,カミウケナグンクマコウゲンチョウ,KAMIUKENA GUN KUMAKOGEN CHO,久万,クマ,KUMA,,33.657872,132.894815
51,松山東署管内,写真撮影等,令和4年9月24日(土) 午後0時10分ころ,松山市保免中二丁目の屋外施設敷地内,女性が子供と屋外施設にいたところ、自転車に乗った男からスマートフォンを向けられたもの。,40~60歳位、中肉、身長170センチ位、短髪、灰色長袖、黒色長ズボン、黒色キャップ帽・白色マスク着用、スマートフォン所持、銀色の自転車使用,松山市保免中二丁目の,松山市保免中二丁目,0,写真撮影等,38.0,愛媛県,エヒメケン,EHIME KEN,38201.0,松山市,マツヤマシ,MATSUYAMA SHI,保免中二丁目,ホウメンナカ 2,HOMENNAKA 2,,33.817028,132.74789
52,松山南署管内,声かけ,令和4年9月24日(土) 午前1時ころ,松山市西石井五丁目の駐車場,女性が駐車場において、急に背後から男に「こんばんわ」と声をかけられたもの。,40歳位、身長175センチ以上、オレンジ色ジャンパー、徒歩,松山市西石井五丁目の,松山市西石井五丁目,0,green,38.0,愛媛県,エヒメケン,EHIME KEN,38201.0,松山市,マツヤマシ,MATSUYAMA SHI,西石井五丁目,ニシイシイ 5,NISHIISHII 5,,33.813787,132.771416
53,新居浜署管内,声かけ,令和4年9月21日(水)午後6時15分ころ,新居浜市沢津町二丁目の路上,小学生男児が自転車で走行中、後方から近づいてきた車両に乗車の男から、「お菓子いらん?」と声をかけられ、追いかけられたもの。,中年位、メガネ着用、黒色の軽四乗用自動車使用,新居浜市沢津町二丁目の,新居浜市沢津町二丁目,0,green,38.0,愛媛県,エヒメケン,EHIME KEN,38205.0,新居浜市,ニイハマシ,NIIHAMA SHI,沢津町二丁目,サワヅチョウ 2,SAWAZUCHO 2,,33.976004,133.298108
54,新居浜署管内,写真撮影等,令和4年9月21日(水)午後4時ころ,新居浜市田の上三丁目の路上,小学生女児が歩行中、自転車に乗った男からすれ違いざまに、所持していたスマートフォンを顔の近くまで近づけられたもの。,若い(中高生位)、中肉、黒色短髪、青色半袖Tシャツ、スマートフォン所持、軽快兼用自転車使用,新居浜市田の上三丁目の,新居浜市田の上三丁目,0,写真撮影等,38.0,愛媛県,エヒメケン,EHIME KEN,38205.0,新居浜市,ニイハマシ,NIIHAMA SHI,田の上三丁目,タノウエ 3,TANOE 3,,33.975659,133.3187
55,松山西署管内,つきまとい,令和4年9月15日(木) 午後6時20分ころ,松山市西垣生町の路上,女子高校生が自転車で移動中、バイクに乗車の男から低速で後方をつきまとわれたもの。,若い感じ、中肉、白色長袖Tシャツ、オートバイ使用(銀色、スクータータイプ)、フルフェイス型ヘルメット着用,松山市西垣生町の,松山市西垣生町,2,blue,38.0,愛媛県,エヒメケン,EHIME KEN,38201.0,松山市,マツヤマシ,MATSUYAMA SHI,西垣生町,ニシハブマチ,NISHIHABUMACHI,,33.813675,132.701207
56,松山西署管内,つきまとい,令和4年9月14日(水) 午後9時30分ころ,松山市高岡町の路上,女性が自転車で移動中、自転車に乗車の男から速度を合わせてつきまとわれたもの。,50~60歳位、やせ型、身長170センチ位、黒色短髪、白色Tシャツ、黒色様長ズボン、自転車使用,松山市高岡町の,松山市高岡町,0,blue,38.0,愛媛県,エヒメケン,EHIME KEN,38201.0,松山市,マツヤマシ,MATSUYAMA SHI,高岡町,タカオカマチ,TAKAOKAMACHI,,33.830862,132.720361
57,松山西署管内,声かけ,令和4年9月14日(水) 午前7時15分ころ,松山市富久町の路上,女子中学生が歩行中、駐車車両(軽四乗用、黒色、車高が低い)の傍らに座っていた男から声をかけられた後、「見て。」と言われ、ズボンの上から下半身を触る仕草を見せつけられたもの。,25~35歳位、中肉、身長160~165センチ位、黒色短髪、白色Tシャツ、スウェット様灰色長ズボン、メガネ・白色マスク着用,松山市富久町の,松山市富久町,0,green,38.0,愛媛県,エヒメケン,EHIME KEN,38201.0,松山市,マツヤマシ,MATSUYAMA SHI,富久町,トミヒサマチ,TOMIHISAMACHI,,33.822368,132.728708
58,松山東署管内,ちかん,令和4年9月13日(火) 午後8時ころ,松山市日の出町の路上,女子高校生が歩行中、後方から近づいてきた自転車に乗車の男から、追い抜きざまに身体を触られたもの。,フード付き黒色パーカー(背面に白色プリントあり)、自転車使用(黒色、ママチャリ様),松山市日の出町の,松山市日の出町,0,gray,38.0,愛媛県,エヒメケン,EHIME KEN,38201.0,松山市,マツヤマシ,MATSUYAMA SHI,日の出町,ヒノデマチ,HINODEMACHI,,33.837121,132.782305
59,松山南署管内,つきまとい,令和4年9月12日(月) 午後2時35分ころ,松山市居相一丁目から同市東石井七丁目までの路上,女性が子供と歩行中、路上にいた男から凝視され、後をつきまとわれたもの。,25~40歳位、やせ型、身長160~175センチ位、黒色Tシャツ、茶色短パン、黒色キャップ帽着用、メガネなし、小型の茶色バッグ所持、徒歩,松山市居相一丁目から同市東石井七丁目までの,松山市居相一丁目から同市東石井七丁目まで,0,blue,,,,,,,,,,,,,,
60,西予署管内,卑わいな言動,令和4年9月11日(日)午後6時20分ころ,西予市宇和町下松葉の路上,女性が歩行中、女性を追い越して停車した車から降りてきた男に、下半身を指差すなど卑わいな身振りをされたもの。,25~30歳位、やせ型、身長170センチ位、青と緑色Tシャツ、灰色半ズボン、軽四乗用自動車使用(黒色、箱型),西予市宇和町下松葉の,西予市宇和町下松葉,0,卑わいな言動,38.0,愛媛県,エヒメケン,EHIME KEN,38214.0,西予市,セイヨシ,SEIYO SHI,宇和町下松葉,ウワチョウシモマツバ,UWACHO SHIMOMATSUBA,,33.374804,132.506239
61,松山東署管内,写真撮影等,令和4年9月9日(金)午後6時ころ,松山市一番町三丁目の路上,女性が自転車で走行中、2人組の男からすれ違いざまに、所持していた一眼レフカメラを向けられたもの。,20~30歳位、やせ型、身長170センチ位、黒色短髪、一眼レフカメラ所持、徒歩、2人組の男(20~30歳位、170センチ位、やせ型、黒色短髪),松山市一番町三丁目の,松山市一番町三丁目,0,写真撮影等,38.0,愛媛県,エヒメケン,EHIME KEN,38201.0,松山市,マツヤマシ,MATSUYAMA SHI,一番町三丁目,イチバンチョウ 3,ICHIBANCHO 3,,33.841925,132.768726
62,宇和島署管内,不審者,令和4年9月9日(金)午前9時20分ころ,宇和島市三間町宮野下から同市伊吹町までを走行中の列車内,女性が列車内の座席に座っていたところ、隣に座った男から、足を組み替えながら少しずつ近づかれ、肩が触れるまで接近されたもの。,60~70歳位、やせ型、茶色長袖セーター様、黒色スウェットズボン様、黒色キャップ帽・茶色の靴着用、メガネなし、銀色ショルダーバッグ(保冷バッグ様)・白色買物袋様2個所持、色黒、徒歩,宇和島市三間町宮野下から同市伊吹町までを走行中の列車内,宇和島市三間町宮野下から同市伊吹町までを走行中の列車内,0,purple,,,,,,,,,,,,,,
63,松山西署管内,つきまとい,令和4年9月9日(金)午前7時50分ころ,松山市高山町の路上,女子中学生が歩行中、自転車に乗車の男から聞き取れない言葉を呟かれ、後方をつきまとわれたもの。,40~50歳位、黒色短髪、灰色半袖、灰色半ズボン、自転車使用(赤色、ママチャリ様、前カゴ付き),松山市高山町の,松山市高山町,0,blue,38.0,愛媛県,エヒメケン,EHIME KEN,38201.0,松山市,マツヤマシ,MATSUYAMA SHI,高山町,タカヤマチョウ,TAKAYAMACHO,,33.867553,132.725088
64,愛南署管内,身体露出,令和4年9月9日(金)午前5時35分ころ,南宇和郡愛南町一本松の駐車場内,全裸で立っていた男が、下半身を触っていたもの。,全裸、中肉中背、マスク・メガネなし、徒歩,南宇和郡愛南町一本松の,南宇和郡愛南町一本松,0,orange,38.0,愛媛県,エヒメケン,EHIME KEN,38506.0,南宇和郡愛南町,ミナミウワグンアイナンチョウ,MINAMIUWA GUN AINAN CHO,一本松,イッポンマツ,IPPOMMATSU,,32.961864,132.64877
65,今治署管内,不審者,令和4年9月6日(火)午後5時ころ,今治市常盤町二丁目の路上,女子中学生2名が歩行中、自転車に乗車の男から、周囲を何度もうろつかれ、凝視されたもの。,40歳位、身長が低い、黒色様のシャツ(三角形のプリント入り)、サングラス着用、自転車使用,今治市常盤町二丁目の,今治市常盤町二丁目,0,purple,38.0,愛媛県,エヒメケン,EHIME KEN,38202.0,今治市,イマバリシ,IMABARI SHI,常盤町二丁目,トキワチョウ 2,TOKIWACHO 2,,34.06745,133.002287
66,松山東署管内,身体接触,令和4年9月5日(月) 午前7時55分ころ,松山市清水町二丁目から同市勝山町二丁目までを走行中の電車内,女性が電車に乗車中、後方にいた男から、背中に腹部を押し当てられたもの。,50~60歳位、小肥、身長175センチ位、白髪混じりの短髪(坊主様)、青色様ワイシャツ、黒色スラックス、マスク着用、メガネなし、徒歩,松山市清水町二丁目から同市勝山町二丁目までを走行中の電車内,松山市清水町二丁目から同市勝山町二丁目までを走行中の電車内,0,身体接触,,,,,,,,,,,,,,
67,松山南署管内,不審者,令和4年9月3日(土) 午前8時10分ころ,松山市東方町の屋外施設,男が屋外施設内をうろついたり、隣接する施設敷地内を覗き込むなどの挙動不審な行動をしていたもの。,40~50歳位、やせ型、身長170センチ位、黒髪、水色長袖シャツ、黒色ズボン、白色マスク着用、オートバイ使用(灰色、スクータータイプ),松山市東方町の,松山市東方町,0,purple,38.0,愛媛県,エヒメケン,EHIME KEN,38201.0,松山市,マツヤマシ,MATSUYAMA SHI,東方町,ヒガシガタマチ,HIGASHIGATAMACHI,,33.763088,132.820612
68,新居浜署管内,声かけ,令和4年9月2日(金) 午後6時ころ,新居浜市中萩町の路上,男子中学生が路上で友人を待っていたところ、自転車に乗った男から「何年生ですか。」と声をかけられた後、家族の事を詳しく聞かれたもの。,高校生から大学生位、上衣:黄色の服、下衣:不明、自転車使用(青色ヘルメット着用),新居浜市中萩町の,新居浜市中萩町,0,green,38.0,愛媛県,エヒメケン,EHIME KEN,38205.0,新居浜市,ニイハマシ,NIIHAMA SHI,中萩町,ナカハギチョウ,NAKAHAGICHO,,33.928934,133.282661
69,今治署管内,つきまとい,令和4年9月2日(金)午後4時30分ころ,今治市常盤町五丁目から同市東鳥生町一丁目までの路上,女子中学生が自転車で走行中、自転車に乗車の男から後方をつきまとわれたもの。,上下合羽、自転車使用,今治市常盤町五丁目から同市東鳥生町一丁目までの,今治市常盤町五丁目から同市東鳥生町一丁目まで,0,blue,,,,,,,,,,,,,,
70,松山東署管内,写真撮影等,令和4年9月2日(金) 午前7時40分ころ,松山市一番町二丁目の路上,小学生男児が路上を歩行中、男から「かわいいね。」と声をかけられて、肩や頭を触られた上、スマートフォンで容姿を撮影されたもの。,20-30歳位、中肉男、170cm位、マッシュルームヘア、灰色シャツ、黒色長ズボン、茶色リュック、スマートフォン(灰色カバー付き、レンズが2つ)、財布所持、メガネ・マスクなし,松山市一番町二丁目の,松山市一番町二丁目,0,写真撮影等,38.0,愛媛県,エヒメケン,EHIME KEN,38201.0,松山市,マツヤマシ,MATSUYAMA SHI,一番町二丁目,イチバンチョウ 2,ICHIBANCHO 2,,33.841222,132.771378
71,松山東署管内,つきまとい,令和4年9月1日(木) 午後0時30分ころ,松山市小坂一丁目から同市中村一丁目までの路上,女子中学生が歩行中、自転車に乗った男から声をかけられ、後方をつきまとわれたもの。,60~70歳位、中肉男、上衣:赤色の服、下衣:不明、赤色自動車使用,松山市小坂一丁目から同市中村一丁目までの,松山市小坂一丁目から同市中村一丁目まで,0,blue,,,,,,,,,,,,,,
72,四国中央署管内,つきまとい,令和4年9月1日(木)午前11時30分ころ,四国中央市寒川町の路上,小学生男児が歩行中、前方から走ってきた男からすれ違い後、Uターンして後方を追い掛けられたもの。,50歳位、身長170センチ位、黒色Tシャツ、黒色長ズボン、青と赤色キャップ帽・黒色マスク着用、徒歩,四国中央市寒川町の,四国中央市寒川町,0,blue,38.0,愛媛県,エヒメケン,EHIME KEN,38213.0,四国中央市,シコクチュウオウシ,SHIKOKUCHUO SHI,寒川町,サンガワチョウ,SANGAWACHO,,33.952462,133.507717
73,四国中央署管内,つきまとい,令和4年9月1日(木)午前11時30分ころ,四国中央市寒川町の路上,小学生男児が歩行中、前方から走ってきた男からすれ違い後、Uターンして後方を追い掛けられたもの。,50歳位、身長170センチ位、黒色Tシャツ、黒色長ズボン、青と赤色キャップ帽・黒色マスク着用、徒歩,四国中央市寒川町の,四国中央市寒川町,0,blue,38.0,愛媛県,エヒメケン,EHIME KEN,38213.0,四国中央市,シコクチュウオウシ,SHIKOKUCHUO SHI,寒川町,サンガワチョウ,SANGAWACHO,大門,33.967211,133.503062
74,松山東署管内,声かけ,令和4年9月1日(木)午前7時30分ころ,松山市桑原四丁目の路上,小学生女児が歩行中、自転車に乗った男から「家どこ?」等と声をかけられたもの。,40~50歳位、やせ型、身長180センチ位、白色半袖Tシャツ、頭にタオルを巻いている、自転車使用,松山市桑原四丁目の,松山市桑原四丁目,0,green,38.0,愛媛県,エヒメケン,EHIME KEN,38201.0,松山市,マツヤマシ,MATSUYAMA SHI,桑原四丁目,クワバラ 4,KUWABARA 4,,33.832031,132.794275
75,今治署管内,写真撮影等,令和4年8月31日(水)午後7時30分ころ,今治市常盤町五丁目の路上,女子高校生2名が自転車で走行中、屋外施設の敷地内にいた男からスマートフォンを向けられたもの。,40歳位、中肉、身長170センチ位、くせ毛短髪、明るい緑色トレーナー、黒縁メガネ着用、徒歩,今治市常盤町五丁目の,今治市常盤町五丁目,0,写真撮影等,38.0,愛媛県,エヒメケン,EHIME KEN,38202.0,今治市,イマバリシ,IMABARI SHI,常盤町五丁目,トキワチョウ 5,TOKIWACHO 5,,34.06096,132.994766
76,松山東署管内,凝視,令和4年8月31日(水) 午後7時20分ころ,松山市永木町二丁目の路上,女子高校生が自転車で走行中、道路脇に立っていた男から凝視されたもの。その際、男は自身の下半身をズボンの上から触っていた。,35~40歳位、小肥、身長165センチ位、茶色パーマ、白色長袖シャツ、黒色スラックス、黒色スニーカー・黒色メガネ・白色マスク着用、黒色手提げバッグ・黒色リュックサック所持、徒歩,松山市永木町二丁目の,松山市永木町二丁目,0,凝視,38.0,愛媛県,エヒメケン,EHIME KEN,38201.0,松山市,マツヤマシ,MATSUYAMA SHI,永木町二丁目,ナガキマチ 2,NAGAKIMACHI 2,,33.835355,132.774791
77,松山東署管内,のぞき・盗撮,令和4年8月31日(水) 午後5時05分ころ,松山市土居田町の路上,女子高校生が自転車で走行中、自転車に乗った男から、追い抜きざまにスカートの中を覗かれそうになったもの。,30~40歳位、中肉、黒色短髪、黒色Tシャツ、灰色迷彩柄半ズボン、ピンク色サンダル着用、自転車使用(銀色、ママチャリ、黒色前カゴ付き),松山市土居田町の,松山市土居田町,0,pink,38.0,愛媛県,エヒメケン,EHIME KEN,38201.0,松山市,マツヤマシ,MATSUYAMA SHI,土居田町,ドイダマチ,DOIDAMACHI,,33.823276,132.746488
78,松山東署管内,凝視,令和4年8月31日(水) 午後4時30分ころ,松山市石手五丁目の店舗,親子が店舗内で買い物中、店舗外に立っていた男から凝視されたもの。,20歳位、中肉、身長170センチ位、黒色短髪、白色Tシャツ、ベージュ色ズボン、ベージュ色手提げバッグ所持、徒歩,松山市石手五丁目の,松山市石手五丁目,0,凝視,38.0,愛媛県,エヒメケン,EHIME KEN,38201.0,松山市,マツヤマシ,MATSUYAMA SHI,石手五丁目,イシテ 5,ISHITE 5,,33.846897,132.792201
79,四国中央署管内,不審者,令和4年8月30日(火) 午後3時ころ,四国中央市三島朝日一丁目の集合住宅敷地内,女性が在宅中、男から玄関のドアノブをガチャガチャと回され、ドアを開けられそうになったもの。その後、行為者は別の部屋のドアノブも回している様子であった。,70歳位、やせ型、坊主、上衣:青色半袖Tシャツ、下衣:黒色様ズボン、マスクなし、白色軽トラック使用,四国中央市三島朝日一丁目の集合,四国中央市三島朝日一丁目の集合,0,purple,,,,,,,,,,,,,,
80,松山東署管内,身体露出,令和4年8月30日(火) 午後3時ころ,松山市針田町の屋外施設,男が松山市針田町の屋外施設で下半身を露出させ、徘徊していたもの。,30~40歳位、中肉、175cm位、黒髪短髪、上衣:黒色半袖Tシャツ、下衣:白色長ズボン、頬から顎にかけてヒゲあり、マスクなし(目撃者:小学生女児),松山市針田町の,松山市針田町,1,orange,38.0,愛媛県,エヒメケン,EHIME KEN,38201.0,松山市,マツヤマシ,MATSUYAMA SHI,針田町,ハリタマチ,HARITAMACHI,,33.822356,132.735852
81,今治署管内,暴行,令和4年8月30日(火)午前7時40分ころ,西条市三芳から今治市中日吉町一丁目までを走行中の列車内,女子高校生が列車に乗車中、男から「勉強しよん?」「おい、無視するな。」等と執拗に声をかけられた上、肩を小突かれたもの。,50~70歳位、中肉、身長170センチ位、白髪混じりの短髪、白色カッターシャツ、黒色スラックス、リュックサックを背負っていた、徒歩,西条市三芳から今治市中日吉町一丁目までを走行中の列車内,西条市三芳から今治市中日吉町一丁目までを走行中の列車内,0,red,,,,,,,,,,,,,,
82,松山東署管内,つきまとい,令和4年8月29日(月) 午後8時30分ころ,松山市松末二丁目から同市小坂一丁目までの路上,男子高校生が松山市松末2丁目から同市小坂1丁目までの路上を自転車で走行中、自転車に乗った男からつきまとわれたもの。,60歳位、やせ型、180cm位、黒色半袖Tシャツ、暗めチェック柄半ズボン、黒色丸縁サングラス・頭に青色タオル着用、タバコ所持、茶色軽快兼用自転車(前カゴ付き、カゴにビニール袋2~3個積載)使用,松山市松末二丁目から同市小坂一丁目までの,松山市松末二丁目から同市小坂一丁目まで,0,blue,,,,,,,,,,,,,,
83,松山東署管内,身体露出,令和4年8月29日(月) 午後5時ころ,松山市針田町の屋外施設,男が、屋外施設で下半身を露出していたもの。,徒歩,松山市針田町の,松山市針田町,2,orange,38.0,愛媛県,エヒメケン,EHIME KEN,38201.0,松山市,マツヤマシ,MATSUYAMA SHI,針田町,ハリタマチ,HARITAMACHI,,33.822356,132.735852
84,四国中央署管内,不審者,令和4年8月28日(日) 午後8時ころ,四国中央市上分町の路上,首からカメラ様のものを提げた男が、独り言を言いながら徘徊していたもの。,40~50歳位、中肉、身長170センチ位、短髪、ベージュ色シャツ、黒色様長ズボン、首から黒色カメラ様のものを提げていた、帽子・メガネなし、徒歩,四国中央市上分町の,四国中央市上分町,0,purple,38.0,愛媛県,エヒメケン,EHIME KEN,38213.0,四国中央市,シコクチュウオウシ,SHIKOKUCHUO SHI,上分町,カミブンチョウ,KAMIBUNCHO,,33.989088,133.588503
85,松山南署管内,つきまとい,令和4年8月25日(木) 午後1時ころ,松山市和泉南六丁目から同市市坪西町までの路上,小学生男児4名が自転車で走行中、自転車に乗った男から後方をつきまとわれたもの。,60~70歳位、白か灰色Tシャツ、青色様ジーパン、白色帽子・メガネ・白色マスク着用、自転車使用(古い感じ),松山市和泉南六丁目から同市市坪西町までの,松山市和泉南六丁目から同市市坪西町まで,0,blue,,,,,,,,,,,,,,
86,今治署管内,声かけ,令和4年8月25日(木) 午前10時ころ,今治市松木の路上,女子中学生が徒歩で帰宅中、独り言を言いながら近づいてきた男から「一緒に遊ぼ。」と声をかけられ、腕を掴まれそうになったもの。,60~70歳位、身長160~170センチ位、徒歩,今治市松木の,今治市松木,1,green,38.0,愛媛県,エヒメケン,EHIME KEN,38202.0,今治市,イマバリシ,IMABARI SHI,松木,マツギ,MATSUGI,,34.031383,133.003467
87,松山東署管内,身体露出,令和4年8月24日(水) 午後4時ころ,松山市余戸中五丁目の屋外設置の公衆トイレ内,小学生女児2名が屋外設置の公衆トイレ内で、ズボンを下ろした状態の男から、露出した下半身を見せつけられたもの。,35~40歳位、やせ型、身長175センチ位、黄色半袖Tシャツ、半ズボン、徒歩,松山市余戸中五丁目の,松山市余戸中五丁目,0,orange,38.0,愛媛県,エヒメケン,EHIME KEN,38201.0,松山市,マツヤマシ,MATSUYAMA SHI,余戸中五丁目,ヨウゴナカ 5,YOGONAKA 5,,33.817615,132.731208
88,松山東署管内,つきまとい,令和4年8月24日(水) 午前7時55分ころ,松山市湊町七丁目の路上,男がデジタルカメラを胸辺りに構えた状態で、女子高校生の後方をつきまとっていたもの。,50~60歳位、中肉、白色ワイシャツ、灰色スラックス、黒色ハット帽着用、黒色リュックサック・オレンジ色デジタルカメラ所持、徒歩,松山市湊町七丁目の,松山市湊町七丁目,0,blue,38.0,愛媛県,エヒメケン,EHIME KEN,38201.0,松山市,マツヤマシ,MATSUYAMA SHI,湊町七丁目,ミナトマチ 7,MINATOMACHI 7,,33.835713,132.755855
89,新居浜署管内,身体露出,令和4年8月23日(火) 午後6時40分ころ,新居浜市一宮町一丁目の路上,路上に立っていた男が、ズボンを膝辺りまで下げ、下半身を露出していたもの。,30~40歳位、やせ型、身長160センチ位、上下灰色の服、灰色帽子着用、徒歩,新居浜市一宮町一丁目の,新居浜市一宮町一丁目,0,orange,38.0,愛媛県,エヒメケン,EHIME KEN,38205.0,新居浜市,ニイハマシ,NIIHAMA SHI,一宮町一丁目,イックチョウ 1,IKKUCHO 1,,33.959889,133.282427
90,松山南署管内,のぞき・盗撮,令和4年8月22日(月) 午後9時ころ,松山市平井町甲の一般住宅,女性が入浴中、屋外にいる者(性別不明)から、浴室の窓からスマートフォンを差し込まれたもの。,黒色スマートフォン所持,松山市平井町甲の,松山市平井町,0,pink,38.0,愛媛県,エヒメケン,EHIME KEN,38201.0,松山市,マツヤマシ,MATSUYAMA SHI,平井町,ヒライマチ,HIRAIMACHI,,33.824694,132.836156
91,松山南署管内,のぞき・盗撮,令和4年8月22日(月) 午後8時40分ころ,松山市平井町甲の一般住宅,女性が入浴中、屋外にいる者(性別不明)から浴室の窓越しに覗かれたもの。,,松山市平井町甲の,松山市平井町,1,pink,38.0,愛媛県,エヒメケン,EHIME KEN,38201.0,松山市,マツヤマシ,MATSUYAMA SHI,平井町,ヒライマチ,HIRAIMACHI,,33.824694,132.836156
92,松山南署管内,声かけ,令和4年8月21日(日) 午後7時20分ころ,東温市樋口の路上,女子高校生が歩行中、対向から歩いて来た男から「お金なら持っとるけん、遊ぼ。」等と声をかけられたもの。女子高校生が無視していたところ、男から手を掴まれそうになった。,30~40歳位、中肉、身長170センチ位、黒色短髪、黄色様半袖Tシャツ、紺色ジーパン、マスク・メガネなし、徒歩,東温市樋口の,東温市樋口,0,green,38.0,愛媛県,エヒメケン,EHIME KEN,38215.0,東温市,トウオンシ,TOON SHI,樋口,ヒノクチ,HINOKUCHI,,33.822826,132.886589
93,松山東署管内,声かけ,令和4年8月20日(土) 午後7時ころ,松山市三番町一丁目の駐車場内,女性が歩行中、車に乗った男から暴言を吐かれ、スマートフォンを向けられたもの。,自動車使用、スマートフォン所持,松山市三番町一丁目の,松山市三番町一丁目,0,green,38.0,愛媛県,エヒメケン,EHIME KEN,38201.0,松山市,マツヤマシ,MATSUYAMA SHI,三番町一丁目,サンバンチョウ 1,SAMBANCHO 1,,33.838004,132.773579
94,松山東署管内,つきまとい,令和4年8月20日(土) 午後5時30分ころ,松山市三番町二丁目から同市大街道二丁目までの路上,女性が歩行中、スマートフォンを腹部辺りに構えた男から、後方をつきまとわれたもの。,中肉、身長170センチ位、黒色短髪、黒色スポーツウェア、黒色半ズボン、白色マスク着用、徒歩,松山市三番町二丁目から同市大街道二丁目までの,松山市三番町二丁目から同市大街道二丁目まで,0,blue,,,,,,,,,,,,,,
95,松山西署管内,敷地内侵入,令和4年8月19日(金) 午後9時15分ころ,松山市久万ノ台の集合住宅敷地内,女性が帰宅したところ、スマートフォンを持った男が集合住宅敷地内から飛び出してきて走り去ったもの。,20~30歳位、やせ型、身長175~180センチ位、短髪、黒色様長袖スウェット様、黒色様長ズボン、面長、白色マスク着用、スマートフォン所持、徒歩,松山市久万ノ台の集合,松山市久万ノ台の集合,0,敷地内侵入,,,,,,,,,,,,,,
96,松山東署管内,ちかん,令和4年8月19日(金) 午前0時55分ころ,松山市日の出町の路上,女性が自転車で走行中、徒歩の男からすれ違いざまに身体を触られたもの。,20~40歳位、中肉、身長170~175センチ位、黒色様の長髪パーマ様、水色様の服、徒歩,松山市日の出町の,松山市日の出町,1,gray,38.0,愛媛県,エヒメケン,EHIME KEN,38201.0,松山市,マツヤマシ,MATSUYAMA SHI,日の出町,ヒノデマチ,HINODEMACHI,,33.837121,132.782305
97,新居浜署管内,不審者,令和4年8月18日(木) 午後8時ころ,新居浜市桜木町の路上,男が、徒歩で何度も同じ道を往復したり、持っているスマートフォンで付近を撮影する素振りを見せるなどの不審な行動をしていたもの。,15~20歳位、やせ型、身長170センチ位、白色Tシャツ、灰色半ズボン、黒色運動靴着用、スマートフォン所持、徒歩,新居浜市桜木町の,新居浜市桜木町,0,purple,38.0,愛媛県,エヒメケン,EHIME KEN,38205.0,新居浜市,ニイハマシ,NIIHAMA SHI,桜木町,サクラギチョウ,SAKURAGICHO,,33.968147,133.299844
98,宇和島署管内,不審者,令和4年8月12日(金)午後4時30分ころ,北宇和郡鬼北町大字近永の一班住宅,小学生2名が北宇和郡鬼北町大字近永の一般住宅に在宅中、訪問してきた男から「エアコン工事のため車をのけてほしい」等と言われたもの。家人が近所に確認したが、工事はしていなかった。,30歳位、中肉、175cm位、金色短髪、銀色ネックレス着用、メガネ・ヒゲなし,北宇和郡鬼北町大字近永の一班,北宇和郡鬼北町大字近永の一班,0,purple,,,,,,,,,,,,,,
99,松山東署管内,つきまとい,令和4年8月11日(木) 午前0時10分ころ,松山市木屋町一丁目の路上,女性が自転車で帰宅中、車に乗った者(性別不明)から後方をつきまとわれたもの。,赤色用普通乗用車(トヨタ ヴィッツ様)使用,松山市木屋町一丁目の,松山市木屋町一丁目,0,blue,38.0,愛媛県,エヒメケン,EHIME KEN,38201.0,松山市,マツヤマシ,MATSUYAMA SHI,木屋町一丁目,キヤチョウ 1,KIYACHO 1,,33.848553,132.760285
100,松山東署管内,不審者,令和4年8月11日(木) 午後0時35分ころ,松山市保免中二丁目の路上,女性らが松山市保免中2丁目の路上を車で走行中、対向から歩いて来た男から、ズボンのチャックを開けて下半身を触り、ニヤニヤしながら凝視されたもの。,60-80歳位、中肉、160-170cm位、白髪混じりの短髪、下衣:薄い灰色作業着様長ズボン、色黒、マスク・メガネなし,松山市保免中二丁目の,松山市保免中二丁目,1,purple,38.0,愛媛県,エヒメケン,EHIME KEN,38201.0,松山市,マツヤマシ,MATSUYAMA SHI,保免中二丁目,ホウメンナカ 2,HOMENNAKA 2,,33.817028,132.74789
101,松山南署管内,写真撮影等,令和4年8月11日(木)午後4時30分ころ,東温市見奈良の路上,女子高校生が東温市見奈良の路上を自転車で走行中、後方から近づいてきた車に乗車の男から、追い抜きざまにスマートフォンを向けられたもの。,黒髪短髪、灰色普通乗用車使用、スマートフォン(黒色手帳型カバー付き)所持,東温市見奈良の,東温市見奈良,0,写真撮影等,38.0,愛媛県,エヒメケン,EHIME KEN,38215.0,東温市,トウオンシ,TOON SHI,見奈良,ミナラ,MINARA,,33.792101,132.876856
102,伊予署管内,身体露出,令和4年8月11日(木) 午前5時15分ころ,伊予市湊町の路上,女性が伊予市湊町の路上を歩行中、両手を組んで仁王立ちしていた男から、ズボンを下ろし露出させた下半身を見せつけられたもの。,60歳位、小肥、短髪、上衣:紫色様の服、下衣:ベージュ色綿製様ズボン、もみあげとあごヒゲがつながっている,伊予市湊町の,伊予市湊町,0,orange,38.0,愛媛県,エヒメケン,EHIME KEN,38210.0,伊予市,イヨシ,IYO SHI,湊町,ミナトマチ,MINATOMACHI,,33.762201,132.701816
103,松山東署管内,声かけ,令和4年8月6日(土) 午後0時35分ころ,松山市喜与町一丁目の路上,小学生女児が自転車で走行中、徒歩の男から卑わいな言葉をかけられたもの。,10~15歳位、中肉、身長150~155センチ位、黒色短髪、灰色長ズボン、紫色リュックサック所持、メガネ・マスクなし、徒歩,松山市喜与町一丁目の,松山市喜与町一丁目,0,green,38.0,愛媛県,エヒメケン,EHIME KEN,38201.0,松山市,マツヤマシ,MATSUYAMA SHI,喜与町一丁目,キヨマチ 1,KIYOMACHI 1,,33.843858,132.773748
104,大洲署管内,写真撮影等,令和4年8月3日(水)午後4時50分ころ,八幡浜市から大洲市までを走行中の列車内,女子高校生3名が列車に乗車中、向かいの座席に座っていた男から携帯電話機のカメラレンズを向けられたもの。,40~50歳位、中肉、上衣:白色半袖Tシャツ、黒色帽子着用、黒色エナメル製バッグ所持,八幡浜市から大洲市までを走行中の列車内,八幡浜市から大洲市までを走行中の列車内,0,写真撮影等,,,,,,,,,,,,,,
105,松山東署管内,つきまとい,令和4年8月3日(水) 午前8時ころ,松山市湊町七丁目の路上,男が胸元にデジタルカメラ様のものを構えた状態で、女子高校生の後方をつきまとっていたもの。,50~60歳位、やせ型、170cm位、上衣:白色半袖Yシャツ、下衣:灰色スラックス様、ヘアバンド着用、オレンジ色デジタルカメラ様を所持、日傘をさしていた、徒歩,松山市湊町七丁目の,松山市湊町七丁目,1,blue,38.0,愛媛県,エヒメケン,EHIME KEN,38201.0,松山市,マツヤマシ,MATSUYAMA SHI,湊町七丁目,ミナトマチ 7,MINATOMACHI 7,,33.835713,132.755855
106,松山西署管内,声かけ,令和4年8月2日(火) 午後6時ころ,松山市東垣生町の公園内,女性が子供と遊んでいたところ、男から「お前ら〇〇(ゲーム名)をやりにきたんか。」等と声をかけられたもの。,40~50歳位、中肉、身長170センチ位、黒色短髪、白色半袖Tシャツ、紺色様長ズボン、メガネなし、徒歩,松山市東垣生町の,松山市東垣生町,0,green,38.0,愛媛県,エヒメケン,EHIME KEN,38201.0,松山市,マツヤマシ,MATSUYAMA SHI,東垣生町,ヒガシハブマチ,HIGASHIHABUMACHI,,33.813135,132.714338
107,西条西署管内,声かけ,令和4年8月2日(火) 午後3時30分ころ,西条市桑村の路上,女子高校生が自動販売機で買い物中、自転車に乗った男が近づいてきたことから視線を向けたところ、同人から「こっち見んなや。」と叫ばれたもの。,40歳位、中肉、天然パーマ様の黒色長髪、上衣:Tシャツ、下衣:黒色ジャージ、浅黒、麦わら帽子・赤色サングラス着用、自転車使用(銀色、前カゴ付き、ママチャリ様),西条市桑村の,西条市桑村,0,green,38.0,愛媛県,エヒメケン,EHIME KEN,38206.0,西条市,サイジョウシ,SAIJO SHI,桑村,クワムラ,KUWAMURA,,33.940968,133.058006
108,新居浜署管内,不審者,令和4年8月2日(火) 午前11時45分ころ,新居浜市政枝町三丁目の一般住宅敷地内,女性が在宅中、男からインターホンのカメラを手で覆った状態で、インターホンを鳴らされたもの。その際、男は聞き取れない言葉を話しており、声が高齢男性の感じであった。,高齢,新居浜市政枝町三丁目の,新居浜市政枝町三丁目,0,purple,38.0,愛媛県,エヒメケン,EHIME KEN,38205.0,新居浜市,ニイハマシ,NIIHAMA SHI,政枝町三丁目,マサエダチョウ 3,MASAEDACHO 3,,33.941494,133.284852
109,宇和島署管内,つきまとい,令和4年7月31日(日) 午後1時45分ころ,宇和島市恵美須町二丁目の店舗内,女子高校生2名が店舗内設置の椅子に座っていたところ、男から聞き取れない言葉で声をかけられ、つきまとわれたもの。,50歳位、中肉、身長160センチ位、灰色長袖シャツ(横縞模様)、黒色長ズボン、黒縁メガネ・黒色キャップ帽着用、白色トートバッグ・透明傘所持、携帯電話機を首から下げている、徒歩,宇和島市恵美須町二丁目の,宇和島市恵美須町二丁目,0,blue,38.0,愛媛県,エヒメケン,EHIME KEN,38203.0,宇和島市,ウワジマシ,UWAJIMA SHI,恵美須町二丁目,エビスマチ 2,EBISUMACHI 2,,33.225312,132.564231
110,松山西署管内,つきまとい,令和4年7月27日(水) 午後10時15分ころ,松山市北斎院町の路上,女子高校生が自転車で走行中、自転車に2人乗りをした男から、「待ってよ。」等と声をかけられた上、追い掛けられて後方をつきまとわれたもの。,A(白色の軽快兼用自転車運転、高校生位の男、やせ型、灰色様半袖Tシャツ、灰色様半ズボン)  B(自転車後部、高校生位の男、小肥、灰色様半袖Tシャツ、灰色様半ズボン),松山市北斎院町の,松山市北斎院町,0,blue,38.0,愛媛県,エヒメケン,EHIME KEN,38201.0,松山市,マツヤマシ,MATSUYAMA SHI,北斎院町,キタサヤチョウ,KITASAYACHO,,33.839402,132.723636
111,松山東署管内,不審者,令和4年7月27日(水) 午前9時ころ,松山市湊町四丁目の路上,女性が歩行中、自転車で蛇行運転していた男から、不自然に急接近されたもの。,50歳位、やせ型、坊主に近い短髪、濃い緑色Tシャツ、紺色半ズボン、ママチャリ様の自転車使用,松山市湊町四丁目の,松山市湊町四丁目,0,purple,38.0,愛媛県,エヒメケン,EHIME KEN,38201.0,松山市,マツヤマシ,MATSUYAMA SHI,湊町四丁目,ミナトマチ 4,MINATOMACHI 4,,33.835795,132.765892
112,伊予署管内,つきまとい,令和4年7月27日(水) 午前7時ころ,伊予市米湊の路上,男が、通りすがりの女性に対して声をかけたり、つきまとったりしていたもの。,60~70歳位、やせ型、身長160センチ位、白髪混じりの短髪、部屋着様の服、メガネ・マスク・ヒゲなし、徒歩,伊予市米湊の,伊予市米湊,0,blue,38.0,愛媛県,エヒメケン,EHIME KEN,38210.0,伊予市,イヨシ,IYO SHI,米湊,コミナト,KOMINATO,,33.753461,132.703302
113,伊予署管内,つきまとい,令和4年7月27日(水) 午前7時ころ,伊予市米湊の路上,男が、通りすがりの女性に対して声をかけたり、つきまとったりしていたもの。,60~70歳位、やせ型、身長160センチ位、白髪混じりの短髪、部屋着様の服、メガネ・マスク・ヒゲなし、徒歩,伊予市米湊の,伊予市米湊,0,blue,38.0,愛媛県,エヒメケン,EHIME KEN,38210.0,伊予市,イヨシ,IYO SHI,米湊,コミナト,KOMINATO,安広,33.757102,132.705117
114,松山東署管内,ちかん,令和4年7月25日(月) 午後6時25分ころ,松山市千舟町二丁目の路上,小学生男児が歩行中、後方から近付いてきた男から追い抜きざまに、下半身を触られたもの。,70~80歳位、中肉、身長165~170センチ位、白色短髪、半袖Tシャツ、長ズボン、黒縁メガネ・白色不織布マスク着用、徒歩,松山市千舟町二丁目の,松山市千舟町二丁目,0,gray,38.0,愛媛県,エヒメケン,EHIME KEN,38201.0,松山市,マツヤマシ,MATSUYAMA SHI,千舟町二丁目,チフネマチ 2,CHIFUNEMACHI 2,,33.836603,132.771485
115,宇和島署管内,つきまとい,令和4年7月23日(土) 午前7時30分ころ,宇和島市新田町四丁目の路上,男子中学生が歩行中、対向から歩いて来た男から、すれ違い後Uターンして、後方をつきまとわれたもの。,20~30歳位、中肉、身長170センチ位、半袖の上衣、長ズボン、黒色帽子・白色マスク着用、黒色リュックサック所持、徒歩,宇和島市新田町四丁目の,宇和島市新田町四丁目,0,blue,38.0,愛媛県,エヒメケン,EHIME KEN,38203.0,宇和島市,ウワジマシ,UWAJIMA SHI,新田町四丁目,シンデンチョウ 4,SHINDENCHO 4,,33.213785,132.55536
116,松山東署管内,写真撮影等,令和4年7月21日(木) 午後6時ころ,松山市畑寺町の施設敷地内,中学生らが運動中、付近にある家屋方向からカメラのフラッシュ様のものが見えたもの。,,松山市畑寺町の,松山市畑寺町,0,写真撮影等,38.0,愛媛県,エヒメケン,EHIME KEN,38201.0,松山市,マツヤマシ,MATSUYAMA SHI,畑寺町,ハタデラマチ,HATADERAMACHI,,33.832092,132.808517
117,四国中央署管内,身体露出,令和4年7月19日(火) 午後7時ころ,四国中央市土居町津根の路上,女子高校生が歩行中、後方から近付いてきた男から「見るか。」と声をかけられた上、露出させた下半身を見せつけられたもの。,30~50歳位、身長170センチ位、茶髪、白色Tシャツ、黒色ズボン、黒色キャップ帽・白色マスク着用、徒歩,四国中央市土居町津根の,四国中央市土居町津根,0,orange,38.0,愛媛県,エヒメケン,EHIME KEN,38213.0,四国中央市,シコクチュウオウシ,SHIKOKUCHUO SHI,土居町津根,ドイチョウツネ,DOICHO TSUNE,,33.967002,133.45345
118,四国中央署管内,身体露出,令和4年7月19日(火) 午後4時ころ,四国中央市土居町土居の路上,小学生女児が歩行中、後方から近付いてきた男から「見て。」と声をかけられた上、露出させた下半身を見せつけられたもの。,30~40歳位、身長170センチ位、金髪、黒色半袖シャツ、黒色ズボン、黒色バッグ着用(腰に装着、ペットボトル入り)、マスクなし、徒歩,四国中央市土居町土居の,四国中央市土居町土居,0,orange,38.0,愛媛県,エヒメケン,EHIME KEN,38213.0,四国中央市,シコクチュウオウシ,SHIKOKUCHUO SHI,土居町土居,ドイチョウドイ,DOICHO DOI,,33.961412,133.421499
119,西予署管内,声かけ,令和4年7月19日(火) 午後4時ころ,西予市野村町野村の路上,小学生男児が歩行中、男から「どこの地区に住んでいるの?」と声をかけられ、後方をつきまとわれたもの。,60歳位、身長160センチ位、白髪、フレームの細いメガネ着用、懐中電灯所持、徒歩,西予市野村町野村の,西予市野村町野村,0,green,38.0,愛媛県,エヒメケン,EHIME KEN,38214.0,西予市,セイヨシ,SEIYO SHI,野村町野村,ノムラチョウノムラ,NOMURACHO NOMURA,,33.361119,132.643658
120,四国中央署管内,身体露出,令和4年7月19日(火) 午後1時40分ころ,四国中央市中曽根町の路上,女子高校生2名が歩行中、後方から近付いてきた男から「これ見て。」と声をかけられた上、露出した下半身を見せつけられたもの。,25~30歳位、やせ型、身長165センチ位、ツイストパーマの金髪(前髪が目にかかる位の長さ)、上下黒色ジャージ、黒色キャップ帽・マスク着用、色黒、徒歩,四国中央市中曽根町の,四国中央市中曽根町,0,orange,38.0,愛媛県,エヒメケン,EHIME KEN,38213.0,四国中央市,シコクチュウオウシ,SHIKOKUCHUO SHI,中曽根町,ナカゾネチョウ,NAKAZONECHO,,33.965099,133.549186
121,西予署管内,建造物侵入,令和4年7月17日(日) 午後9時ころ,西予市宇和町下松葉の屋外設置の女子トイレ内,性別不明の者が、女子トイレ内にいたもの。(声が低く、男性の可能性あり),中年、身長155~160センチ位、紺色半袖、徒歩,西予市宇和町下松葉の,西予市宇和町下松葉,1,darkred,38.0,愛媛県,エヒメケン,EHIME KEN,38214.0,西予市,セイヨシ,SEIYO SHI,宇和町下松葉,ウワチョウシモマツバ,UWACHO SHIMOMATSUBA,,33.374804,132.506239
122,今治署管内,つきまとい,令和4年7月15日(金) 午後8時20分ころ,今治市大西町紺原の路上,女性ら数名が自転車で走行中、女性が自転車に乗った男から追い掛けられ、服を引っ張られたもの。,35~40歳位、やせ型、黒色の服、黒色ズボン、自転車利用,今治市大西町紺原の,今治市大西町紺原,0,blue,38.0,愛媛県,エヒメケン,EHIME KEN,38202.0,今治市,イマバリシ,IMABARI SHI,大西町紺原,オオニシチョウコンバラ,ONISHICHO KOMBARA,,34.067114,132.938228
123,松山東署管内,つきまとい,令和4年7月15日(金) 午後1時10分ころ,松山市湊町四丁目の路上,女性が歩行中、男から後方をつきまとわれ、その後、ニヤニヤしながら指を差されて、聞き取れない言葉を言われたもの。,30歳位、やせ型、身長160~170cm位、白髪交じりの短髪、ピンク色半袖ポロシャツ、柄付き半ズボン、サンダル着用,松山市湊町四丁目の,松山市湊町四丁目,1,blue,38.0,愛媛県,エヒメケン,EHIME KEN,38201.0,松山市,マツヤマシ,MATSUYAMA SHI,湊町四丁目,ミナトマチ 4,MINATOMACHI 4,,33.835795,132.765892
124,松山東署管内,つきまとい,令和4年7月15日(金) 午後2時10分ころ,松山市湊町四丁目の路上,女性2名が歩行中、路上にいた男から凝視された上、後方をつきまとわれたもの。男は付近に停めていたバイクに乗り逃走した。,30~40歳位、小肥り、身長160cm位、黒色短髪、黒色ポロシャツ、ジーンズ着用、ネックウォーマー着用(鼻まで覆い隠していた)、ショルダーバッグ2個(銀色と赤色)所持、バイク使用,松山市湊町四丁目の,松山市湊町四丁目,2,blue,38.0,愛媛県,エヒメケン,EHIME KEN,38201.0,松山市,マツヤマシ,MATSUYAMA SHI,湊町四丁目,ミナトマチ 4,MINATOMACHI 4,,33.835795,132.765892
125,松山東署管内,のぞき・盗撮,令和4年7月15日(金) 午後3時10分ころ,松山市真砂町の路上,女子高校生が建物2階の部屋にいたところ、路上にいた自転車に乗車の男から凝視されていたもの。その後も男は、付近をうろついていた。,30~40歳位、やせ型、170cm位、黒色短髪、黒色半袖Tシャツ、紺色7分丈ズボン、黒色マスク着用、メガネなし、銀色軽快兼用自転車(前カゴに反射板つき))使用,松山市真砂町の,松山市真砂町,0,pink,38.0,愛媛県,エヒメケン,EHIME KEN,38201.0,松山市,マツヤマシ,MATSUYAMA SHI,真砂町,マサゴチョウ,MASAGOCHO,,33.832591,132.760831
126,大洲署管内,写真撮影等,令和4年7月14日(木) 午後4時15分ころ,大洲市若宮の店舗敷地内,女子高校生が店舗敷地内に設置のベンチに座っていたところ、男から携帯電話機様のものを向けられたもの。その後男は、敷地内に停めていた車両に乗り込んだ。,50~60歳位、中肉、身長165cm位、黒色短髪、灰色半袖Tシャツ、黒色長ズボン着用、黒色様携帯電話機(ガラケー様)所持、銀色軽四乗用車使用,大洲市若宮の,大洲市若宮,0,写真撮影等,38.0,愛媛県,エヒメケン,EHIME KEN,38207.0,大洲市,オオズシ,OZU SHI,若宮,ワカミヤ,WAKAMIYA,,33.521514,132.549221
127,松山南署管内,写真撮影等,令和4年7月13日(水) 午前8時ころ,松山市福音寺町から同市三町三丁目までの路上,女子高校生が自転車で走行中、車に乗った男から、並走しながら、スマートフォンを向けられたもの。,40歳位、やせ型、黒色短髪、メガネ・マスクなし、普通自動車(紺色)使用、黒色スマートフォン所持,松山市福音寺町から同市三町三丁目までの,松山市福音寺町から同市三町三丁目まで,0,写真撮影等,,,,,,,,,,,,,,
128,久万高原署管内,声かけ,令和4年7月13日(水) 午前7時30分ころ,上浮穴郡久万高原町久万の路上,女子中学生が歩行中、対向から歩いて来た男から、「名前は?」等と声をかけられ、つきまとわれたもの。,40歳位、やせ型、180センチ位、金色長髪(背中に届くくらいの長髪、一つ結び)、黒色Tシャツ、白色長ズボン、色白、黒縁メガネ着用,上浮穴郡久万高原町久万の,上浮穴郡久万高原町久万,1,green,38.0,愛媛県,エヒメケン,EHIME KEN,38386.0,上浮穴郡久万高原町,カミウケナグンクマコウゲンチョウ,KAMIUKENA GUN KUMAKOGEN CHO,久万,クマ,KUMA,,33.657872,132.894815
129,今治署管内,暴行,令和4年7月12日(火) 午後7時10分ころ,今治市美須賀町四丁目の路上,男子高校生が自転車で走行中、後方から近づいてきた自転車に乗車の男から暴言を吐かれ停車したところ、胸辺りを一発殴られたもの。,50~60歳位、やせ型、身長160~165センチ位、短髪(上は少し長め、横は刈り上げ)、紺色Tシャツ、水色ジーンズ、目の下にクマ、暗色の自転車使用(カゴ付き),今治市美須賀町四丁目の,今治市美須賀町四丁目,0,red,38.0,愛媛県,エヒメケン,EHIME KEN,38202.0,今治市,イマバリシ,IMABARI SHI,美須賀町四丁目,ミスカチョウ 4,MISUKACHO 4,,34.059108,133.012
130,新居浜署管内,声かけ,令和4年7月12日(火) 午後4時15分ころ,新居浜市大生院の店舗駐車場,女子中学生2名が店舗に立ち寄った際、車の助手席から降車した男に、乗っていた車を指さしながら「1000万円あるよ。」と声をかけられ、つきまとわれたもの。,30歳位、身長175センチ位、黒色短髪、黒色半袖Tシャツ、彫が深い、外国人風、ミントグリーン色の軽四乗用自動車様使用、車の運転席にもう一人男(30歳位、黒髪短髪、白色Tシャツ、外国人風、目の彫が深い)が乗車,新居浜市大生院の,新居浜市大生院,0,green,38.0,愛媛県,エヒメケン,EHIME KEN,38205.0,新居浜市,ニイハマシ,NIIHAMA SHI,大生院,オオジョウイン,OJOIN,,33.899194,133.257014
131,八幡浜署管内,つきまとい,令和4年7月11日(月) 午後9時ころ,八幡浜市大平の路上,女性2名が歩行中、路上の真ん中に立ち、独り言を言っていた男から、後方をつきまとわれたもの。,20~30歳位、白色長袖ワイシャツ、チェック柄ズボン、横長リュックサック所持、徒歩,八幡浜市大平の,八幡浜市大平,0,blue,38.0,愛媛県,エヒメケン,EHIME KEN,38204.0,八幡浜市,ヤワタハマシ,YAWATAHAMA SHI,大平,オオヒラ,OHIRA ,,33.470429,132.430493
132,新居浜署管内,写真撮影等,令和4年7月11日(月) 午後7時ころ,新居浜市神郷一丁目の路上,女子中学生が歩行中、車両から降車してきた男から、スマートフォンを向けられたもの。,30歳位、暗めの色の肩上くらいまでの長さの頭髪、暗い色の半袖Tシャツ、ジーパン、スマートフォン(水色カバー付き)所持,新居浜市神郷一丁目の,新居浜市神郷一丁目,0,写真撮影等,38.0,愛媛県,エヒメケン,EHIME KEN,38205.0,新居浜市,ニイハマシ,NIIHAMA SHI,神郷一丁目,コウザト 1,KOZATO 1,,33.967343,133.316939
133,宇和島署管内,つきまとい,令和4年7月11日(月) 午後5時30分ころ,北宇和郡鬼北町近永の路上,女子高校生2名が歩行中、対向から歩いて来た男からすれ違い後、Uターンしてつきまとわれたもの。,50歳位、中肉、身長165センチ位、黒色短髪、青色半袖Tシャツ、灰色長ズボン、黒色ショルダーバッグ所持、徒歩,北宇和郡鬼北町近永の,北宇和郡鬼北町近永,0,blue,,,,,,,,,,,,,,
134,新居浜署管内,声かけ,令和4年7月8日(金) 午後6時ころ,新居浜市又野二丁目の駐輪場,女性が、駐輪場から無くなっていた自転車を探していたところ、同女性の自転車に乗った男を発見したため、声をかけて自転車を取り返した後、同男から「奢るから一緒にジュース飲もう。」等と声をかけられたもの。,50歳位、中肉、身長160センチ位、黒色短髪、Tシャツ(色不明)の上にピンク色シャツを羽織っている、メガネ・マスクなし、徒歩,新居浜市又野二丁目の,新居浜市又野二丁目,0,green,38.0,愛媛県,エヒメケン,EHIME KEN,38205.0,新居浜市,ニイハマシ,NIIHAMA SHI,又野二丁目,マタノ 2,MATANO 2,,33.967689,133.325578
135,今治署管内,写真撮影,令和4年7月8日(金) 午前10時30分ころ,今治市波方町養老甲の路上,自転車(黄色)に乗った男が今治市波方町養老甲の路上で、持っていたタブレット端末を建物敷地内に向けて構えていたもの。,60歳以上、上衣:ボーダー柄シャツ、下衣:黒色 半ズボン、自転車(黄色)使用,今治市波方町養老甲の,今治市波方町養老,0,lightred,38.0,愛媛県,エヒメケン,EHIME KEN,38202.0,今治市,イマバリシ,IMABARI SHI,波方町養老,ナミカタチョウヨウロウ,NAMIKATACHO YORO,,34.108913,132.943133
136,松山東署管内,写真撮影等,令和4年7月7日(木) 午後7時25分ころ,松山市文京町の路上,男子高校生が歩行中、対向から来た男からすれ違いざまにスマートフォンのカメラを向けられたもの。,30~40歳位、中肉、身長160~170センチ位、黒色短髪、濃い灰色半袖シャツ、ジャージ様ズボン、スマートフォン(黒色様)所持、徒歩,松山市文京町の,松山市文京町,0,写真撮影等,38.0,愛媛県,エヒメケン,EHIME KEN,38201.0,松山市,マツヤマシ,MATSUYAMA SHI,文京町,ブンキョウチョウ,BUNKYOCHO,,33.849715,132.770515
137,松山西署管内,声かけ,令和4年7月7日(木) 午後3時55分ころ,松山市高岡町の路上,女子中学生が歩行中、自転車に乗った男からすれ違い後、Uターンして「ねえねえ。」と声をかけられ、「あなたタイプやけん。」等と言われたもの。,15~20歳位、やせ型、身長170センチ位、黒色短髪(天然パーマ)、白色半袖シャツ、紺色チェック柄長ズボン、黒色革靴・黒縁メガネ着用、黒色箱型バッグ所持、自転車使用(銀色様、前カゴ付き、ママチャリ様),松山市高岡町の,松山市高岡町,1,green,38.0,愛媛県,エヒメケン,EHIME KEN,38201.0,松山市,マツヤマシ,MATSUYAMA SHI,高岡町,タカオカマチ,TAKAOKAMACHI,,33.830862,132.720361
138,四国中央署管内,住居侵入等,令和4年7月6日(水) 午後4時ころ,四国中央市寒川町の一般住宅敷地内,女性が帰宅したところ、男が女性方敷地内に置かれた椅子に座っていたもの。,80歳位、中肉、身長165センチ位、上衣:Tシャツ、茶色サングラス・竹笠着用、リュックサック所持、徒歩,四国中央市寒川町の,四国中央市寒川町,1,住居侵入等,38.0,愛媛県,エヒメケン,EHIME KEN,38213.0,四国中央市,シコクチュウオウシ,SHIKOKUCHUO SHI,寒川町,サンガワチョウ,SANGAWACHO,,33.952462,133.507717
139,四国中央署管内,住居侵入等,令和4年7月6日(水) 午後4時ころ,四国中央市寒川町の一般住宅敷地内,女性が帰宅したところ、男が女性方敷地内に置かれた椅子に座っていたもの。,80歳位、中肉、身長165センチ位、上衣:Tシャツ、茶色サングラス・竹笠着用、リュックサック所持、徒歩,四国中央市寒川町の,四国中央市寒川町,1,住居侵入等,38.0,愛媛県,エヒメケン,EHIME KEN,38213.0,四国中央市,シコクチュウオウシ,SHIKOKUCHUO SHI,寒川町,サンガワチョウ,SANGAWACHO,大門,33.967211,133.503062
140,四国中央署管内,凝視,令和4年7月5日(火) 午後4時ころ,四国中央市土居町津根の路上,小学生女児3名が路上にいたところ、自転車に乗った男から顔を覗き込むようにして凝視されたもの。,若い、中肉、短髪、青色服、ナイロン製ズボン、メガネ着用、自転車使用,四国中央市土居町津根の,四国中央市土居町津根,1,凝視,38.0,愛媛県,エヒメケン,EHIME KEN,38213.0,四国中央市,シコクチュウオウシ,SHIKOKUCHUO SHI,土居町津根,ドイチョウツネ,DOICHO TSUNE,,33.967002,133.45345
141,松山東署管内,声かけ,令和4年7月5日(火) 午前9時ころ,松山市祝谷二丁目の路上,女性が歩行中、男から「連絡先教えて。」「1回遊ばない?」等と声をかけられた後、卑わいな言葉をかけられたもの。,40歳位、中肉、身長170センチ位、毛先が茶色の黒髪短髪、青か灰色半袖ポロシャツ、長ズボン、目が細くつり上がっている、徒歩,松山市祝谷二丁目の,松山市祝谷二丁目,0,green,38.0,愛媛県,エヒメケン,EHIME KEN,38201.0,松山市,マツヤマシ,MATSUYAMA SHI,祝谷二丁目,イワイダニ 2,IWAIDANI 2,,33.855782,132.780457
142,松山東署管内,声かけ,令和4年7月5日(火) 午前7時40分ころ,松山市上市一丁目の路上,小学生女児が歩行中、自転車に乗った男からすれ違いざまに「マスク外していいんよ。」「このバカ。」等と声をかけられたもの。,白髪混じりの頭髪、オレンジ色Tシャツ、歯が数本抜けている、自転車使用(ハンドル部分に傘を取り付けている),松山市上市一丁目の,松山市上市一丁目,0,green,38.0,愛媛県,エヒメケン,EHIME KEN,38201.0,松山市,マツヤマシ,MATSUYAMA SHI,上市一丁目,カミイチ 1,KAMIICHI 1,,33.84449,132.78887
143,伊予署管内,写真撮影,令和4年7月4日(月) 午後3時ころ,伊予市米湊の店舗内,女性が子供を連れ店内にいたところ、男から何度も付近をうろつかれた上、スマートフォンを向けられたもの。,50~70歳位、中肉、身長160センチ位、白髪混じりの短髪、赤色ポロシャツ、黒色長ズボン、白色マスク着用、メガネなし、黒色様バッグ・黒色カバー付きスマートフォン所持,伊予市米湊の,伊予市米湊,1,lightred,38.0,愛媛県,エヒメケン,EHIME KEN,38210.0,伊予市,イヨシ,IYO SHI,米湊,コミナト,KOMINATO,,33.753461,132.703302
144,伊予署管内,写真撮影,令和4年7月4日(月) 午後3時ころ,伊予市米湊の店舗内,女性が子供を連れ店内にいたところ、男から何度も付近をうろつかれた上、スマートフォンを向けられたもの。,50~70歳位、中肉、身長160センチ位、白髪混じりの短髪、赤色ポロシャツ、黒色長ズボン、白色マスク着用、メガネなし、黒色様バッグ・黒色カバー付きスマートフォン所持,伊予市米湊の,伊予市米湊,1,lightred,38.0,愛媛県,エヒメケン,EHIME KEN,38210.0,伊予市,イヨシ,IYO SHI,米湊,コミナト,KOMINATO,安広,33.757102,132.705117
145,松山南署管内,不審者,令和4年7月3日(日) 午後9時10分ころ,東温市野田二丁目の一般住宅敷地内,男が住宅敷地内に入り、隣家の浴室方向を見ていたもの。,50~60歳位、身長165センチ位、上下黒色様の服、黒色ワークキャップ着用、徒歩,東温市野田二丁目の,東温市野田二丁目,0,purple,38.0,愛媛県,エヒメケン,EHIME KEN,38215.0,東温市,トウオンシ,TOON SHI,野田二丁目,ノダ 2,NODA 2,,33.794519,132.837994
146,松山南署管内,暴行,令和4年7月3日(日) 午後3時ころ,松山市森松町の路上,男子中学生3名が自転車で走行中、徒歩の男から因縁をつけられ、唾を吐きかけられたもの。,50~60歳位、中肉、身長170センチ位、白髪混じりの黒色短髪、水色シャツ、徒歩,松山市森松町の,松山市森松町,0,red,38.0,愛媛県,エヒメケン,EHIME KEN,38201.0,松山市,マツヤマシ,MATSUYAMA SHI,森松町,モリマツマチ,MORIMATSUMACHI,,33.789207,132.791713
147,今治署管内,不審者,令和4年7月1日(金) 午後5時ころ,今治市徳重の路上,自転車に乗った男が、アパート敷地内をジロジロ見ながら、うろついていたもの。,60~80歳位、中肉、白髪混じりの短髪、半袖シャツ、長ズボン、自転車使用(一文字ハンドル),今治市徳重の,今治市徳重,0,purple,38.0,愛媛県,エヒメケン,EHIME KEN,38202.0,今治市,イマバリシ,IMABARI SHI,徳重,トクシゲ,TOKUSHIGE,,34.036394,132.985403
148,松山南署管内,声かけ,令和4年7月1日(金) 午後3時50分ころ,松山市鷹子町の路上,小学生数名が歩行中、自転車に乗った男から「何小の何年生?」と声をかけられたもの。同男は、他の小学生にも声をかけていた。,30歳位、白色シャツ、黒色ズボン、レジ袋所持、自転車使用,松山市鷹子町の,松山市鷹子町,0,green,38.0,愛媛県,エヒメケン,EHIME KEN,38201.0,松山市,マツヤマシ,MATSUYAMA SHI,鷹子町,タカノコマチ,TAKANOKOMACHI,,33.819919,132.813414
149,四国中央署管内,つきまとい,令和4年6月30日(木) 午後8時30分ころ,四国中央市三島宮川一丁目の施設敷地内,女子高校生2名が施設敷地内を歩行中、徒歩の男からつきまとわれ、ズボンの上から下半身を触る様子を見せつけられたもの。,20歳位、中肉、身長165センチ位、緑色無地の半袖、黒色長ズボン、青色キャップ帽・黒色マスク・黒色靴着用、徒歩,四国中央市三島宮川一丁目の,四国中央市三島宮川一丁目,0,blue,38.0,愛媛県,エヒメケン,EHIME KEN,38213.0,四国中央市,シコクチュウオウシ,SHIKOKUCHUO SHI,三島宮川一丁目,ミシマミヤガワ 1,MISHIMA MIYAGAWA 1,,33.986668,133.547201
150,松山東署管内,不審者,令和4年6月29日(水) 午後6時ころ,松山市東雲町の屋外施設,女性が子供と屋外施設にいたところ、男がトイレ内や木の陰に隠れるなどの挙動不審な行動をしながら、屋外施設で遊ぶ小学生を凝視していたもの。,20~40歳位、中肉、上下明るい灰色の服、徒歩,松山市東雲町の,松山市東雲町,0,purple,38.0,愛媛県,エヒメケン,EHIME KEN,38201.0,松山市,マツヤマシ,MATSUYAMA SHI,東雲町,シノノメチョウ,SHINONOMECHO,,33.845331,132.773986
151,松山東署管内,暴行,令和4年6月29日(水) 午後4時50分ころ,松山市山越一丁目の路上,女子中学生が歩行中、自転車に乗った男から、すれ違いざまに唾をかけられたもの。,40~65歳位、白色長髪、紺色長袖ナイロン製、灰色ナイロン製長ズボン、色黒、黒色キャップ帽着用、黒色丸型リュックサック所持、軽快兼用自転車使用(銀色、前カゴ付き),松山市山越一丁目の,松山市山越一丁目,0,red,38.0,愛媛県,エヒメケン,EHIME KEN,38201.0,松山市,マツヤマシ,MATSUYAMA SHI,山越一丁目,ヤマゴエ 1,YAMAGOE 1,,33.857631,132.756226
152,松山南署管内,身体露出,令和4年6月29日(水) 午後3時30分ころ,松山市久米窪田町の路上,小学生女児2名が歩行中、対向から歩いて来た男が、下半身を露出させていたもの。,30歳位、やせ型、身長175センチ位、黒色様の髪、白色様半袖Tシャツ、長ズボン、白色マスク・白色キャップ帽着用、徒歩,松山市久米窪田町の,松山市久米窪田町,1,orange,38.0,愛媛県,エヒメケン,EHIME KEN,38201.0,松山市,マツヤマシ,MATSUYAMA SHI,久米窪田町,クメクボタマチ,KUMEKUBOTAMACHI,,33.804652,132.811203
153,西条署管内,声かけ,令和4年6月29日(水) 午前7時5分ころ,西条市朔日市の路上,小学生男児が家族と一緒に歩行中、徒歩の女から「勉強教えてあげようか?」などと声をかけられたもの。,35~40歳位、小肥、身長165cm位、黒髪ショートカット、上衣:赤色Tシャツ(大きめサイズ)、下衣:黒色長ズボン(ゆったりした感じ)、メガネ・マスクなし、徒歩,西条市朔日市の,西条市朔日市,0,green,38.0,愛媛県,エヒメケン,EHIME KEN,38206.0,西条市,サイジョウシ,SAIJO SHI,朔日市,ツイタチ,TSUITACHI,,33.928571,133.183796
154,伯方署管内,写真撮影等,令和4年6月28日(火) 午後8時40分ころ,今治市伯方町木浦甲の路上,女性が子供と車で走行中、路上に立っていた男から、ニヤニヤしながら携帯電話機を向けられたもの。,20歳位、中肉、上衣:黒色長袖、下衣:黒色長ズボン、深緑色帽子着用、携帯電話機所持、徒歩,今治市伯方町木浦甲の,今治市伯方町木浦,0,写真撮影等,38.0,愛媛県,エヒメケン,EHIME KEN,38202.0,今治市,イマバリシ,IMABARI SHI,伯方町木浦,ハカタチョウキノウラ,HAKATACHO KINORA,,34.206212,133.111833
155,松山東署管内,つきまとい,令和4年6月27日(月) 午後4時40分ころ,松山市松末一丁目の路上,小学生男児が歩行中、両手を挙げた状態の男から、走って追いかけられたもの。,40~50歳位、肥満、身長170センチ位、黒色短髪、黒色長袖、黒色長ズボン、ベージュ色トートバッグ所持、徒歩,松山市松末一丁目の,松山市松末一丁目,0,blue,38.0,愛媛県,エヒメケン,EHIME KEN,38201.0,松山市,マツヤマシ,MATSUYAMA SHI,松末一丁目,マツスエ 1,MATSUSUE 1,,33.826837,132.790334
156,松山西署管内,写真撮影等,令和4年6月27日(月) 午後3時30分ころ,松山市勝岡町の路上,小学生女児が歩行中、対向から来た男から、すれ違いざまに「こんにちは」と声をかけられた後、首から下げていたデジタルカメラを向けられたもの。,40~60歳位、小肥、身長160~170センチ位、黒色短髪、黒色様半袖Tシャツ、灰色様半ズボン、メガネあり、首から黒色デジタルカメラ(黒色ストラップ付)を下げている、白色ヘッドホン様のもの装着、徒歩,松山市勝岡町の,松山市勝岡町,0,写真撮影等,38.0,愛媛県,エヒメケン,EHIME KEN,38201.0,松山市,マツヤマシ,MATSUYAMA SHI,勝岡町,カツオカチョウ,KATSUOKACHO,,33.900906,132.722481
157,松山西署管内,不審者,令和4年6月26日(日) 午後4時ころ,松山市空港通五丁目の路上,女性が車で移動中、付近をうろついていた男から凝視されたもの。,40歳位、やせ型、肩までの長さの黒髪、上衣:黒と白色のボーダー柄、濃い色のジーンズ、透明ビニール袋所持、徒歩,松山市空港通五丁目の,松山市空港通五丁目,0,purple,38.0,愛媛県,エヒメケン,EHIME KEN,38201.0,松山市,マツヤマシ,MATSUYAMA SHI,空港通五丁目,クウコウドオリ 5,KUKODORI 5,,33.827813,132.733419
158,今治署管内,身体露出,令和4年6月25日(土) 午前10時30分ころ,今治市北鳥生町一丁目の屋外施設,男が、屋外施設でズボンを足元まで下ろしていたもの。,30歳位、中肉、黒髪、白色Tシャツ、白色半ズボン、帽子・メガネ・マスクなし、徒歩,今治市北鳥生町一丁目の,今治市北鳥生町一丁目,0,orange,38.0,愛媛県,エヒメケン,EHIME KEN,38202.0,今治市,イマバリシ,IMABARI SHI,北鳥生町一丁目,キタトリウチョウ 1,KITATORIUCHO 1,,34.056517,133.011944
159,松山東署管内,写真撮影等,令和4年6月25日(土) 午前9時35分ころ,松山市小栗四丁目の路上,小学生男児が移動中、道路沿いのアパート敷地内に立つ男から、スマートフォンを向けられ撮影されたもの。,20~30歳位、中肉、身長160センチ位、黒色半袖Tシャツ、黒色長ズボン、鼻の下にできものがある、スマートフォン(白色、三つ目のカメラレンズ)所持、黒縁メガネ着用、徒歩,松山市小栗四丁目の,松山市小栗四丁目,0,写真撮影等,38.0,愛媛県,エヒメケン,EHIME KEN,38201.0,松山市,マツヤマシ,MATSUYAMA SHI,小栗四丁目,オグリ 4,OGURI 4,,33.828988,132.761832
160,松山西署管内,声かけ,令和4年6月24日(金) 午後7時ころ,松山市山西町の路上,女子中学生が路上にいたところ、自転車に乗車の男から「おじさんのこと知っとる?」「この辺に住んどるんかなと思って。じゃあ。」と声をかけられたもの。,60歳位、小肥、身長160センチ位、白髪、上下クリーム色作業着様つなぎ、ハット帽着用、色黒、顔に深いしわ、動きが遅くゆっくり歩く、自転車使用(前後カゴ付き(いずれかが茶色のカゴ、カバー付き)),松山市山西町の,松山市山西町,0,green,38.0,愛媛県,エヒメケン,EHIME KEN,38201.0,松山市,マツヤマシ,MATSUYAMA SHI,山西町,ヤマニシチョウ,YAMANISHICHO,,33.850954,132.727614
161,松山東署管内,つきまとい,令和4年6月24日(金) 午後4時30分ころ,松山市余戸中六丁目から同市余戸東五丁目までの路上,女子高校生が歩行中、自転車に乗車の男から、歩く速度に合わせて後方をつきまとわれたもの。,70~80歳位、小肥、身長165センチ位、坊主頭、紺色半袖Tシャツ、白色マスク着用、銀色自転車利用,松山市余戸中六丁目から同市余戸東五丁目までの,松山市余戸中六丁目から同市余戸東五丁目まで,0,blue,,,,,,,,,,,,,,
162,松山南署管内,身体露出,令和4年6月23日(木) 午後6時30分ころ,伊予郡砥部町重光の屋外施設,男が、屋外施設で下半身を露出していたもの。,20歳位、やせ型、身長170センチ位、中分けの髪型、メガネあり、徒歩,伊予郡砥部町重光の,伊予郡砥部町重光,0,orange,38.0,愛媛県,エヒメケン,EHIME KEN,38402.0,伊予郡砥部町,イヨグントベチョウ,IYO GUN TOBE CHO,重光,シゲミツ,SHIGEMITSU,,33.781942,132.780621
163,松山東署管内,身体露出,令和4年6月22日(水) 午後4時30分ころ,松山市竹原三丁目の路上,小学生女児がを歩行中、すれ違った男が無言でズボンを下ろし、下半身を露出させて見せつけてきたもの。,若い、やせ型、160~165cm位、黒髪短髪、黒色ランニングTシャツ、灰色半ズボン、深緑色メガネ着用、マスクなし、徒歩,松山市竹原三丁目の,松山市竹原三丁目,0,orange,38.0,愛媛県,エヒメケン,EHIME KEN,38201.0,松山市,マツヤマシ,MATSUYAMA SHI,竹原三丁目,タケワラ 3,TAKEWARA 3,,33.831886,132.749554
164,西条署管内,声かけ,令和4年6月22日(水) 午後3時ころ,西条市朔日市の路上,小学生男女児2名がを歩行中、自転車(黒色)を押して歩く男から「〇〇小学校の子?」「最近引っ越してきたの?」「どこから引っ越してきたの?」等と声をかけられたもの。,70歳位、中肉、165cm位、白髪混じりの黒髪短髪、黒色半袖Tシャツ、黒色サングラス着用、黒色自転車使用,西条市朔日市の,西条市朔日市,1,green,38.0,愛媛県,エヒメケン,EHIME KEN,38206.0,西条市,サイジョウシ,SAIJO SHI,朔日市,ツイタチ,TSUITACHI,,33.928571,133.183796
165,松山東署管内,写真撮影等,令和4年6月22日(水) 午前10時50分ころ,松山市湊町八丁目の店舗敷地内,子供と女性数名が店舗敷地内にいたところ、近くのベンチに座っていた男からスマートフォンを向けられたもの。その際男は、スマートフォンを操作しながら、ズボンの上から下半身を触っていた。,30~40歳位、中肉、175cm位、黒髪短髪、薄ピンク色半袖シャツ、ベージュ色長ズボン、徒歩,松山市湊町八丁目の,松山市湊町八丁目,0,写真撮影等,38.0,愛媛県,エヒメケン,EHIME KEN,38201.0,松山市,マツヤマシ,MATSUYAMA SHI,湊町八丁目,ミナトマチ 8,MINATOMACHI 8,,33.835621,132.752151
166,松山東署管内,声かけ,令和4年6月20日(月) 午後5時ころ,松山市立花五丁目の路上,女性が歩行中、自転車に乗車の男から「郵便局はどこですか?」と呼び止められ、真横に来た際、肩に手を置かれ卑わいな言葉を言われたもの。,40~50歳位、小肥、身長160センチ位、黒色短髪、黒色半袖、黒色半ズボン、薄緑色リュックサック所持、アジア人風の顔貌、片言の日本語を話していた、灰色様の自転車使用,松山市立花五丁目の,松山市立花五丁目,0,green,38.0,愛媛県,エヒメケン,EHIME KEN,38201.0,松山市,マツヤマシ,MATSUYAMA SHI,立花五丁目,タチバナ 5,TACHIBANA 5,,33.827715,132.770744
167,今治署管内,不審者,令和4年6月19日(日) 午後3時ころ,今治市拝志の集合住宅敷地内,男が、アパート1階の部屋の前をうろついたり、敷地内のブロック塀を飛び越えたりしていたもの。男は、昨年末ころから数回目撃されている。,15~18歳位、やせ型、身長165センチ位、黒色短髪、白色半袖Tシャツ、黒色か紺色半ズボン、中・高生風、白色様の自転車使用,今治市拝志の集合,今治市拝志の集合,0,purple,,,,,,,,,,,,,,
168,松山東署管内,つきまとい,6月17日(金)午後3時40分ころ,松山市道後樋又の路上,男子中学生が家族と歩行中、自転車に乗った男から、歩く速度に合わせて後方をつきまとわれたもの。,40-50歳位、160-170cm位、黒髪短髪、上衣:ベージュ色綿製シャツ、下衣:綿製ズボン、マスク着用、自転車使用,松山市道後樋又の,松山市道後樋又,0,blue,38.0,愛媛県,エヒメケン,EHIME KEN,38201.0,松山市,マツヤマシ,MATSUYAMA SHI,道後樋又,ドウゴヒマタ,DOGO HIMATA,,33.852406,132.772246
169,松山東署管内,つきまとい,6月17日(金)午後10時20分ころ,松山市木屋町三丁目の路上,女子学生が路上にいたところ、自転車に乗った男から凝視されながら周辺をうろつかれ、その後、後をつきまとわれたもの。,50歳位、小肥、160cm位、短髪、上衣:白色ボーダー柄様丸首シャツ、軽快兼用自転車(白か銀色、前カゴつき)使用,松山市木屋町三丁目の,松山市木屋町三丁目,0,blue,38.0,愛媛県,エヒメケン,EHIME KEN,38201.0,松山市,マツヤマシ,MATSUYAMA SHI,木屋町三丁目,キヤチョウ 3,KIYACHO 3,,33.8528,132.760126
170,松山東署管内,ちかん,6月16日(木)午前0時20分ころ,松山市中央一丁目の路上,女子大学生が歩行中、自転車に乗った男から追い抜きざまに身体を触られたもの。,30-50歳位、中肉、170cm位、上衣:カーキー色パーカー着用、自転車(ママチャリ様、暗めの色)使用、フードを被っていた,松山市中央一丁目の,松山市中央一丁目,0,gray,38.0,愛媛県,エヒメケン,EHIME KEN,38201.0,松山市,マツヤマシ,MATSUYAMA SHI,中央一丁目,チュウオウ 1,CHUO 1,,33.853932,132.751538
171,松山東署管内,つきまとい,6月17日(金)午前0時50分ころ,松山市拓川町の路上,女性が自転車で走行中、自動車から降車した男に走って追い掛けられた後、離れた場所からチラチラ見られたもの。,40歳位、やせ型、170cm位、黒髪短髪、白色半袖Tシャツ、半ズボン、白色マスク着用、黒色ミニバン様自動車使用,松山市拓川町の,松山市拓川町,0,blue,38.0,愛媛県,エヒメケン,EHIME KEN,38201.0,松山市,マツヤマシ,MATSUYAMA SHI,拓川町,タクセンチョウ,TAKUSENCHO,,33.826255,132.765536
172,大洲署管内,凝視,6月17日(金)午後5時30分ころ,大洲市長浜から伊予市双海町までを走行中の列車内,女子高校生が友人と駅構内にいたところ、男から付近をうろつかれたり、その後乗車した大洲市長浜から伊予市双海町までを走行中の列車内で、同じ男から凝視されたりしたもの。,50-60歳位、160cm位、青色様ジャージ上下、青色キャップ帽着用,大洲市長浜から伊予市双海町までを走行中の列車内,大洲市長浜から伊予市双海町までを走行中の列車内,0,凝視,,,,,,,,,,,,,,
173,四国中央署管内,声かけ,令和4年6月16日(木) 午後3時ころ,四国中央市中之庄町の路上,小学生女児が歩行中、男から、肩を触られ「名前教えて。」等と声をかけられもの。,60歳位、小肥、身長160センチ位、白髪短髪、上衣:紫と緑色ジャージトレーナー、下衣:茶色長ズボン、徒歩,四国中央市中之庄町の,四国中央市中之庄町,0,green,38.0,愛媛県,エヒメケン,EHIME KEN,38213.0,四国中央市,シコクチュウオウシ,SHIKOKUCHUO SHI,中之庄町,ナカノショウチョウ,NAKANOSHOCHO,,33.963258,133.536488
174,四国中央署管内,声かけ,令和4年6月15日(水) 午後4時30分ころ,四国中央市中之庄町の路上,小学生女児が歩行中、突然男から「こんにちは。名前教えて。」と声をかけられ、面前まで近づいてこられたもの。,60歳位、小肥、身長160センチ位、白髪短髪、上衣:紫と緑色ジャージトレーナー、下衣:緑色ジャージズボン、徒歩,四国中央市中之庄町の,四国中央市中之庄町,1,green,38.0,愛媛県,エヒメケン,EHIME KEN,38213.0,四国中央市,シコクチュウオウシ,SHIKOKUCHUO SHI,中之庄町,ナカノショウチョウ,NAKANOSHOCHO,,33.963258,133.536488
175,松山西署管内,凝視,令和4年6月15日(水) 午後4時ころ,松山市西垣生町の路上,小学生女児が歩行中、自転車に乗車した男から凝視されたもの。男はUターンした後、再度凝視し、立ち去った。,40歳位、中肉、身長170センチ位、坊主頭、黒髪、灰色Tシャツ着用、銀色自転車(ママチャリ)使用,松山市西垣生町の,松山市西垣生町,3,凝視,38.0,愛媛県,エヒメケン,EHIME KEN,38201.0,松山市,マツヤマシ,MATSUYAMA SHI,西垣生町,ニシハブマチ,NISHIHABUMACHI,,33.813675,132.701207
176,松山東署管内,身体露出,令和4年6月13日(月) 午後6時30分ころ,松山市春日町の路上,傘を差し、路上に立っていた男が、下半身を露出していたもの。,30~40歳位、小肥、身長160~170センチ位、黒髪で肩位までの長さの天然パーマ、黒色スーツ上着、白色ワイシャツ、黒色スラックス、黒縁メガネ・黒色革靴着用、黒色手提げカバン・黒色傘所持、徒歩,松山市春日町の,松山市春日町,0,orange,38.0,愛媛県,エヒメケン,EHIME KEN,38201.0,松山市,マツヤマシ,MATSUYAMA SHI,春日町,カスガマチ,KASUGAMACHI,,33.832841,132.765111
177,今治署管内,身体露出,令和4年6月13日(月) 午後4時25分ころ,今治市大西町九王の路上,自転車に乗った男が、突然自転車を降り、人目をはばからず、歩道の真ん中で立小便をしていたもの。,40~50歳位、やせ型、身長160~165センチ位、禿げている、小豆色長袖Tシャツ、紺色ジャージズボン、色黒、自転車利用,今治市大西町九王の,今治市大西町九王,0,orange,38.0,愛媛県,エヒメケン,EHIME KEN,38202.0,今治市,イマバリシ,IMABARI SHI,大西町九王,オオニシチョウクオウ,ONISHICHO KUO,,34.084067,132.926907
178,西条署管内,のぞき・盗撮,令和4年6月11日(土) 午後8時ころ,西条市楢木の一般住宅,女性が入浴中、屋外から浴室窓に顔を近づけてきた男から声をかけられたもの。,20~30歳位、中肉、黒色短髪、つり目、徒歩,西条市楢木の,西条市楢木,0,pink,38.0,愛媛県,エヒメケン,EHIME KEN,38206.0,西条市,サイジョウシ,SAIJO SHI,楢木,ナラノキ,NARANOKI,,33.895784,133.147205
179,西条署管内,声かけ,令和4年6月10日(金) 午後6時30分ころ,西条市飯岡の路上,小学生ら男女児2名が遊んでいたところ、男から聞き取れない言葉で声をかけられたもの。その後、男は自転車に乗って立ち去った。,30~40歳位、短髪(刈り上げ)、黒色シャツ、黒色短パン、喫煙していた、自転車利用,西条市飯岡の,西条市飯岡,0,green,38.0,愛媛県,エヒメケン,EHIME KEN,38206.0,西条市,サイジョウシ,SAIJO SHI,飯岡,イイオカ,IIOKA,,33.914907,133.224739
180,西条署管内,声かけ,令和4年6月10日(金) 午後6時30分ころ,西条市飯岡の路上,小学生ら男女児2名が遊んでいたところ、男から聞き取れない言葉で声をかけられたもの。その後、男は自転車に乗って立ち去った。,30~40歳位、短髪(刈り上げ)、黒色シャツ、黒色短パン、喫煙していた、自転車利用,西条市飯岡の,西条市飯岡,0,green,38.0,愛媛県,エヒメケン,EHIME KEN,38206.0,西条市,サイジョウシ,SAIJO SHI,飯岡,イイオカ,IIOKA,地蔵原,33.908638,133.214701
181,松山南署管内,声かけ,令和4年6月10日(金) 午後3時ころ,松山市北梅本町の路上,小学生女児が歩行中、車両に乗車の男から「どっちに向いて帰る?」「どこ行ってるの?」等と声をかけられたもの。,60~70歳位、中肉、黒髪、白色の軽トラック利用,松山市北梅本町の,松山市北梅本町,0,green,38.0,愛媛県,エヒメケン,EHIME KEN,38201.0,松山市,マツヤマシ,MATSUYAMA SHI,北梅本町,キタウメモトマチ,KITAUMEMOTOMACHI,,33.824485,132.860568
182,今治署管内,声かけ,令和4年6月9日(木) 午後7時30分ころ,今治市常盤町七丁目から同市宮ヶ崎甲までの路上,女子高校生が自転車で移動中、自転車に乗車した男から「自分の写真を撮って欲しい。」と声を掛けられ、その後、つきまとわれたもの。,40~50歳位、やせ型、黒色短髪、上衣半袖、半ズボン、白色様帽子着用、黒色自転車使用(前カゴ付き),今治市常盤町七丁目から同市宮ヶ崎甲までの,今治市常盤町七丁目から同市宮ヶ崎甲まで,0,green,,,,,,,,,,,,,,
183,西条署管内,写真撮影,令和4年6月9日(木) 午後5時ころ,西条市飯岡の路上,小学生女児が歩行中、自転車に乗車の男から携帯電話機を向けられたもの。,30~40歳位、小肥、黒色短髪、白色半袖、黒色ズボン、黒色自転車利用,西条市飯岡の,西条市飯岡,1,lightred,38.0,愛媛県,エヒメケン,EHIME KEN,38206.0,西条市,サイジョウシ,SAIJO SHI,飯岡,イイオカ,IIOKA,,33.914907,133.224739
184,西条署管内,写真撮影,令和4年6月9日(木) 午後5時ころ,西条市飯岡の路上,小学生女児が歩行中、自転車に乗車の男から携帯電話機を向けられたもの。,30~40歳位、小肥、黒色短髪、白色半袖、黒色ズボン、黒色自転車利用,西条市飯岡の,西条市飯岡,1,lightred,38.0,愛媛県,エヒメケン,EHIME KEN,38206.0,西条市,サイジョウシ,SAIJO SHI,飯岡,イイオカ,IIOKA,地蔵原,33.908638,133.214701
185,松山西署管内,声かけ,令和4年6月7日(火) 午後4時35分ころ,松山市久万ノ台の路上,小学生男児が歩行中、徒歩の者(性別不明)から「ちょっと、君だれ?」「あのへんおうちなの?」等と声を掛けられた後、数百メートル追い掛けられたもの。,40~60歳位、やせ型、薄黄緑色七分袖Tシャツ、黒色長ズボン、茶色キャップ帽・水色布マスク・黒色サングラス・スニーカー着用、リュックサック・白色水筒所持、徒歩,松山市久万ノ台の,松山市久万ノ台,0,green,38.0,愛媛県,エヒメケン,EHIME KEN,38201.0,松山市,マツヤマシ,MATSUYAMA SHI,久万ノ台,クマノダイ,KUMANODAI,,33.859432,132.742567
186,松山西署管内,つきまとい,令和4年6月7日(火) 午後4時ころ,松山市南吉田町の路上,女性が子供と歩行中、自転車に乗った男から、約1キロメートルにわたりつきまとわれたもの。,20~30歳位、がっちり体型、やや大柄、黒色短髪、黄色や緑色様の派手な色の半袖Tシャツ、半ズボン、外国人風、やや色黒、濃い顔立ち、白色イヤホン・白地に赤や黄色柄スニーカー着用、自転車利用,松山市南吉田町の,松山市南吉田町,0,blue,38.0,愛媛県,エヒメケン,EHIME KEN,38201.0,松山市,マツヤマシ,MATSUYAMA SHI,南吉田町,ミナミヨシダマチ,MINAMIYOSHIDAMACHI,,33.827937,132.703969
187,松山東署管内,つきまとい,令和4年6月7日(火) 午後3時40分ころ,松山市六軒家町の店舗内,女性が店舗内で、男からつきまとわれたもの。,中肉、身長170センチ位、黒色短髪、黒色半袖Tシャツ、茶色ズボン、メガネなし、徒歩,松山市六軒家町の,松山市六軒家町,0,blue,38.0,愛媛県,エヒメケン,EHIME KEN,38201.0,松山市,マツヤマシ,MATSUYAMA SHI,六軒家町,ロッケンヤチョウ,ROKKENYACHO,,33.851253,132.752283
188,宇和島署管内,身体露出,令和4年6月1日(水)午後6時ころ,宇和島市和霊元町二丁目の路上,女性が自転車で走行中、路上に立っていた男が、車両が通るたびにズボンと下着を下ろし、下半身を露出していたもの。男は自転車に乗って立ち去った。,60歳位、小肥、身長160~170センチ位、黒色短髪、灰色様ジャージ、ジャージズボン(色不明)、白色肌着着用、自転車利用(ママチャリ様),宇和島市和霊元町二丁目の,宇和島市和霊元町二丁目,0,orange,38.0,愛媛県,エヒメケン,EHIME KEN,38203.0,宇和島市,ウワジマシ,UWAJIMA SHI,和霊元町二丁目,ワレイモトマチ 2,WAREIMOTOMACHI 2,,33.227971,132.567915
189,宇和島署管内,不審者,令和4年6月1日(水)午前7時55分ころ,宇和島市伊吹町の路上,女子高校生が自転車で走行中、路上に立っていた男が女子高校生の通行に合わせてしゃがみ込み、靴紐を結び直すような素振りを見せながら、地面に置いたスマートフォンを操作していたもの。,30歳位、中肉、短髪よりやや長めの黒髪、上下黒色様ジャージ、黒色メガネ着用、スマートフォン所持、マスクなし、徒歩,宇和島市伊吹町の,宇和島市伊吹町,0,purple,38.0,愛媛県,エヒメケン,EHIME KEN,38203.0,宇和島市,ウワジマシ,UWAJIMA SHI,伊吹町,イブキチョウ,IBUKICHO,,33.234583,132.579287
190,宇和島署管内,不審者,令和4年6月1日(水)午前7時55分ころ,宇和島市伊吹町の路上,女子高校生が自転車で走行中、路上に立っていた男が女子高校生の通行に合わせてしゃがみ込み、靴紐を結び直すような素振りを見せながら、地面に置いたスマートフォンを操作していたもの。,30歳位、中肉、短髪よりやや長めの黒髪、上下黒色様ジャージ、黒色メガネ着用、スマートフォン所持、マスクなし、徒歩,宇和島市伊吹町の,宇和島市伊吹町,0,purple,38.0,愛媛県,エヒメケン,EHIME KEN,38203.0,宇和島市,ウワジマシ,UWAJIMA SHI,伊吹町,イブキチョウ,IBUKICHO,カネツキ田,33.239498,132.569463
191,宇和島署管内,不審者,令和4年6月1日(水)午前7時55分ころ,宇和島市伊吹町の路上,女子高校生が自転車で走行中、路上に立っていた男が女子高校生の通行に合わせてしゃがみ込み、靴紐を結び直すような素振りを見せながら、地面に置いたスマートフォンを操作していたもの。,30歳位、中肉、短髪よりやや長めの黒髪、上下黒色様ジャージ、黒色メガネ着用、スマートフォン所持、マスクなし、徒歩,宇和島市伊吹町の,宇和島市伊吹町,0,purple,38.0,愛媛県,エヒメケン,EHIME KEN,38203.0,宇和島市,ウワジマシ,UWAJIMA SHI,伊吹町,イブキチョウ,IBUKICHO,上井関,33.237591,132.568252
192,宇和島署管内,不審者,令和4年6月1日(水)午前7時55分ころ,宇和島市伊吹町の路上,女子高校生が自転車で走行中、路上に立っていた男が女子高校生の通行に合わせてしゃがみ込み、靴紐を結び直すような素振りを見せながら、地面に置いたスマートフォンを操作していたもの。,30歳位、中肉、短髪よりやや長めの黒髪、上下黒色様ジャージ、黒色メガネ着用、スマートフォン所持、マスクなし、徒歩,宇和島市伊吹町の,宇和島市伊吹町,0,purple,38.0,愛媛県,エヒメケン,EHIME KEN,38203.0,宇和島市,ウワジマシ,UWAJIMA SHI,伊吹町,イブキチョウ,IBUKICHO,北宇和島町,33.237717,132.565731
193,新居浜署管内,つきまとい,令和4年5月31日(火) 午後6時20分ころ,新居浜市江口町から同市河内町までの路上,小学生男児が自転車で走行中、自転車に乗った者(性別不明)からつきまとわれたもの。,中肉、黒色長袖服、黒色長ズボン、サングラス、黒色マスク、黒色キャップ帽着用、自転車利用,新居浜市江口町から同市河内町までの,新居浜市江口町から同市河内町まで,0,blue,,,,,,,,,,,,,,
194,愛南署管内,不審者,令和4年5月31日(火)午後1時25分ころ,南宇和郡愛南町城辺甲の路上,女性が子供と一緒に飼い犬と遊んでいたところ、男が飼い犬に手を伸ばして触るとともに、子供と犬を交互に見ながら、手をズボンのポケットに入れ下半身辺りを触っていたもの。,70~80歳位、やせ型、身長170センチ位、白髪混じりの短髪、青色半袖ポロシャツ、青色長ズボン、黒色スニーカー着用、透明ビニール袋・青色肩掛けバッグ所持、徒歩,南宇和郡愛南町城辺甲の,南宇和郡愛南町城辺,0,purple,,,,,,,,,,,,,,
195,松山東署管内,声かけ,令和4年5月30日(月) 午後10時20分ころ,松山市西一万町の路上,女性が歩行中、車両に乗った男から「怪しい者ではない。」「話に付き合ってくれませんか。」「車に乗って。」等と声を掛けられたもの。,40~50歳位、普通乗用自動車利用(銀色、SUV様),松山市西一万町の,松山市西一万町,0,green,38.0,愛媛県,エヒメケン,EHIME KEN,38201.0,松山市,マツヤマシ,MATSUYAMA SHI,西一万町,ニシイチマンマチ,NISHIICHIMAMMACHI,,33.84625,132.772495
196,松山東署管内,声かけ,令和4年5月28日(土) 午後3時15分ころ,松山市桑原七丁目の路上,小学生女児が自転車で走行中、対向から来た車両乗車の男から、すれ違いざまに、運転席窓を開け聞き取れない言葉をかけられたもの。その後、男はUターンし、小学生女児と同じ方向に進行してきた。,30~40歳位、中肉、金色短髪、自動車利用(白色、セダンタイプ、車内の助手席辺りにピンク色の置物が見えた),松山市桑原七丁目の,松山市桑原七丁目,0,green,38.0,愛媛県,エヒメケン,EHIME KEN,38201.0,松山市,マツヤマシ,MATSUYAMA SHI,桑原七丁目,クワバラ 7,KUWABARA 7,,33.829267,132.792256
197,松山東署管内,声かけ,令和4年5月28日(土) 午後3時10分ころ,松山市生石町の路上,男児が、自転車に乗った男から「お父さんとお母さんはおらんの?」「一人?」等と声をかけられたもの。,50歳位、中肉、白色様の服、丸縁帽子着用、リュックサック様所持、自転車利用,松山市生石町の,松山市生石町,0,green,38.0,愛媛県,エヒメケン,EHIME KEN,38201.0,松山市,マツヤマシ,MATSUYAMA SHI,生石町,イクシマチ,IKUSHIMACHI,,33.83307,132.742317
198,松山南署管内,声かけ,令和4年5月27日(金) 午後3時30分ころ,松山市森松町の路上,女子中学生2名が歩行中、徒歩の男から「さようなら。」「家どこ?近い?」等と声をかけられ、後をつけられたもの。,40~50歳位、やせ型、身長170センチ位、黒色短髪、白色長袖ワイシャツ、黒色スラックス、革靴(黒か濃い茶色様)、白色マスク着用、左胸ポケットに手帳様のものあり、徒歩,松山市森松町の,松山市森松町,1,green,38.0,愛媛県,エヒメケン,EHIME KEN,38201.0,松山市,マツヤマシ,MATSUYAMA SHI,森松町,モリマツマチ,MORIMATSUMACHI,,33.789207,132.791713
199,松山西署管内,身体露出,令和4年5月26日(木) 午後4時ころ,松山市堀江町の路上,小学生女児が歩行中、対向から歩いてきた男が、すれ違いざまに、自身の衣服をめくり上げて下半身を見せつけたもの。,40~50歳位、やせ型、身長170センチ位、白髪混じり短髪、上衣:黄土色上着、下衣:黄土色長ズボン様(女性もののようなヒラヒラした形状)、黒縁メガネ着用、顔面にシミあり、徒歩,松山市堀江町の,松山市堀江町,0,orange,38.0,愛媛県,エヒメケン,EHIME KEN,38201.0,松山市,マツヤマシ,MATSUYAMA SHI,堀江町,ホリエチョウ,HORIECHO,,33.908885,132.759138
200,新居浜署管内,つきまとい,令和4年5月25日(水) 午後8時15分ころ,新居浜市田の上一丁目の路上,女子高校生が自転車で走行中、自転車に乗った男から、すれ違いざまに「なんで行くの?」と声を掛けられ、その後、約200メートルの間つきまとわれたもの。,白色上衣、自転車利用,新居浜市田の上一丁目の,新居浜市田の上一丁目,0,blue,38.0,愛媛県,エヒメケン,EHIME KEN,38205.0,新居浜市,ニイハマシ,NIIHAMA SHI,田の上一丁目,タノウエ 1,TANOE 1,,33.970045,133.315072
201,松山東署管内,不審者,令和4年5月25日(水) 午後7時ころ,松山市中村四丁目の建物敷地内,女性が、建物敷地内に立っている男から睨まれたもの。,50~60歳位、がっちり体型、身長170~175センチ位、白髪混じりの短髪、半袖シャツ、半ズボン、メガネ着用、ママチャリ様の自転車利用,松山市中村四丁目の建物敷地内,松山市中村四丁目の建物敷地内,0,purple,,,,,,,,,,,,,,
202,愛南署管内,不審者,令和4年5月24日(火) 午後6時10分ころ,南宇和郡愛南町城辺甲の路上,男子中学生2名が歩行中、車両の助手席に座っていた男から、フロントガラス越しにエアガン様のものを向けられたもの。,若い感じ、白色の軽四乗用自動車利用、助手席の男がエアガン様のものを所持、運転手はサングラス着用,南宇和郡愛南町城辺甲の,南宇和郡愛南町城辺,1,purple,,,,,,,,,,,,,,
203,松山西署管内,写真撮影,令和4年5月24日(火) 午後5時30分ころ,松山市小川の路上,女性が自転車で移動中、後方から近づいてきた車両に乗車の男から、携帯電話機を向けられたもの。,30歳位、やせ型、身長165~170センチ位、黒髪でセミロングのセンター分け、上下青色作業着(つなぎ)、自動車利用(茶色、トヨタヴァンガード様)、黒色手帳型カバー付き携帯電話機所持,松山市小川の,松山市小川,0,lightred,38.0,愛媛県,エヒメケン,EHIME KEN,38201.0,松山市,マツヤマシ,MATSUYAMA SHI,小川,オガワ,OGAWA,,33.919532,132.771357
204,西条署管内,声かけ,令和4年5月24日(火) 午後3時40分ころ,西条市明屋敷の路上,小学生女児が歩行中、後方から近づいてきた車両に乗車の男から、運転席の窓越しに「バイバイ。」と声を掛けられたもの。,60~70歳位、中肉、白色短髪(前髪をかき上げている)、メガネ(透明レンズ、茶色様フレーム)着用、顔に多数のホクロあり、自動車利用(銀色、前部に高齢者マークを貼付),西条市明屋敷の,西条市明屋敷,0,green,38.0,愛媛県,エヒメケン,EHIME KEN,38206.0,西条市,サイジョウシ,SAIJO SHI,明屋敷,アケヤシキ,AKEYASHIKI,,33.921259,133.178034
205,松山東署管内,声かけ,令和4年5月24日(火) 午後1時30分ころ,松山市本町六丁目の店舗内,女性が店内で買い物中、男から卑わいな言葉をかけられ、店外までつきまとわれたもの。,40~50歳位、小肥、緑と赤色チェック柄シャツ、長ズボン、マスク着用、両手にトートバッグ様のもの所持、徒歩,松山市本町六丁目の,松山市本町六丁目,0,green,38.0,愛媛県,エヒメケン,EHIME KEN,38201.0,松山市,マツヤマシ,MATSUYAMA SHI,本町六丁目,ホンマチ 6,HOMMACHI 6,,33.852826,132.758761
206,新居浜署管内,身体露出,令和4年5月22日(日) 午前6時30分ころ,新居浜市江口町の路上,女性2名が歩行中、道路の対面にいた上半身裸の男から凝視されたもの。,50~60歳位、上半身裸、徒歩,新居浜市江口町の,新居浜市江口町,0,orange,38.0,愛媛県,エヒメケン,EHIME KEN,38205.0,新居浜市,ニイハマシ,NIIHAMA SHI,江口町,エグチチョウ,EGUCHICHO,,33.956735,133.272403
207,松山東署管内,声かけ,令和4年5月20日(金) 午後3時40分ころ,松山市内を走行中の電車内,女子高校生が電車に乗車中、隣に座った男から顔を覗き込むように見られた後、「かわいいね。」等と声を掛けられたもの。,50歳位、中肉、身長160センチ位、黒色短髪、灰色長袖、ジーンズ、徒歩、黒色リュックサック所持,松山市内を走行中の電車内,松山市内を走行中の電車内,0,green,,,,,,,,,,,,,,
208,西条署管内,つきまとい,令和4年5月19日(木) 午後7時10分ころ,西条市神拝乙から同市朔日市までの路上,小学生女児が歩行中、男から「名前は何?」と声を掛けられ、無視すると、後方をつきまとわれた後、「小学校はどこ?」等と再度声を掛けられたもの。,30歳位、やせ型、身長150センチ位、黒色短髪、黒色長袖、黒色長ズボン、徒歩、白色マスク着用、携帯電話機所持,西条市神拝乙から同市朔日市までの,西条市神拝乙から同市朔日市まで,0,blue,,,,,,,,,,,,,,
209,松山東署管内,不審者,令和4年5月19日(木) 午後3時20分ころ,松山市湊町五丁目の路上,女子高校生2名が店舗内で飲食中、店舗外の路上にいた男から、店舗ガラス窓越しに凝視されたもの。,30~50歳位、小肥、身長160センチ位、禿げている、白色Tシャツ着用、徒歩、白色マスク、黒色キャップ帽着用、黒色肩掛け鞄所持,松山市湊町五丁目の,松山市湊町五丁目,0,purple,38.0,愛媛県,エヒメケン,EHIME KEN,38201.0,松山市,マツヤマシ,MATSUYAMA SHI,湊町五丁目,ミナトマチ 5,MINATOMACHI 5,,33.835933,132.762679
210,松山東署管内,不審者,令和4年5月18日(水) 午後3時45分ころ,松山市堀之内の路上,男が、公衆トイレ外側の柵沿いに立ち、女子トイレを見ながら下半身を触っていたもの。,20~40歳位、中肉、黒色様の頭髪、徒歩,松山市堀之内の,松山市堀之内,0,purple,38.0,愛媛県,エヒメケン,EHIME KEN,38201.0,松山市,マツヤマシ,MATSUYAMA SHI,堀之内,ホリノウチ,HORINOCHI,,33.842173,132.761254
211,松山西署管内,つきまとい,令和4年5月18日(水) 午前7時20分ころ,松山市安城寺町の路上,小学生男児2名が歩行中、男から、後方を歩く速度に合わせてつきまとわれたもの。5月16日、17日にもつきまとわれている。,15~20歳位、茶色パーカー、自転車と徒歩の時がある,松山市安城寺町の,松山市安城寺町,0,blue,38.0,愛媛県,エヒメケン,EHIME KEN,38201.0,松山市,マツヤマシ,MATSUYAMA SHI,安城寺町,アンジョウジマチ,ANJOJIMACHI,,33.879403,132.740016
212,松山東署管内,不審者,令和4年5月17日(火) 午後5時10分ころ,松山市衣山五丁目の路上,女子専門学生が自転車を押して歩いていたところ、すれ違ったバイクに乗車の男が、Uターンして停車した後、周囲を見渡す不審な動きをしていたもの。,40~50歳位、小肥、身長165センチ位、白色長袖シャツ(作業着様)、メガネ着用、黒と銀色のスクーター利用,松山市衣山五丁目の,松山市衣山五丁目,0,purple,38.0,愛媛県,エヒメケン,EHIME KEN,38201.0,松山市,マツヤマシ,MATSUYAMA SHI,衣山五丁目,キヌヤマ 5,KINUYAMA 5,,33.847948,132.737536
213,今治署管内,つきまとい,令和4年5月17日(火) 午後3時10分ころ,今治市立花一丁目の路上,小学生女児が歩行中、男から同じ速度で後をつきまとわれたもの。,50~60歳位、中肉、黒色マスク、帽子(「M」のロゴ入り)着用、徒歩,今治市立花一丁目の,今治市立花一丁目,0,blue,,,,,,,,,,,,,,
214,西条署管内,声かけ,令和4年5月17日(火) 午後2時50分ころ,西条市明屋敷の路上,小学生男児が歩行中、路上に立っていた男から「こっちに来なさい。」と声を掛けられたもの。,40~60歳位、中肉、身長が低め、茶色混じりの黒色短髪、ベージュ色長袖シャツ、青色様長ズボン、白色マスク、暗色のニット帽、黄色サンダル着用、徒歩,西条市明屋敷の,西条市明屋敷,1,green,38.0,愛媛県,エヒメケン,EHIME KEN,38206.0,西条市,サイジョウシ,SAIJO SHI,明屋敷,アケヤシキ,AKEYASHIKI,,33.921259,133.178034
215,今治署管内,写真撮影,令和4年5月17日(火) 午前7時50分ころ,今治市国分二丁目の路上,女子高校生が路上にいたところ、徒歩で近づいてきた男から「写真を撮ってもいいかな。」と声を掛けられ、断るも、正面からスマートフォンで写真を撮られたもの。,60~70歳位、黄色トレーナー、黒色様ズボン、メガネ・帽子着用、スマートフォン所持、徒歩,今治市国分二丁目の,今治市国分二丁目,0,lightred,38.0,愛媛県,エヒメケン,EHIME KEN,38202.0,今治市,イマバリシ,IMABARI SHI,国分二丁目,コクブ 2,KOKUBU 2,,34.031597,133.019575
216,西条西署管内,つきまとい,令和4年5月17日(火) 午前7時35分ころ,西条市高田から同市国安までの路上,女子中学生が自転車で移動中、自転車に乗った男から、約1キロメートルの間追いかけられ、信号で停車した際、「おはようございます。」などと声を掛けられたもの。,30歳位、中肉、身長170センチ位、黒色短髪、上下黒色様ジャージ、色白、メガネ(大きめのレンズ、細いフレーム)着用、黒色様の自転車(ママチャリ風)利用,西条市高田から同市国安までの,西条市高田から同市国安まで,0,blue,,,,,,,,,,,,,,
217,松山東署管内,つきまとい,令和4年5月16日(月) 午後3時30分ころ,松山市山越五丁目の路上,男子中学生が自転車で移動中、対向から近づいてきた自転車に乗車の男から、すれ違い後、反転してつきまとわれたもの。,30歳位、小肥、黒色短髪、こげ茶色シャツ、紺色ジーンズ、黒色様メガネ着用、自転車利用(黒色、ママチャリ様),松山市山越五丁目の,松山市山越五丁目,0,blue,38.0,愛媛県,エヒメケン,EHIME KEN,38201.0,松山市,マツヤマシ,MATSUYAMA SHI,山越五丁目,ヤマゴエ 5,YAMAGOE 5,,33.860839,132.751777
218,松山東署管内,声かけ,令和4年5月16日(月) 午前6時53分ころ,松山市松末一丁目の路上,女性がバスを待っていたところ、通りがかった車に乗車の男から「今度食事に行こう。」等と声を掛けられたもの。,40~50歳位、中肉、耳にかかる位の長さの黒髪、白色様長袖、白色様長ズボン、浅黒い顔、パッチリした目、白色軽四乗用自動車使用(左後部バンパーの塗装が剥げてピンク色になっている),松山市松末一丁目の,松山市松末一丁目,1,green,38.0,愛媛県,エヒメケン,EHIME KEN,38201.0,松山市,マツヤマシ,MATSUYAMA SHI,松末一丁目,マツスエ 1,MATSUSUE 1,,33.826837,132.790334
219,今治署管内,身体露出,令和4年5月13日(金) 午前8時40分ころ,今治市別宮町五丁目の駐車場,男が、駐車場に駐車した車の車両内で下半身を露出していたもの。,60~70歳位、中肉、下半身裸、ベージュ色の軽四自動車利用,今治市別宮町五丁目の,今治市別宮町五丁目,0,orange,38.0,愛媛県,エヒメケン,EHIME KEN,38202.0,今治市,イマバリシ,IMABARI SHI,別宮町五丁目,ベックチョウ 5,BEKKUCHO 5,,34.071528,132.99197
220,大洲署管内,つきまとい,令和4年5月10日(火) 午後4時20分ころ,喜多郡内子町本川の路上,小学生女児が歩行中、男から「おうちどこ。」などと声を掛けられ、つきまとわれたもの。,60歳位、中肉、身長160センチ位、短髪、ピンク色長袖襟付きシャツ、灰色ズボン、灰色無地の野球帽、白色マスク着用、徒歩,喜多郡内子町本川の,喜多郡内子町本川,0,blue,38.0,愛媛県,エヒメケン,EHIME KEN,38422.0,喜多郡内子町,キタグンウチコチョウ,KITA GUN UCHIKO CHO,本川,ホンガワ,HONGAWA,,33.565268,132.820646
221,大洲署管内,不審者,令和4年5月10日(火) 午後4時ころ,大洲市東大洲の路上,金属様の物とライターを手に持った男が、路上に座り込んでいたもの。,50~60歳位、中肉、白髪混じりの短髪、赤かピンク色のチェック柄長袖シャツ、ベージュか茶色の長ズボン、取っ手が青色の金属様の物とライター所持、徒歩,大洲市東大洲の,大洲市東大洲,1,purple,38.0,愛媛県,エヒメケン,EHIME KEN,38207.0,大洲市,オオズシ,OZU SHI,東大洲,ヒガシオオズ,HIGASHIOZU,,33.527646,132.571139
222,松山西署管内,つきまとい,令和4年5月10日(火) 午後3時ころ,松山市南斎院町から同市南江戸六丁目までの路上,小学生男児が歩行中、男からつきまとわれた後、「おーい。」と叫ばれて手招きされたもの。,やせ型、カーキ色上着、黒色ズボン、黒色帽子、サングラス着用、徒歩,松山市南斎院町から同市南江戸六丁目までの,松山市南斎院町から同市南江戸六丁目まで,0,blue,,,,,,,,,,,,,,
223,大洲署管内,身体露出,令和4年5月10日(火) 午後3時ころ,大洲市若宮の河川敷,河川敷に立っていた男が、手を下半身の位置で動かしていたもの。,70~80歳位、白色の軽四乗用自動車利用,大洲市若宮の,大洲市若宮,1,orange,38.0,愛媛県,エヒメケン,EHIME KEN,38207.0,大洲市,オオズシ,OZU SHI,若宮,ワカミヤ,WAKAMIYA,,33.521514,132.549221
224,松山東署管内,身体露出,令和4年5月10日(火) 午前11時05分ころ,松山市中村三丁目の路上,下半身裸の男が、路上を歩いていたもの。,がっちり体型、黒色短髪、黄色ウィンドブレーカー、下半身裸、徒歩,松山市中村三丁目の,松山市中村三丁目,0,orange,38.0,愛媛県,エヒメケン,EHIME KEN,38201.0,松山市,マツヤマシ,MATSUYAMA SHI,中村三丁目,ナカムラ 3,NAKAMURA 3,,33.830733,132.777186
225,松山西署管内,声かけ,令和4年5月9日(月) 午前7時15分ころ,松山市北斎院町の路上,女子中学生が歩行中、路上に立っていた男から「おはようございます。」と大声で挨拶されたため、それに返答したところ、さらに名前を大声で言われたもの。,40~50歳位、小肥、身長165~170センチ位、黒色短髪、黒縁メガネ着用、マスクなし、徒歩,松山市北斎院町の,松山市北斎院町,1,green,38.0,愛媛県,エヒメケン,EHIME KEN,38201.0,松山市,マツヤマシ,MATSUYAMA SHI,北斎院町,キタサヤチョウ,KITASAYACHO,,33.839402,132.723636
226,西条署管内,身体露出,令和4年5月8日(日) 午後6時ころ,西条市下島山甲の雑木林,女性が家屋敷地内で作業中、敷地境界の雑木林に座り込んでいた男と目が合い、しばらくして再度男の方を見ると、男が下半身を露出していたもの。,20~30歳位、中肉、身長175センチ位、黒色短髪、上衣:不明、下衣:ボクサーパンツ用の下着、徒歩,西条市下島山甲の雑木林,西条市下島山甲の雑木林,0,orange,,,,,,,,,,,,,,
227,松山西署管内,不審者,令和4年5月7日(土) 午後1時ころ,松山市西長戸町の路上,小学生男女児2名が自動販売機でジュースを買っていたところ、後方に止まった車に乗車の行為者から無言でペットボトルを投げつけられたもの。,茶色様軽四自動車を利用,松山市西長戸町の,松山市西長戸町,0,purple,38.0,愛媛県,エヒメケン,EHIME KEN,38201.0,松山市,マツヤマシ,MATSUYAMA SHI,西長戸町,ニシナガトチョウ,NISHINAGATOCHO,,33.867813,132.741949
228,松山東署管内,つきまとい,令和4年5月6日(金) 午後10時05分ころ,松山市桑原五丁目の路上,男子中学生が歩行中、徒歩の男から、すれ違った後、反転してつきまとわれたもの。,35~50歳位、中肉、身長170センチ位、黒色短髪(坊主がやや伸びた程度)、黒色半袖Tシャツ、眼鏡(黒色フレーム)、白色ナイロン袋所持,松山市桑原五丁目の,松山市桑原五丁目,0,blue,38.0,愛媛県,エヒメケン,EHIME KEN,38201.0,松山市,マツヤマシ,MATSUYAMA SHI,桑原五丁目,クワバラ 5,KUWABARA 5,,33.831876,132.791468
229,松山東署管内,つきまとい,令和4年5月6日(金) 午後5時20分ころ,松山市平和通一丁目から同市道後一万までの路上,男子中学生が歩行中、大声を上げながら自転車に乗車した男から、すれ違った後、反転して数十秒程追いかけられたもの。,30~80歳位、やせ型、黒髪、黒色か灰色シャツ、長ズボン、黒色様自転車利用,松山市平和通一丁目から同市道後一万までの,松山市平和通一丁目から同市道後一万まで,0,blue,,,,,,,,,,,,,,
230,松山東署管内,つきまとい,令和4年5月2日(月) 午後1時30分ころ,松山市喜与町二丁目から同市西一万までの路上,女性が歩行中、徒歩の男から「すみません。ちょっといいですか。」と声を掛けられ、無視すると、男が停まっていた車に乗り込み、女性の後方を低速でつきまとった上、横に並んで車内から執拗に声を掛けてきたもの。,20~30歳位、やせ型、身長170センチ位、色黒の肌、外国人風(日本語はスムーズに話す)、帽子・眼鏡・マスクなし、ミニバンタイプ銀色自動車利用,松山市喜与町二丁目から同市西一万までの,松山市喜与町二丁目から同市西一万まで,0,blue,,,,,,,,,,,,,,
231,新居浜管内,不審者,令和4年5月1日(日) 午後4時30分ころ,新居浜市一宮町二丁目の建物敷地内,自転車に乗った男が、敷地内に駐輪している自転車を一台ずつ確認して、所持していたスマートフォンに何かを打ち込んでいたもの。,高校生風男、自転車利用、スマートフォン所持,新居浜市一宮町二丁目の建物敷地内,新居浜市一宮町二丁目の建物敷地内,0,purple,,,,,,,,,,,,,,
232,新居浜署管内,不審者,令和4年4月28日(木) 午前2時30分ころ,新居浜市松神子二丁目の一般住宅,女性が在宅中、女から自宅のインターホンを何度も鳴らされたもの。女性の家族が女に声を掛けようとしたところ、同女は駐車していた車両の後部座席に乗り込み立ち去った。,高齢でも若くもない印象の女性、白色か銀色の軽四自動車利用、マスク着用、白色紙袋所持,新居浜市松神子二丁目の,新居浜市松神子二丁目,0,purple,38.0,愛媛県,エヒメケン,EHIME KEN,38205.0,新居浜市,ニイハマシ,NIIHAMA SHI,松神子二丁目,マツミコ 2,MATSUMIKO 2,,33.974087,133.324035
233,松山東署管内,つきまとい,令和4年5月1日(日) 午前1時55分ころ,松山市枝松六丁目の路上,女性が歩行中、前方から歩いてきた男からすれ違い後、Uターンしてつけられたもの。,40~50歳位男、中肉、紺色パーカー、灰色スウェット着用、ナイロン袋所持、徒歩,松山市枝松六丁目の,松山市枝松六丁目,0,blue,38.0,愛媛県,エヒメケン,EHIME KEN,38201.0,松山市,マツヤマシ,MATSUYAMA SHI,枝松六丁目,エダマツ 6,EDAMATSU 6,,33.825415,132.784859
234,松山南署管内,声かけ,令和4年4月27日(水) 午前7時35分ころ,松山市市坪南三丁目の路上,女子高校生が自転車で移動中、交差点で一時停止した際、見知らぬ男から、いきなり「好きです。」などと声を掛けられたもの。,40歳位男、やせ形、身長175センチ位、短髪、上衣:黒色長袖、下衣:灰色ズボン、白色マスク着用、メガネなし、徒歩,松山市市坪南三丁目の,松山市市坪南三丁目,0,green,38.0,愛媛県,エヒメケン,EHIME KEN,38201.0,松山市,マツヤマシ,MATSUYAMA SHI,市坪南三丁目,イチツボミナミ 3,ICHITSUBOMINAMI 3,,33.805752,132.75205
235,今治管内,つきまとい,令和4年4月27日(水) 午後3時ころ,今治市立花町四丁目から三丁目の歩道上,小学生女児が歩行中、男から一定の距離を保ったまま、約250メートルの距離をつきまとわれたもの。途中で小学生女児が走って逃げたところ、男も走って追いかけてきた。,30~40歳位男、やせ型、身長160~170センチ位、頭髪黒色、黒色パーカー、茶色ズボン着用、黒色サングラス着用、青色ショルダーバッグ所持、徒歩,今治市立花町四丁目から三丁目の歩道上,今治市立花町四丁目から三丁目の歩道上,0,blue,,,,,,,,,,,,,,
236,松山南署管内,声かけ,令和4年4月27日(水) 午後3時20分ころ,東温市牛渕の路上,小学生女児2名が立ち話をしていたところ、自転車に乗った男から「これでジュースでも買え」などと声を掛けられ、お金を渡されそうになったもの。,50~70歳位男、小肥、白色ワイシャツ、紫色細身ズボン着用、黒色キャップ帽着用、メガネ・マスクなし、赤色自転車使用,東温市牛渕の,東温市牛渕,0,green,38.0,愛媛県,エヒメケン,EHIME KEN,38215.0,東温市,トウオンシ,TOON SHI,牛渕,ウシブチ,USHIBUCHI,,33.790706,132.848621
237,西条署管内,身体接触,令和4年4月26日(火) 午後3時30分ころ,西条市栄町の路上,小学生男女児3名が遊んでいたところ、近づいてきた2人組の男のうち1人から肩を揉まれたり、手を掴まれたりされたもの。,30歳位、小肥、身長160センチ位、坊主が少し伸びたくらいの長さの黒髪、白色ジャンパー、イヤホン着用、徒歩(2人組),西条市栄町の,西条市栄町,0,身体接触,38.0,愛媛県,エヒメケン,EHIME KEN,38206.0,西条市,サイジョウシ,SAIJO SHI,栄町,サカエマチ,SAKAEMACHI,,33.918891,133.183535
238,新居浜署管内,暴行,令和4年4月24日(日)午後4時30分ころ,新居浜市北新町の施設内,女子中学生が施設内にいたところ、男から「ちょっといい?」などと声を掛けられ、頭を撫でられたり、背後から腰の辺りを持たれ、身体を持ち上げられたもの。,40~50歳位、やせ型、身長170センチ位、黒髪のマッシュルームカットで周囲を刈り上げている、灰色上着、白色シャツ、ジーンズ、黒縁メガネ着用、徒歩,新居浜市北新町の,新居浜市北新町,0,red,38.0,愛媛県,エヒメケン,EHIME KEN,38205.0,新居浜市,ニイハマシ,NIIHAMA SHI,北新町,キタシンマチ,KITASHIMMACHI,,33.959605,133.271384
239,新居浜署管内,つきまとい,令和4年4月24日(日)午前11時30分ころ,新居浜市土橋二丁目から同市中村一丁目までの路上,女子中学生2名が歩行中、後方をつきまとうように歩いていた男に追い抜かれた後、振り返ってニヤニヤと凝視されたもの。男は、もと来た道を引き返し、立ち去った。,30~40歳位、中肉、身長170センチ位、黒色短髪、白黒のボーダー柄長袖シャツ、灰色ズボン、白色様靴着用、マスク・メガネなし、徒歩,新居浜市土橋二丁目から同市中村一丁目までの,新居浜市土橋二丁目から同市中村一丁目まで,0,blue,,,,,,,,,,,,,,
240,松山東署管内,声かけ,令和4年4月23日(土)午前0時ころ,松山市本町一丁目の路上,女性が歩行中、車に乗った2人組の男から「お姉さん1人?」などと声を掛けられ、無視すると、交差点をUターンするなどして再度追いかけてきて、執拗に声を掛けられたもの。,20~40歳位、バンタイプの黒色自動車利用,松山市本町一丁目の,松山市本町一丁目,0,green,38.0,愛媛県,エヒメケン,EHIME KEN,38201.0,松山市,マツヤマシ,MATSUYAMA SHI,本町一丁目,ホンマチ 1,HOMMACHI 1,,33.841662,132.75844
241,松山東署管内,つきまとい,令和4年4月22日(金) 午後3時50分ころ,松山市石手四丁目の路上,小学生男児が徒歩で帰宅中、すれ違った男から、両手を前に出した格好で歩いてつきまとわれたもの。,50~70歳位、やせ型、身長180センチ位、白色短髪、黒色上衣、黒色ズボン、深緑色キャップ帽・長めのシルバーネックレス着用、徒歩,松山市石手四丁目の,松山市石手四丁目,0,blue,38.0,愛媛県,エヒメケン,EHIME KEN,38201.0,松山市,マツヤマシ,MATSUYAMA SHI,石手四丁目,イシテ 4,ISHITE 4,,33.844043,132.792009
242,松山東署管内,声かけ,令和4年4月22日(金) 午後3時50分ころ,松山市畑寺二丁目の路上,男児が親族と一緒にバスを待っていたところ、女から「そんなことしよったらお父さんが」等と声を掛けられ、抱っこをするように両手を差し出されたもの。,50~70歳位女性、小肥、身長160センチ位、ボブ風茶色ショートカット、えんじ色半袖Tシャツ、黒色スウェット様長ズボン、帽子・メガネ・マスクなし、徒歩,松山市畑寺二丁目の,松山市畑寺二丁目,0,green,38.0,愛媛県,エヒメケン,EHIME KEN,38201.0,松山市,マツヤマシ,MATSUYAMA SHI,畑寺二丁目,ハタデラ 2,HATADERA 2,,33.83093,132.799445
243,西条署管内,不審者,令和4年4月22日(金)午後3時50分ころ,西条市大町の路上,男が、数メートル進んでは数秒立ち止まるという行為を何度も繰り返しながら路上を歩いていたもの。,20歳位、中肉、身長170センチ位、坊主が少し伸びた黒髪、上下黒色ジャージ(ズボンに白色ライン入り)、白色マスク着用、徒歩,西条市大町の,西条市大町,0,purple,38.0,愛媛県,エヒメケン,EHIME KEN,38206.0,西条市,サイジョウシ,SAIJO SHI,大町,オオマチ,OMACHI,,33.911624,133.189252
244,西条署管内,不審者,令和4年4月22日(金)午後3時50分ころ,西条市大町の路上,男が、数メートル進んでは数秒立ち止まるという行為を何度も繰り返しながら路上を歩いていたもの。,20歳位、中肉、身長170センチ位、坊主が少し伸びた黒髪、上下黒色ジャージ(ズボンに白色ライン入り)、白色マスク着用、徒歩,西条市大町の,西条市大町,0,purple,38.0,愛媛県,エヒメケン,EHIME KEN,38206.0,西条市,サイジョウシ,SAIJO SHI,大町,オオマチ,OMACHI,福森,33.912953,133.188923
245,松山南署管内,つきまとい,令和4年4月22日(金)午前9時45分ころ,松山市福音寺町の路上,女性が子供を連れて歩行中、車に乗った何者かに何度も付近を走行されたもの。,白色自動車利用,松山市福音寺町の,松山市福音寺町,1,blue,38.0,愛媛県,エヒメケン,EHIME KEN,38201.0,松山市,マツヤマシ,MATSUYAMA SHI,福音寺町,フクオンジマチ,FUKUONJIMACHI,,33.821822,132.790842
246,今治署管内,不審者,令和4年4月22日(金)午前7時ころ,今治市喜田村一丁目の路上,車に乗った男が、歩行中の児童を車内から凝視していたもの。,中年、白色の軽四自動車利用,今治市喜田村一丁目の,今治市喜田村一丁目,0,purple,38.0,愛媛県,エヒメケン,EHIME KEN,38202.0,今治市,イマバリシ,IMABARI SHI,喜田村一丁目,キタムラ 1,KITAMURA 1,,34.045455,133.018533
247,西条署管内,身体露出,令和4年4月21日(木) 午後4時ころ,西条市下島山の路上,小学生女児が歩行中、後方から徒歩で近づいてきた男が前方に立ちはだかり、ズボンのチャック部から露出させていた下半身を見せつけてきたもの。,20~30歳位、中肉、身長160~170センチ位、黒色短髪、黒色長袖上衣、黒色長ズボン、メガネ・マスク・髭なし、徒歩,西条市下島山の,西条市下島山,0,orange,,,,,,,,,,,,,,
248,西条署管内,身体露出,令和4年4月21日(木) 午後4時25分ころ,西条市下島山の路上,男が、ズボンから下半身を露出させ、路上を歩いていたもの。,上下黒色の服、徒歩,西条市下島山の,西条市下島山,1,orange,,,,,,,,,,,,,,
249,松山西署管内,声かけ,令和4年4月20日(水) 午後5時20分ころ,松山市吉野町の路上,女子中学生が自転車で移動中、徒歩の男に自転車の荷台部分を掴まれ、意味不明な言葉を掛けられたもの。,60歳以上、やせ型、身長160~170センチ位、白色短髪、緑色トレーナー、灰色ジャージ、徒歩,松山市吉野町の,松山市吉野町,0,green,38.0,愛媛県,エヒメケン,EHIME KEN,38201.0,松山市,マツヤマシ,MATSUYAMA SHI,吉野町,ヨシノチョウ,YOSHINOCHO,,33.862179,132.733365
250,四国中央署管内,写真撮影,令和4年4月20日(水) 午前7時40分ころ,四国中央市川之江町の路上,女子中学生2名が歩行中、徒歩の男から携帯電話を向けられたもの。男は、女子中学生らの他にも通行人や車を携帯電話で写真撮影している様子であった。,50歳位、やせ型、黒色短髪、紫色上着、黒又は灰色ズボン、クリーム色キャップ帽、徒歩,四国中央市川之江町の,四国中央市川之江町,1,lightred,38.0,愛媛県,エヒメケン,EHIME KEN,38213.0,四国中央市,シコクチュウオウシ,SHIKOKUCHUO SHI,川之江町,カワノエチョウ,KAWANOECHO,,34.014304,133.579682
251,四国中央署管内,写真撮影,令和4年4月20日(水) 午前7時40分ころ,四国中央市川之江町の路上,女子中学生2名が歩行中、徒歩の男から携帯電話を向けられたもの。男は、女子中学生らの他にも通行人や車を携帯電話で写真撮影している様子であった。,50歳位、やせ型、黒色短髪、紫色上着、黒又は灰色ズボン、クリーム色キャップ帽、徒歩,四国中央市川之江町の,四国中央市川之江町,1,lightred,38.0,愛媛県,エヒメケン,EHIME KEN,38213.0,四国中央市,シコクチュウオウシ,SHIKOKUCHUO SHI,川之江町,カワノエチョウ,KAWANOECHO,塚田,34.000158,133.566627
252,四国中央署管内,写真撮影,令和4年4月20日(水) 午前7時40分ころ,四国中央市川之江町の路上,女子中学生2名が歩行中、徒歩の男から携帯電話を向けられたもの。男は、女子中学生らの他にも通行人や車を携帯電話で写真撮影している様子であった。,50歳位、やせ型、黒色短髪、紫色上着、黒又は灰色ズボン、クリーム色キャップ帽、徒歩,四国中央市川之江町の,四国中央市川之江町,1,lightred,38.0,愛媛県,エヒメケン,EHIME KEN,38213.0,四国中央市,シコクチュウオウシ,SHIKOKUCHUO SHI,川之江町,カワノエチョウ,KAWANOECHO,横田,34.003925,133.565172
253,松山南署管内,身体接触,令和4年4月19日(火) 午後8時30分ころ,松山市市坪北二丁目の路上,男子高校生が友人と自転車で移動中、対面にいた車に乗車中の男に車の窓から出してきた手で右肩を掴まれ、「コラッ。」と言われ、5分位後をつけられたもの。,30~40歳位、中肉、身長170センチ位、白髪混じりの短髪、黒色上衣、白色の普通乗用自動車利用,松山市市坪北二丁目の,松山市市坪北二丁目,0,身体接触,38.0,愛媛県,エヒメケン,EHIME KEN,38201.0,松山市,マツヤマシ,MATSUYAMA SHI,市坪北二丁目,イチツボキタ 2,ICHITSUBOKITA 2,,33.812759,132.750904
254,新居浜署管内,身体露出,令和4年4月19日(火) 午後7時30分ころ,新居浜市庄内町六丁目の河川敷,全裸の男が、河川敷を歩いていたもの。しばらくすると、男は、付近にいた女子高校生に何かを叫びながら走り出した。,30~60歳位、中肉、身長160~170センチ位、短髪、全裸、裸足、メガネなし、徒歩,新居浜市庄内町六丁目の,新居浜市庄内町六丁目,0,orange,38.0,愛媛県,エヒメケン,EHIME KEN,38205.0,新居浜市,ニイハマシ,NIIHAMA SHI,庄内町六丁目,ショウナイチョウ 6,SHONAICHO 6,,33.953675,133.298273
255,四国中央署管内,声かけ,令和4年4月19日(火) 午後4時05分ころ,四国中央市内を走行中の列車内,女子高校生が列車で移動中、前方にいた男から「覚えている?」等と声を掛けられ、無視すると、男が所持していたペットボトルで女子高校生のバッグをつつかれ、「ライン教えて。」と言われたもの。,高校生位、小肥、身長165センチ位、黒色短髪、水色半袖Tシャツ、紺色ジャージ(ライン入り)、ペットボトル・リュックサック所持、徒歩,四国中央市内を走行中の列車内,四国中央市内を走行中の列車内,0,green,,,,,,,,,,,,,,
256,今治署管内,つきまとい,令和4年4月18日(月) 午後8時ころ,今治市大西町新町の路上,女子高校生が自転車で移動中、自転車に乗った男から、すれ違い後、Uターンしてつきまとわれたもの。3月30日午前9時ころにも、同男につきまとわれている。,50歳位、中肉、身長165センチ位、黒色頭髪(頭頂部禿げ)、上衣:半袖、下衣:長ズボン、黒色自転車使用、ヘルメット・眼鏡・マスクなし、色黒,今治市大西町新町の,今治市大西町新町,0,blue,38.0,愛媛県,エヒメケン,EHIME KEN,38202.0,今治市,イマバリシ,IMABARI SHI,大西町新町,オオニシチョウシンマチ,ONISHICHO SHIMMACHI,,34.065189,132.93073
257,松山東署管内,のぞき・盗撮,令和4年4月18日(月) 午後6時35分ころ,松山市土橋町の路上,女子高校生が自転車で移動中、背後から自転車で接近、並走してきた男にスカート内を覗き込まれたもの。,30~40歳位、中肉、黒色短髪、赤色トレーナー、黒色ズボン着用、自転車(黒色、前カゴあり)使用,松山市土橋町の,松山市土橋町,0,pink,38.0,愛媛県,エヒメケン,EHIME KEN,38201.0,松山市,マツヤマシ,MATSUYAMA SHI,土橋町,ドバシマチ,DOBASHIMACHI,,33.833055,132.756549
258,四国中央署管内,声かけ,令和4年4月18日(月) 午後2時ころ,四国中央市妻鳥町の店舗内,女子高校生が店舗内にいたところ、近づいてきた男から「小さい女の子の妹おるよね。」「お姉ちゃんも歩きよるのを見たことがある。」などと執拗に声を掛けられたもの。,35歳位、中肉、身長170センチ位、坊主頭、(上衣)黒色長袖無地のTシャツ、(下衣)黒色ジャージ着用、黒色ビニール傘、黒色ナップサック所持、徒歩,四国中央市妻鳥町の,四国中央市妻鳥町,0,green,38.0,愛媛県,エヒメケン,EHIME KEN,38213.0,四国中央市,シコクチュウオウシ,SHIKOKUCHUO SHI,妻鳥町,メンドリチョウ,MENDORICHO,,33.991779,133.572307
259,四国中央署管内,声かけ,令和4年4月18日(月) 午後2時ころ,四国中央市妻鳥町の店舗内,女子高校生が店舗内にいたところ、近づいてきた男から「小さい女の子の妹おるよね。」「お姉ちゃんも歩きよるのを見たことがある。」などと執拗に声を掛けられたもの。,35歳位、中肉、身長170センチ位、坊主頭、(上衣)黒色長袖無地のTシャツ、(下衣)黒色ジャージ着用、黒色ビニール傘、黒色ナップサック所持、徒歩,四国中央市妻鳥町の,四国中央市妻鳥町,0,green,38.0,愛媛県,エヒメケン,EHIME KEN,38213.0,四国中央市,シコクチュウオウシ,SHIKOKUCHUO SHI,妻鳥町,メンドリチョウ,MENDORICHO,上樋之上,33.986515,133.573439
260,四国中央署管内,声かけ,令和4年4月18日(月) 午後2時ころ,四国中央市妻鳥町の店舗内,女子高校生が店舗内にいたところ、近づいてきた男から「小さい女の子の妹おるよね。」「お姉ちゃんも歩きよるのを見たことがある。」などと執拗に声を掛けられたもの。,35歳位、中肉、身長170センチ位、坊主頭、(上衣)黒色長袖無地のTシャツ、(下衣)黒色ジャージ着用、黒色ビニール傘、黒色ナップサック所持、徒歩,四国中央市妻鳥町の,四国中央市妻鳥町,0,green,38.0,愛媛県,エヒメケン,EHIME KEN,38213.0,四国中央市,シコクチュウオウシ,SHIKOKUCHUO SHI,妻鳥町,メンドリチョウ,MENDORICHO,樋ノ上,33.987248,133.571502
261,四国中央署管内,声かけ,令和4年4月18日(月) 午後2時ころ,四国中央市妻鳥町の店舗内,女子高校生が店舗内にいたところ、近づいてきた男から「小さい女の子の妹おるよね。」「お姉ちゃんも歩きよるのを見たことがある。」などと執拗に声を掛けられたもの。,35歳位、中肉、身長170センチ位、坊主頭、(上衣)黒色長袖無地のTシャツ、(下衣)黒色ジャージ着用、黒色ビニール傘、黒色ナップサック所持、徒歩,四国中央市妻鳥町の,四国中央市妻鳥町,0,green,38.0,愛媛県,エヒメケン,EHIME KEN,38213.0,四国中央市,シコクチュウオウシ,SHIKOKUCHUO SHI,妻鳥町,メンドリチョウ,MENDORICHO,長束,33.997841,133.572828
262,松山南署管内,声かけ,令和4年4月17日(日) 午後2時ころ,松山市平井町甲の路上,女性が歩行中、バイクで近づいてきた男から「○○さん知らん?」等と知らない人について尋ねられた後、「何歳?連絡先教えて。」等としつこく話しかけられたもの。,30歳位、やせ型、身長160~165センチ位、黒色短髪、上下灰色又はカーキ色の作業着、オートバイ利用(白色又は銀色、スクータータイプ、少し古い)、白色又は銀色ジェット型ヘルメット着用、マスクなし,松山市平井町甲の,松山市平井町,2,green,38.0,愛媛県,エヒメケン,EHIME KEN,38201.0,松山市,マツヤマシ,MATSUYAMA SHI,平井町,ヒライマチ,HIRAIMACHI,,33.824694,132.836156
263,西予署管内,写真撮影,令和4年4月17日(日) 午後0時15分ころ,八幡浜市から西予市までを走行中の電車内,女子高校生が友人と電車で移動中、対面の座席に座った男から携帯電話機を向けられたもの。その後、降車しようとしたところ、同じ男から無言で手を振られた。,60歳位、小肥、身長160センチ位、白髪混じりの短髪、灰色作業着様、灰色作業着様ズボン、白色マスク、メガネ着用、二つ折り携帯電話機所持、徒歩,八幡浜市から西予市までを走行中の電車内,八幡浜市から西予市までを走行中の電車内,0,lightred,,,,,,,,,,,,,,
264,松山東署管内,つきまとい,令和4年4月15日(金) 午後4時30分ころ,松山市和泉北一丁目の路上,小学生男女児2名が歩行中、後方を歩いていた男が傘を肩に担ぐようにして近づいてきたもの。,30~40歳位、紫色ジャケット、黒色サングラス、黒色マスク着用、傘所持、徒歩,松山市和泉北一丁目の,松山市和泉北一丁目,0,blue,38.0,愛媛県,エヒメケン,EHIME KEN,38201.0,松山市,マツヤマシ,MATSUYAMA SHI,和泉北一丁目,イズミキタ 1,IZUMIKITA 1,,33.823903,132.759925
265,宇和島署管内,つきまとい,令和4年4月15日(金) 午前7時30分ころ,宇和島市三間町宮野下の路上,女子中学生が自転車で移動中、対向から来た車両乗車の男から、すれ違った後、Uターンして低速でつきまとわれたもの。,50歳位、やせ型、黒色短髪、茶色上着、面長の顔、マスクなし、自動車利用(白色、軽四、ワンボックスタイプ、黄色ナンバー),宇和島市三間町宮野下の,宇和島市三間町宮野下,1,blue,38.0,愛媛県,エヒメケン,EHIME KEN,38203.0,宇和島市,ウワジマシ,UWAJIMA SHI,三間町宮野下,ミマチョウミヤノシタ,MIMACHO MIYANOSHITA,,33.296159,132.611882
266,西予署管内,凝視,令和4年4月14日(木) 午後4時ころ,西予市野村町野村の路上,小学生女児が西予市野村町野村の路上を歩行中、車に乗車した男から何度もすれ違いざまに凝視されたもの。,60~70歳位、眼鏡着用、銀色箱バンに乗車,西予市野村町野村の,西予市野村町野村,1,凝視,38.0,愛媛県,エヒメケン,EHIME KEN,38214.0,西予市,セイヨシ,SEIYO SHI,野村町野村,ノムラチョウノムラ,NOMURACHO NOMURA,,33.361119,132.643658
267,松山東署管内,つきまとい,令和4年4月13日(水) 午後7時15分ころ,松山市久万ノ台から同市平田町までの間の路上,女子高校生が自転車で移動中、自転車に乗った男から一定の距離を保ちながらつきまとわれたもの。,黒縁眼鏡着用、自転車利用,松山市久万ノ台から同市平田町までの間の,松山市久万ノ台から同市平田町までの間,0,blue,,,,,,,,,,,,,,
268,松山東署管内,つきまとい,令和4年4月12日(火) 午後4時30分ころ,松山市竹原二丁目の路上,小学生女児が友人と歩行中、自転車に乗った男から「ちょっと来て。」などと声を掛けられながら、つきまとわれたもの。,30~40歳位、中肉、身長165~170センチ位、黒色長袖、黒色長ズボン、短めの無精ヒゲ、黒色帽子着用、背筋が伸びている、自転車利用(黒色様、ママチャリ、前カゴに黒色鞄が入っていた),松山市竹原二丁目の,松山市竹原二丁目,0,blue,38.0,愛媛県,エヒメケン,EHIME KEN,38201.0,松山市,マツヤマシ,MATSUYAMA SHI,竹原二丁目,タケワラ 2,TAKEWARA 2,,33.832237,132.7531
269,松山西署管内,つきまとい,令和4年4月12日(火) 午前7時10分ころ,松山市新浜町の路上,女性が子供と歩行中、付近をうろついていた男に、つきまとわれたもの。,50~60歳位、中肉、身長160~170センチ位、白髪混じりの黒色短髪、水色綿製襟付き長袖シャツ、水色長ズボン、マスク・ヒゲなし、徒歩,松山市新浜町の,松山市新浜町,0,blue,38.0,愛媛県,エヒメケン,EHIME KEN,38201.0,松山市,マツヤマシ,MATSUYAMA SHI,新浜町,シンハママチ,SHINHAMAMACHI,,33.874977,132.713408
270,松山南署管内,声かけ,令和4年4月8日(金)午前7時50分頃,松山市居相五丁目の路上,男子中学生が歩行中、近づいてきた男に「どこ通りよんぞ。」と怒鳴られたもの。,スポーツ刈りの白髪、白色長袖Tシャツ、マスクなし、徒歩,松山市居相五丁目の,松山市居相五丁目,0,green,38.0,愛媛県,エヒメケン,EHIME KEN,38201.0,松山市,マツヤマシ,MATSUYAMA SHI,居相五丁目,イアイ 5,IAI 5,,33.807713,132.773921
271,西条署管内,身体露出,令和4年4月7日(木)午後5時00分頃,西条市朔日市の路上,男がズボンから下半身を露出し、路上を歩いていたもの。,50~60歳位、小肥、身長170センチ位、黒色短髪、青色長袖、黒色ズボン、徒歩,西条市朔日市の,西条市朔日市,2,orange,38.0,愛媛県,エヒメケン,EHIME KEN,38206.0,西条市,サイジョウシ,SAIJO SHI,朔日市,ツイタチ,TSUITACHI,,33.928571,133.183796
272,松山東署管内,つきまとい,令和4年4月7日(木) 午後1時00分ころ,松山市桑原五丁目の路上,女性が子供と遊んでいた際、自転車に乗った男に凝視されながら近づかれたため、同男から逃げようとしたところ、追いかけられたもの。,60~70歳位、水色バッグを背負っていた、自転車利用,松山市桑原五丁目の,松山市桑原五丁目,1,blue,38.0,愛媛県,エヒメケン,EHIME KEN,38201.0,松山市,マツヤマシ,MATSUYAMA SHI,桑原五丁目,クワバラ 5,KUWABARA 5,,33.831876,132.791468
273,松山西管内,声かけ,令和4年4月5日(火)午後10時20分頃,松山市中須賀三丁目の路上,男子中学生が自転車に跨り停車中、後方から来た男に肩を掴まれ「なんしよん?」と声を掛けられたもの。,50~60歳位、中肉、身長160センチ位、白髪混じり、無地の白色長袖Tシャツ、黒色長ズボン、白色マスク着用、徒歩,松山市中須賀三丁目の,松山市中須賀三丁目,0,green,38.0,愛媛県,エヒメケン,EHIME KEN,38201.0,松山市,マツヤマシ,MATSUYAMA SHI,中須賀三丁目,ナカスガ 3,NAKASUGA 3,,33.865964,132.720488
274,松山東管内,刃物所持,令和4年4月3日(日)午後5時過ぎころ,松山市一番町二丁目の路上,刃物様のものを所持した不審者事案が発生したもの。不審者は、刃物様のものを持ったまま所在が分からなくなっている。,30歳位、中肉、身長170センチ位、紺色様上着、灰色ズボン、ニット帽、黒縁眼鏡着用、徒歩,松山市一番町二丁目の,松山市一番町二丁目,1,刃物所持,38.0,愛媛県,エヒメケン,EHIME KEN,38201.0,松山市,マツヤマシ,MATSUYAMA SHI,一番町二丁目,イチバンチョウ 2,ICHIBANCHO 2,,33.841222,132.771378
275,新居浜管内,のぞき・盗撮,令和4年3月上旬頃の夜間,新居浜市船木甲の一般住宅,女性が入浴中、屋外にいる何者かから、浴室の窓越しに覗かれたもの。,,新居浜市船木甲の,新居浜市船木,0,pink,38.0,愛媛県,エヒメケン,EHIME KEN,38205.0,新居浜市,ニイハマシ,NIIHAMA SHI,船木,フナキ,FUNAKI,,33.925772,133.343366
276,新居浜管内,のぞき・盗撮,令和4年3月上旬頃の夜間,新居浜市船木甲の一般住宅,女性が入浴中、屋外にいる何者かから、浴室の窓越しに覗かれたもの。,,新居浜市船木甲の,新居浜市船木,0,pink,38.0,愛媛県,エヒメケン,EHIME KEN,38205.0,新居浜市,ニイハマシ,NIIHAMA SHI,船木,フナキ,FUNAKI,池田,33.939464,133.331824
277,新居浜管内,のぞき・盗撮,令和4年3月上旬頃の夜間,新居浜市船木甲の一般住宅,女性が入浴中、屋外にいる何者かから、浴室の窓越しに覗かれたもの。,,新居浜市船木甲の,新居浜市船木,0,pink,38.0,愛媛県,エヒメケン,EHIME KEN,38205.0,新居浜市,ニイハマシ,NIIHAMA SHI,船木,フナキ,FUNAKI,長野,33.94444,133.345723
278,西条署管内,ちかん,令和4年3月27日(日)午後9時55分ころ,西条市洲之内甲の路上,女性が歩行中、後方から「こんにちは。」と声を掛けてきた男から、すれ違いざまに身体を触られたもの。,60~70歳位、中肉、身長165センチ位、やや短髪、上下白色様の服、眼鏡・マスクなし,西条市洲之内甲の,西条市洲之内,0,gray,,,,,,,,,,,,,,
279,松山南署管内,声かけ,令和4年3月25日(金)午後5時ころ,松山市南久米町の路上,女性が建物に入ろうとした際、路上にいた男から連絡先を聞かれたもの。女性が断るも、同男は建物内に入ってきて、「電池がなくなったので電話を貸せ。」等と要求している。,35~40歳位、やせ型、身長165~170センチ位、黒色パーカー、キャップ帽着用,松山市南久米町の,松山市南久米町,0,green,38.0,愛媛県,エヒメケン,EHIME KEN,38201.0,松山市,マツヤマシ,MATSUYAMA SHI,南久米町,ミナミクメマチ,MINAMIKUMEMACHI,,33.817141,132.80287
280,新居浜署管内,つきまとい,令和4年3月25日(金)午後3時ころ,新居浜市大生院の公園,小学生女児4名が公園内で遊んでいた際、男から凝視されたため移動したところ、同男から追いかけられたもの。さらに、同男は、小学生女児らが逃げ込んだ建物のドア又は窓をノックしていた。,30~40歳位、中肉、身長170センチ位、黒色の服、灰色ズボン、白色マスク着用、眼鏡・帽子なし、黄色のラベルが付いたペットボトル所持,新居浜市大生院の,新居浜市大生院,1,blue,38.0,愛媛県,エヒメケン,EHIME KEN,38205.0,新居浜市,ニイハマシ,NIIHAMA SHI,大生院,オオジョウイン,OJOIN,,33.899194,133.257014
281,松山南署管内,つきまとい,令和4年3月25日(金)午前11時30分ころ,東温市牛渕の路上,男子中学生5名が自転車で走行中、自転車乗車の男から学校名を言われた上、「自転車の番号覚えたぞ。逃げるな。」と言われ、追いかけられたもの。,30~50歳位、上下赤色又は黒色、小柄、黒色帽子着用、マスクなし、自転車利用(黒色、ロードバイク),東温市牛渕の,東温市牛渕,1,blue,38.0,愛媛県,エヒメケン,EHIME KEN,38215.0,東温市,トウオンシ,TOON SHI,牛渕,ウシブチ,USHIBUCHI,,33.790706,132.848621
282,松山南署管内,不審者,令和4年3月25日(金)午前10時ころ,東温市野田一丁目の路上,男が一般住宅の駐車車両を見て、ナンバーを叫んだもの。同男は付近の屋外施設内でも同様に、男児がいる前で何等かの言葉を叫んでいた。,40~50歳位、小肥、身長160~170センチ位、色不明の長袖、色不明の長ズボン、顎鬚あり、眼鏡・マスクなし、自転車利用(荷台にカゴ様のものあり),東温市野田一丁目の,東温市野田一丁目,0,purple,38.0,愛媛県,エヒメケン,EHIME KEN,38215.0,東温市,トウオンシ,TOON SHI,野田一丁目,ノダ 1,NODA 1,,33.794866,132.841148
283,新居浜署管内,つきまとい,令和4年3月24日(木)午後1時30分ころ,新居浜市北新町の施設内及び同町の路上,女子中学生2名が施設内にいたところ、男から携帯電話機の画面を見せるような素振りをされた上、凝視されたもの。同男は、女子中学生らが施設から出た際も、自転車で追いかけてきた。,40~50歳位、中肉、身長170センチ位、黒色短髪パーマ、オレンジ色セーター、自転車利用、黒縁眼鏡着用、黒色ガラケー所持,新居浜市北新町の,新居浜市北新町,1,blue,38.0,愛媛県,エヒメケン,EHIME KEN,38205.0,新居浜市,ニイハマシ,NIIHAMA SHI,北新町,キタシンマチ,KITASHIMMACHI,,33.959605,133.271384
284,松山南署管内,声かけ,令和4年3月20日(日)午後6時ころ,松山市南久米町の路上,男子中高生4名が集まっていたところ、徒歩で近づいてきた男2名から「どこ中?」と声を掛けられ、無視すると、追いかけられたもの。,A(18~20歳位の男、やせ型、身長170センチ位、金色短髪、眼鏡着用、マスク・所持品なし、徒歩)  B(18~20歳位の男、やせ型、身長170センチ位、金色短髪、眼鏡・マスク・所持品なし、白色ワイシャツ、徒歩),松山市南久米町の,松山市南久米町,1,green,38.0,愛媛県,エヒメケン,EHIME KEN,38201.0,松山市,マツヤマシ,MATSUYAMA SHI,南久米町,ミナミクメマチ,MINAMIKUMEMACHI,,33.817141,132.80287
285,今治署管内,不審者,令和4年3月20日(日)午前11時ころ,今治市阿方甲の路上,男が自転車に跨った状態で、一般住宅敷地内を覗き込んでいたもの。,30~40歳位、小肥、身長170センチ位、黒色短髪、自転車利用(軽快兼用、荷台に白色発砲スチロールを紐で縛り積載),今治市阿方甲の,今治市阿方,0,purple,38.0,愛媛県,エヒメケン,EHIME KEN,38202.0,今治市,イマバリシ,IMABARI SHI,阿方,アガタ,AGATA,,34.067445,132.966444
286,西条署管内,声かけ,令和4年3月17日(木)午後7時ころ,西条市明屋敷の路上,女子中学生が歩行中、自転車に跨った状態で停車している男から片言の日本語で、「散歩行きよんか。」と声を掛けられたもの。,20~30歳位、中肉、身長170センチ位、黒色短髪、外国人風、やや色黒、自転車利用(ピンク色、ママチャリ風、前カゴ付),西条市明屋敷の,西条市明屋敷,2,green,38.0,愛媛県,エヒメケン,EHIME KEN,38206.0,西条市,サイジョウシ,SAIJO SHI,明屋敷,アケヤシキ,AKEYASHIKI,,33.921259,133.178034
287,松山東署管内,声かけ,令和4年3月17日(木)午前10時30分ころ,松山市松前町二丁目の路上,女性が、自転車を押しながら歩く女から大声で叫ばれたもの。,30~40歳位、眼鏡あり、小柄、自転車利用,松山市松前町二丁目の,松山市松前町二丁目,0,green,38.0,愛媛県,エヒメケン,EHIME KEN,38201.0,松山市,マツヤマシ,MATSUYAMA SHI,松前町二丁目,マサキマチ 2,MASAKIMACHI 2,,33.844008,132.757653
288,松山南署管内,つきまとい,令和4年3月15日(火)午後8時ころ,松山市北土居五丁目から同市古川南三丁目までの路上,女子中学生が自転車で走行中、T字路で自転車乗車の男とぶつかりそうになった後、同男から後をつけられたもの。,高校生から大学生位、やせ型、黒色短髪、黒色ダウンジャケット、黒色長袖シャツ、黒色ズボン、白色マスク・黒色様の靴着用、眼鏡なし、自転車利用(暗色、軽快兼用、前カゴ付),松山市北土居五丁目から同市古川南三丁目までの,松山市北土居五丁目から同市古川南三丁目まで,0,blue,,,,,,,,,,,,,,
289,松山南署管内,つきまとい,令和4年3月14日(月)午後4時30分ころ,松山市北土居一丁目から今在家二丁目までの路上,小学生女児が歩行中、徒歩の男から後をつけられていると感じ、立ち止まると、男も同様に立ち止まったもの。,30~50歳位、身長170センチ以上、中肉、黒色短髪、黒色様カーディガン、白色シャツ、黒色様ズボン、白色マスク・眼鏡着用、手荷物の所持なし,松山市北土居一丁目から今在家二丁目までの,松山市北土居一丁目から今在家二丁目まで,0,blue,,,,,,,,,,,,,,
290,西条署管内,声かけ,令和4年3月14日(月)午後2時25分ころ,西条市樋之口の店舗内,女性が店舗内にて勤務中、男から凝視された上、下半身を触る行為を見せつけられたもの。,60歳位、小肥、身長160~165センチ位、坊主、黒色長袖、黒色長ズボン、大型トラック利用,西条市樋之口の,西条市樋之口,0,green,38.0,愛媛県,エヒメケン,EHIME KEN,38206.0,西条市,サイジョウシ,SAIJO SHI,樋之口,ヒノクチ,HINOKUCHI,,33.918738,133.165782
291,松山東署管内,住居侵入,令和4年3月14日(月)午前11時45分ころ,松山市辻町の一般住宅,男が一般住宅敷地内に入り、表札を見るような素振りをした後、敷地内でタブレット端末を使用していたもの。,30歳位、中肉、身長170センチ位、黒髪、灰色ジャンパー(臀部が隠れる位の長さ)、黒色スキニーパンツ、黒色ニット帽・白色マスク・白色スニーカー着用、首からタブレット端末を提げている,松山市辻町の,松山市辻町,0,darkred,38.0,愛媛県,エヒメケン,EHIME KEN,38201.0,松山市,マツヤマシ,MATSUYAMA SHI,辻町,ツジマチ,TSUJIMACHI,,33.84332,132.748952
292,松山東署管内,声かけ,令和4年3月14日(月)午前7時40分ころ,松山市平和通六丁目の屋外施設,小学生男児が歩行中、男から「小学生?」と声を掛けられたもの。,40歳位、身長170センチ位、小肥、茶又は黒髪(耳が隠れない位の長さ)、白又は灰色の上衣、黒色長ズボン、黒色マスク着用,松山市平和通六丁目の,松山市平和通六丁目,0,green,38.0,愛媛県,エヒメケン,EHIME KEN,38201.0,松山市,マツヤマシ,MATSUYAMA SHI,平和通六丁目,ヘイワドオリ 6,HEIWADORI 6,,33.84763,132.75657
293,今治署管内,声かけ,令和4年3月14日(月)午前7時20分ころ,今治市四村の路上,小学生男児が複数名で歩行中、バイクに乗った女から「何であんたらは挨拶せんのよ。」「挨拶せんかった理由はなに?」と怒鳴られたもの。さらに、同女は一度立ち去った後、小学生男児らの付近を徘徊したり、手を振ったりしていた。,70歳位、中肉、黒髪、白色バイク(スクータータイプ)、赤色ヘルメット・赤色眼鏡・白色マスク着用,今治市四村の,今治市四村,0,green,38.0,愛媛県,エヒメケン,EHIME KEN,38202.0,今治市,イマバリシ,IMABARI SHI,四村,ヨムラ,YOMURA,,34.034855,132.981697
294,松山東署管内,身体露出,令和4年3月14日(月)午前0時30分ころ,松山市東一万町の路上,男が下半身を露出したまま路上に立っていたもの。,40~50歳位、身長160~170センチ位、上下黒色ジャージ、黒色ニット帽・マスク着用,松山市東一万町の,松山市東一万町,0,orange,38.0,愛媛県,エヒメケン,EHIME KEN,38201.0,松山市,マツヤマシ,MATSUYAMA SHI,東一万町,ヒガシイチマンマチ,HIGASHIICHIMAMMACHI,,33.847064,132.77711
295,今治署管内,声かけ,令和4年3月13日(日)午前3時ころ,今治市宮下町一丁目の路上,女性が自転車で帰宅中、男から片言の日本語で「お金あげるから遊ぼう。」と声を掛けられ、20分程誘いを断っていたところ、卑わいな話をされたもの。,30~40歳位、中肉、身長160センチ位、黒色フード付きジャンパー、黒色様の長ズボン、フードを深く被っている、白色マスク着用、自転車利用(ロードバイク様),今治市宮下町一丁目の,今治市宮下町一丁目,0,green,38.0,愛媛県,エヒメケン,EHIME KEN,38202.0,今治市,イマバリシ,IMABARI SHI,宮下町一丁目,ミヤシタチョウ 1,MIYASHITACHO 1,,34.068459,132.98826
296,新居浜署管内,つきまとい,令和4年3月10日(木)午後4時ころ,新居浜市政枝町一丁目の路上,小学生女児が歩行中、2日前(3月8日午後4時ころ)に「ちょっとまって。」と声を掛けてきた男を発見したため、走って逃げたところ、同男から追いかけられたもの。,30歳位、中肉、身長175センチ位、上下黒色スウェット、黒色ニット帽・黒色マスク着用、バッグ等なし,新居浜市政枝町一丁目の,新居浜市政枝町一丁目,0,blue,38.0,愛媛県,エヒメケン,EHIME KEN,38205.0,新居浜市,ニイハマシ,NIIHAMA SHI,政枝町一丁目,マサエダチョウ 1,MASAEDACHO 1,,33.947459,133.286506
297,松山西署管内,不審者,令和4年3月10日(木)午前8時15分ころ,松山市南江戸四丁目の駐車場,女性が駐車場にいたところ、車から降車して近づいてきた男から手を振られたもの。,45~55歳位、やせ型、身長170~175センチ位、白髪混じりの短髪、面長、赤色の軽四自動車利用,松山市南江戸四丁目の,松山市南江戸四丁目,0,purple,38.0,愛媛県,エヒメケン,EHIME KEN,38201.0,松山市,マツヤマシ,MATSUYAMA SHI,南江戸四丁目,ミナミエド 4,MINAMIEDO 4,,33.837758,132.741668
298,新居浜署管内,不審者,令和4年3月10日(木)午前7時50分ころ,新居浜市中萩町の路上,小学生女児が歩行中、対向から来た自転車乗車の男に凝視された上、すれ違いざまにニヤっと笑われたもの。,30~40歳位、やせ型、灰色ジャージ、自転車利用,新居浜市中萩町の,新居浜市中萩町,1,purple,38.0,愛媛県,エヒメケン,EHIME KEN,38205.0,新居浜市,ニイハマシ,NIIHAMA SHI,中萩町,ナカハギチョウ,NAKAHAGICHO,,33.928934,133.282661
299,松山南署管内,声かけ,令和4年3月9日(水)午後9時10分ころ,松山市朝生田町五丁目の路上,女性2名が歩行中、後方を歩く男が女性らの前に回り込み、「僕のことを笑っているんですか?」と声を掛けてきたもの。その後、女性らが付近の建物内に逃げ込むと、同男も建物出入口付近まで追いかけてきた。,60~70歳位、やせ型、身長165センチ位、白髪薄毛、水色ジャンパー、黒色スラックス、眼鏡あり,松山市朝生田町五丁目の,松山市朝生田町五丁目,0,green,38.0,愛媛県,エヒメケン,EHIME KEN,38201.0,松山市,マツヤマシ,MATSUYAMA SHI,朝生田町五丁目,アソダマチ 5,ASODAMACHI 5,,33.820663,132.771511
300,松山西署管内,不審者,令和4年3月9日(水)午後5時40分ころ,松山市西長戸町の路上,小学生女児2名が公園で遊んでいたところ、付近の路上にいた男から凝視されたもの。同男は30分後も同じ場所にいた。,中学生位、中肉中背、黒色短髪、上下学生服、白色マスク着用、眼鏡なし、黒色リュックサック所持,松山市西長戸町の,松山市西長戸町,1,purple,38.0,愛媛県,エヒメケン,EHIME KEN,38201.0,松山市,マツヤマシ,MATSUYAMA SHI,西長戸町,ニシナガトチョウ,NISHINAGATOCHO,,33.867813,132.741949
301,松山東署管内,声かけ,令和4年3月9日(水)午後2時50分ころ,松山市立花一丁目の路上,小学生男女児数名が歩行中、うち3名が信号待ちをしていたところ、男から「何丁目に住んどるん?」と声を掛けられたもの。,50~60歳位、中肉、身長160~170センチ位、白色短髪、灰色上着、灰色長ズボン、マスク・眼鏡なし、煙草を吸っていた,松山市立花一丁目の,松山市立花一丁目,0,green,38.0,愛媛県,エヒメケン,EHIME KEN,38201.0,松山市,マツヤマシ,MATSUYAMA SHI,立花一丁目,タチバナ 1,TACHIBANA 1,,33.831443,132.771511
302,四国中央署管内,声かけ,令和4年3月9日(水)午前8時15分ころ,四国中央市中之庄町の路上,女性が建物敷地内を徒歩で移動中、フェンス越しに男から道を尋ねられた上、「電話番号教えてください。」などと言われたもの。,25~35歳位、やせ型、身長175センチ位、黒色短髪、ワイシャツ、紺色ニット、黒色様スラックス、縁が細い眼鏡着用、スマートフォン所持,四国中央市中之庄町の,四国中央市中之庄町,2,green,38.0,愛媛県,エヒメケン,EHIME KEN,38213.0,四国中央市,シコクチュウオウシ,SHIKOKUCHUO SHI,中之庄町,ナカノショウチョウ,NAKANOSHOCHO,,33.963258,133.536488
303,松山東署管内,写真撮影,令和4年3月3日(木)午後4時40分ころ,松山市千舟町八丁目の路上,女性が歩行中、すれ違った徒歩の男がUターンして女性の前に立ち、怒りながら自撮り棒に装着したデジタルカメラを向けてきたもの。,40~50歳位、小肥、短髪、身長170センチ位、上下紺色スウェット様、紺色様ウエストポーチ着用、黒色様デジタルカメラ所持,松山市千舟町八丁目の,松山市千舟町八丁目,0,lightred,38.0,愛媛県,エヒメケン,EHIME KEN,38201.0,松山市,マツヤマシ,MATSUYAMA SHI,千舟町八丁目,チフネマチ 8,CHIFUNEMACHI 8,,33.836595,132.753577
304,新居浜署管内,声かけ,令和4年3月3日(木)午後4時50分ころ,新居浜市本郷二丁目の路上,小学生女児が歩行中、男から「お名前は?おうちどこ?」と声を掛けられたもの。,60~65歳位、身長160センチ位、中肉、白髪混じりの短髪、茶色上着、黒色長ズボン,新居浜市本郷二丁目の,新居浜市本郷二丁目,0,green,38.0,愛媛県,エヒメケン,EHIME KEN,38205.0,新居浜市,ニイハマシ,NIIHAMA SHI,本郷二丁目,ホンゴウ 2,HONGO 2,,33.935849,133.28107
305,新居浜署管内,不審者,令和4年3月3日(木)午後3時ころ,新居浜市滝の宮町の路上,女子中学生が友人と自転車で移動中、駐輪場にいた男から自転車の陰に隠れるようにしながら凝視された後、近づかれたもの。,30~50歳位、身長170センチ位、やせ型、黒色短髪、白色と灰色の長袖、青色ジーンズ、自転車使用,新居浜市滝の宮町の,新居浜市滝の宮町,0,purple,38.0,愛媛県,エヒメケン,EHIME KEN,38205.0,新居浜市,ニイハマシ,NIIHAMA SHI,滝の宮町,タキノミヤチョウ,TAKINOMIYACHO,,33.945056,133.281811
306,西条署管内,不審者,令和4年2月28日(月)午後5時30分ころ,西条市下島山甲の公園内,小学生女児が祖父と友人の3名で公園で遊んでいたところ、移動中にすれ違った男が現れ、凝視されたもの。男は祖父が近づくと逃げる素振りを何度か繰り返していた。,20歳位、やせ型、身長170センチ位、キノコヘアの黒髪、上下黒色の服、マスク着用、眼鏡・帽子なし,西条市下島山甲の,西条市下島山,2,purple,,,,,,,,,,,,,,
307,松山東署管内,不審者,令和4年2月28日(月)午前0時ころ,松山市土居田町の一般住宅,女性が在宅中、何者かにインターホンを鳴らされたもの。2月24日にも同様の被害に遭っている。,不審者像不明,松山市土居田町の,松山市土居田町,1,purple,38.0,愛媛県,エヒメケン,EHIME KEN,38201.0,松山市,マツヤマシ,MATSUYAMA SHI,土居田町,ドイダマチ,DOIDAMACHI,,33.823276,132.746488
308,西条西署管内,つきまとい,令和4年2月27日(日)午後3時30分ころ,西条市福成寺の路上,女性が家族5名で遊んでいたところ、男が民家の様子を窺うように徘徊していたもの。男は、女性家族に小走りで近づいた後、自転車に乗って立ち去った。,30~50歳位、スポーツ刈りが伸びたボサボサ頭の金髪又は茶髪(根元が黒色)、黒色ジャンパー、白色様ズボン、銀色の自転車利用、眼鏡なし,西条市福成寺の,西条市福成寺,0,blue,38.0,愛媛県,エヒメケン,EHIME KEN,38206.0,西条市,サイジョウシ,SAIJO SHI,福成寺,フクジョウジ,FUKUJOJI,,33.954311,133.032614
309,宇和島署管内,声かけ,令和4年2月26日(土)午後2時30分ころ,宇和島市祝森甲の屋外施設,小学生男児が屋外施設で遊んでいたところ、車に乗った男から「おいで、お菓子あげる。」と声を掛けられたもの。小学生男児が断ると、男は無言で立ち去った。,50歳位、黒色短髪、薄ピンク色のマスク着用、軽四自動車(赤と白のツートンカラー)使用,宇和島市祝森甲の,宇和島市祝森,0,green,38.0,愛媛県,エヒメケン,EHIME KEN,38203.0,宇和島市,ウワジマシ,UWAJIMA SHI,祝森,イワイノモリ,IWAINOMORI,,33.168551,132.561613
310,宇和島署管内,声かけ,令和4年2月26日(土)午後2時30分ころ,宇和島市祝森甲の屋外施設,小学生男児が屋外施設で遊んでいたところ、車に乗った男から「おいで、お菓子あげる。」と声を掛けられたもの。小学生男児が断ると、男は無言で立ち去った。,50歳位、黒色短髪、薄ピンク色のマスク着用、軽四自動車(赤と白のツートンカラー)使用,宇和島市祝森甲の,宇和島市祝森,0,green,38.0,愛媛県,エヒメケン,EHIME KEN,38203.0,宇和島市,ウワジマシ,UWAJIMA SHI,祝森,イワイノモリ,IWAINOMORI,長田,33.182121,132.549481
311,松山東署管内,つきまとい,令和4年2月21日(月)午後4時ころ,松山市桑原四丁目の路上,女性が子供と歩いていたところ、女性の勤務する店舗を頻繁に訪れる男が前方から徒歩で近づいてきて、すれ違いざまに「お嬢ちゃん。」と声を掛けてきたもの。別日には、声掛けなどはなかったが、付近に佇む男を目撃している。,50歳位、やせ型、身長160センチ位、黒色作業着様、白色ウインドブレーカー、色黒、黒色ニット帽・眼鏡・マスク着用,松山市桑原四丁目の,松山市桑原四丁目,1,blue,38.0,愛媛県,エヒメケン,EHIME KEN,38201.0,松山市,マツヤマシ,MATSUYAMA SHI,桑原四丁目,クワバラ 4,KUWABARA 4,,33.832031,132.794275
312,伊予署管内,つきまとい,令和4年2月21日(月)午前11時35分ころ,伊予郡松前町大字神崎から同町大字出作までの路上,女子高校生が自転車で走行中、車両乗車の男から後をつけられたもの。,若めの男、ラフな服装、色白、面長、若者風、眼鏡着用、黒色軽四自動車使用,伊予郡松前町大字神崎から同町大字出作までの,伊予郡松前町大字神崎から同町大字出作まで,0,blue,,,,,,,,,,,,,,
313,松山東署管内,写真撮影,令和4年2月21日(月)午前8時ころ,松山市桑原三丁目の建物敷地内,小学生男児が建物敷地内にいたところ、男からフェンス越しに声を掛けられ、「写真を撮りたいんだけど、こっち向いて。」と言われ、背を向けたところ、スマートフォン(黒色様)で写真を撮られたもの。,50~60歳位、身長170センチ位、中肉、上下黒色様ウインドブレーカー、ニット帽・黒色又は灰色手袋着用,松山市桑原三丁目の建物敷地内,松山市桑原三丁目の建物敷地内,0,lightred,,,,,,,,,,,,,,
314,松山東署管内,不審者,令和4年2月18日(金)午後5時50分ころ,松山市大手町一丁目の路上,小学生女児が歩行中、男から後をつけられ、無言で手首を掴まれたもの。,40~50歳位、身長160~170センチ位、黒色短髪、白色ダウンジャケット、黒色様長ズボン、マスク着用、帽子なし,松山市大手町一丁目の,松山市大手町一丁目,0,purple,38.0,愛媛県,エヒメケン,EHIME KEN,38201.0,松山市,マツヤマシ,MATSUYAMA SHI,大手町一丁目,オオテマチ 1,OTEMACHI 1,,33.839926,132.757116
315,宇和島署管内,つきまとい,令和4年2月18日(金)午後4時10分ころ,宇和島市別当五丁目から同市別当三丁目までの路上,男子中学生が友人2名と路上にいたところ、付近に停車していた車両乗車の男から凝視されていると感じ、その後、一人で移動する際にも、同車両が低速でついてきたもの。,60歳位、やせ型、黒色短髪、黒色軽四自動車(バモス又はアクティ)使用,宇和島市別当五丁目から同市別当三丁目までの,宇和島市別当五丁目から同市別当三丁目まで,0,blue,,,,,,,,,,,,,,
316,松山東署管内,声かけ,令和4年2月17日(木)午後4時30分ころ,松山市生石町の歩道上,小学生男児が歩行中、自転車乗車の男から意味不明な内容を言われたもの。,60歳位、やせ型、身長180センチ位、上下黒色の服、自転車利用、ニット帽着用、無精髭あり、マスクなし、外国人風、エナメルバッグ所持,松山市生石町の歩道上,松山市生石町の歩道上,0,green,,,,,,,,,,,,,,
317,松山西署管内,写真撮影,令和4年2月17日(木)午後3時ころ,松山市南吉田町の路上,小学生男児が歩行中、後方から来た車両乗車の男からすれ違いざまに、ライトが点灯している携帯電話機を向けられたもの。,50~60歳位、黒色短髪、黒色様の服、黒色の軽四自動車利用、帽子・眼鏡なし、白色マスク着用,松山市南吉田町の,松山市南吉田町,1,lightred,38.0,愛媛県,エヒメケン,EHIME KEN,38201.0,松山市,マツヤマシ,MATSUYAMA SHI,南吉田町,ミナミヨシダマチ,MINAMIYOSHIDAMACHI,,33.827937,132.703969
318,西条西署管内,暴行,令和4年2月17日(木)午前8時10分ころ,西条市周布の路上,女子高校生が友人と自転車で走行中、ベンチに座りパソコンを操作する男の前を通り過ぎようとした際、組んでいた足を伸ばされ自転車を蹴られたもの。,55~60歳位、中肉、身長160センチ位、白髪混じりの短髪、上下黒色スーツ、眼鏡着用、ビジネスバッグ所持,西条市周布の,西条市周布,0,red,38.0,愛媛県,エヒメケン,EHIME KEN,38206.0,西条市,サイジョウシ,SAIJO SHI,周布,シュウ,SHU,,33.915576,133.079875
319,西条西署管内,身体接触,令和4年2月17日(木)午前7時50分ころ,西条市安用出作の路上,女子高校生が自転車で走行中、前方を走行していた男を追い抜く際、同男から肩を触られたもの。,中肉中背、黒色フード付きジャンパー、黒色スウェットズボン、自転車利用(銀色、両ハンドル上にミラー有),西条市安用出作の,西条市安用出作,0,身体接触,38.0,愛媛県,エヒメケン,EHIME KEN,38206.0,西条市,サイジョウシ,SAIJO SHI,安用出作,ヤスモチデサク,YASUMOCHIDESAKU,,33.928821,133.062252
320,八幡浜署管内,つきまとい,令和4年2月16日(水)午後7時ころ,八幡浜市松柏丙から同市矢野町までの路上,男子高校生が歩行中、男から「おい。おい。」と声を掛けられ、つきまとわれたもの。,身長155センチ位、上下黒色ウインドブレーカー様、茶色の野球帽(深く被っていた)・白色マスク着用,八幡浜市松柏丙から同市矢野町までの,八幡浜市松柏丙から同市矢野町まで,0,blue,,,,,,,,,,,,,,
321,松山南署管内,不審者,令和4年2月16日(水)午後4時ころ,松山市西石井二丁目の路上,女子中学生3名が歩行中、対向から来た自転車乗車の男がすれ違いざまにマスクを外し、唾を吐きかけてきたもの。女子中学生らに唾はかからなかった。,20~40歳位、やせ型、黒色短髪、茶色のダウンコート、ジーパン、自転車利用(銀色、前カゴなし)、黒色マスク着用、ショルダーバッグ(色不明)所持、眼鏡なし,松山市西石井二丁目の,松山市西石井二丁目,0,purple,38.0,愛媛県,エヒメケン,EHIME KEN,38201.0,松山市,マツヤマシ,MATSUYAMA SHI,西石井二丁目,ニシイシイ 2,NISHIISHII 2,,33.81763,132.771462
322,松山南署管内,不審者,令和4年2月15日(火)午後4時30分ころ,松山市居相一丁目の路上,女子中学生が歩行中、対向から近づいてきた自転車乗車の男とすれ違った際、「ペッ。」と唾を吐くような音が聞こえ、同男を見ると睨みつけられたもの。その後、移動先にて再度同男が現れ、女子中学生の前方に向け唾を吐いた。,30~40歳位、黒色短髪、黒色長袖の服、自転車利用(前カゴあり)、白色マスク着用、眼鏡なし,松山市居相一丁目の,松山市居相一丁目,0,purple,38.0,愛媛県,エヒメケン,EHIME KEN,38201.0,松山市,マツヤマシ,MATSUYAMA SHI,居相一丁目,イアイ 1,IAI 1,,33.810574,132.774073
323,松山東署管内,写真撮影,令和4年2月15日(火)午後4時15分ころ,松山市内走行中の電車内,女性が電車で移動中、対面の座席に座ってきた男からスマートフォンを向けられたもの。,40歳位、小肥、身長160センチ位、黒髪坊主頭、黒色フード付きジャンパー、黒色ズボン、灰色ショルダーバッグ・黒色スマートフォン所持,松山市内走行中の電車内,松山市内走行中の電車内,0,lightred,,,,,,,,,,,,,,
324,松山東署管内,動画撮影,令和4年2月15日(火)午前7時ころ,松山市内を走行中の電車内,小学生女児3名が電車内にて、男からスマートフォンを向けられたもの。なお、小学生女児等のうち1名が、男のスマートフォン画面を覗き込んだところ、録画モードになっていた。,身長170センチ位、黒色短髪、灰色の服、黒色ズボン、スマートフォン所持,松山市内を走行中の電車内,松山市内を走行中の電車内,1,lightred,,,,,,,,,,,,,,
325,伊予署管内,声かけ,令和4年2月14日(月)午後3時05分ころ,伊予郡松前町大字神崎の路上,小学生男児が同級生3名と歩行中、徒歩の男から「今帰り?どこに住んでいるの?」と声を掛けられたもの。,50歳位、身長175センチ位、中肉、紺色長袖ジャージ様(黄色の横縞模様あり)、紺色ジャージ様長ズボン、紺色キャップ帽・灰色細い縁の眼鏡・白色軍手・黒色様運動靴着用、マスク・髭なし,伊予郡松前町大字神崎の,伊予郡松前町大字神崎,0,green,38.0,愛媛県,エヒメケン,EHIME KEN,38401.0,伊予郡松前町,イヨグンマサキチョウ,IYO GUN MASAKI CHO,大字神崎,,,,33.789132,132.741114
326,今治署管内,声かけ,令和4年2月12日(土)午後5時05分ころ,今治市南日吉町二丁目から同市常盤町七丁目までの路上,女子中学生が自転車で帰宅中、交差点にて徒歩の男から「キミ。」と声を掛けられ、無視すると、小走りで追いかけられたもの。,30歳位、中肉、身長170センチ位、黒色短髪、パーカー(胸部と袖が赤色、腹部が白色、左胸に英字のワンポイント付き)、帽子・眼鏡・マスクなし,今治市南日吉町二丁目から同市常盤町七丁目までの,今治市南日吉町二丁目から同市常盤町七丁目まで,0,green,,,,,,,,,,,,,,
327,松山西署管内,つきまとい,令和4年2月10日(木)午後4時ころ,松山市北斎院町の路上,小学生女児が移動中、徒歩の男から後をつけられたもの。,身長165~170センチ位、上下黒色ジャージ様の服、緑色のキャップ帽・黒色マスク着用、眼鏡なし,松山市北斎院町の,松山市北斎院町,2,blue,38.0,愛媛県,エヒメケン,EHIME KEN,38201.0,松山市,マツヤマシ,MATSUYAMA SHI,北斎院町,キタサヤチョウ,KITASAYACHO,,33.839402,132.723636
328,松山東署管内,写真撮影,令和4年2月9日(水)午前7時05分ころ,松山市内を走行中の電車内,小学生女児が電車内に立っていたところ、近くに立つ男からスマートフォンを2~3分間向けられたもの。,40歳位、中肉、身長165~170センチ位、スポーツ刈りの黒髪、黒色ダウンジャケット、灰色長ズボン、白色マスク着用、カーキ色のショルダーバッグ(洗濯ばさみ様のものがついている)所持,松山市内を走行中の電車内,松山市内を走行中の電車内,2,lightred,,,,,,,,,,,,,,
329,西条署管内,声かけ,令和4年2月7日(月)午後4時ころ,西条市大町の路上,小学生男女児2名が歩行中、男から駐車場のフェンス越しに「わっ。」と驚かされた後、「チョコレートいらんか?」などと声を掛けられたもの。,60~70歳位、やせ型、身長160~170センチ位、白髪混じりの短髪、茶色様の服、黒色様野球帽、白色マスク着用,西条市大町の,西条市大町,1,green,38.0,愛媛県,エヒメケン,EHIME KEN,38206.0,西条市,サイジョウシ,SAIJO SHI,大町,オオマチ,OMACHI,,33.911624,133.189252
330,西条署管内,声かけ,令和4年2月7日(月)午後4時ころ,西条市大町の路上,小学生男女児2名が歩行中、男から駐車場のフェンス越しに「わっ。」と驚かされた後、「チョコレートいらんか?」などと声を掛けられたもの。,60~70歳位、やせ型、身長160~170センチ位、白髪混じりの短髪、茶色様の服、黒色様野球帽、白色マスク着用,西条市大町の,西条市大町,1,green,38.0,愛媛県,エヒメケン,EHIME KEN,38206.0,西条市,サイジョウシ,SAIJO SHI,大町,オオマチ,OMACHI,福森,33.912953,133.188923
331,宇和島署管内,写真撮影等,令和4年2月6日(日)午後2時55分ころ,宇和島市法花津の路上,小学生男女数名が公園内で遊んでいたところ、内1名が徒歩で現れた男から集会所の使用方法などを尋ねられ、その後、路上から公園に向けてスマートフォンを構える男を目撃したもの。さらに、同男は、公園内で遊んでいた小学生女児を凝視しながら公園内を移動していた。,40~60歳位、中肉、身長170センチ位、黒色短髪、緑色パーカー、白色ウインドブレーカー、黒色様ズボン、白色不織布マスク着用、白色様スマートフォン所持,宇和島市法花津の,宇和島市法花津,0,写真撮影等,,,,,,,,,,,,,,
332,松山東署管内,声かけ,令和4年2月5日(土)午後6時20分ころ,松山市錦町の路上,女性が歩行中、後方から自転車で近づいてきた男から卑わいなことを言われた上、髪や首を触られたもの。,30~40歳位、やせ型、身長170センチ位、長くも短くもない黒髪、黒色ウインドブレーカー、灰色長ズボン、自転車利用(銀色、四角い前カゴ付き),松山市錦町の,松山市錦町,0,green,38.0,愛媛県,エヒメケン,EHIME KEN,38201.0,松山市,マツヤマシ,MATSUYAMA SHI,錦町,ニシキマチ,NISHIKIMACHI,,33.8377,132.77662
333,松山東署管内,声かけ,令和4年2月4日(金)午後5時30分ころ,松山市束本二丁目の路上,女子高校生2名が自転車で走行中、対向から自転車で近づいてきた男から「停まって、危ないやろ。」などと声をかけられた上、男が所持していたメモ帳に、執拗に名前を書くよう迫られたもの。,40~50歳位、小肥、身長160センチ位、黒髪坊主(禿げている)、上下黒地に赤色ラインのジャージ、眼鏡・マスクなし、ショルダーバッグ(水色ポーチ・白色メモ帳在中)所持、自転車利用(ママチャリ、前カゴあり),松山市束本二丁目の,松山市束本二丁目,0,green,38.0,愛媛県,エヒメケン,EHIME KEN,38201.0,松山市,マツヤマシ,MATSUYAMA SHI,束本二丁目,ツカモト 2,TSUKAMOTO 2,,33.827807,132.787221
334,松山東署管内,声かけ,令和4年2月4日(金)午後4時25分ころ,松山市和泉北一丁目の歩道橋上,小学生男女児数名が歩行中、歩道橋上にいた男から「〇〇のアニメ知ってる?」と声を掛けられたもの。小学生等が無視したところ、同男は別の小学生等にも声を掛けていた。,30歳位、中肉、身長165センチ位、青色ジャンパー、黒色ズボン、眉毛が濃い、青色と白色の縞柄リュックサック所持、カラフルな色のニット帽着用,松山市和泉北一丁目の歩道橋上,松山市和泉北一丁目の歩道橋上,0,green,,,,,,,,,,,,,,
335,西予署管内,つきまとい,令和4年2月3日(木)午後5時20分ころ,西予市宇和町皆田から同市野村町野村までの路上,女性が車で走行中、車両乗車の不審者から執拗に後方をつけられたもの。,自動車利用(白色、軽トラ),西予市宇和町皆田から同市野村町野村までの,西予市宇和町皆田から同市野村町野村まで,0,blue,,,,,,,,,,,,,,
336,松山東署管内,声かけ,令和4年2月3日(木)午後3時40分ころ,松山市六軒家町の路上,女性が自転車で走行中、対向から来た自転車乗車の男がすれ違いざまにマスクを外し、話しかけてきたもの。なお、言葉は聞き取れず。,中肉、こげ茶色ジャンパー、黒色長ズボン、自転車利用(黒色、ママチャリ様、前カゴ付き)、白色マスク着用,松山市六軒家町の,松山市六軒家町,1,green,38.0,愛媛県,エヒメケン,EHIME KEN,38201.0,松山市,マツヤマシ,MATSUYAMA SHI,六軒家町,ロッケンヤチョウ,ROKKENYACHO,,33.851253,132.752283
337,松山東署管内,身体露出,令和4年2月2日(水)午後6時30分ころ,松山市柳井町二丁目の路上,女子高校生が自転車にて進行中、対向から歩いてきた男に、無言で下半身を見せつけられたもの。,30~40歳位、身長170センチ位、中肉、黒色短髪、黒色様の膝丈ベンチコート様、黒色様のスラックス様、サラリーマン風、眼鏡着用、マスクなし,松山市柳井町二丁目の,松山市柳井町二丁目,0,orange,38.0,愛媛県,エヒメケン,EHIME KEN,38201.0,松山市,マツヤマシ,MATSUYAMA SHI,柳井町二丁目,ヤナイマチ 2,YANAIMACHI 2,,33.833439,132.768265
338,松山東署管内,身体露出,令和4年2月2日(水)午後4時30分ころ,松山市桑原五丁目の路上,小学生女児が自転車を押しながら歩行中、後方から徒歩で追い越してきた男から声をかけられたうえ、下半身を見せつけられたもの。,中学生から高校生位、身長150センチ位、中肉、黒色短髪、上下黒色様の学生服様(金色ボタン付き)、たれ目、眼鏡・マスクなし,松山市桑原五丁目の,松山市桑原五丁目,2,orange,38.0,愛媛県,エヒメケン,EHIME KEN,38201.0,松山市,マツヤマシ,MATSUYAMA SHI,桑原五丁目,クワバラ 5,KUWABARA 5,,33.831876,132.791468
339,宇和島署管内,写真撮影,令和4年2月1日(火)午後5時20分ころ,宇和島市保手一丁目の路上,女子中学生が歩行中、対向からきた自転車乗車の男からすれ違いざまにスマートフォンを向けられたもの。女子中学生が振り返ったところ、男はその先で停車し、スマートフォンの画面を見ていた。,30~40歳位、やせ型、肩までの長さのボサボサ黒髪、黒色様上下服、暗色の自転車、スマートフォン(背面が赤色と黒色が混在したような色)所持,宇和島市保手一丁目の,宇和島市保手一丁目,0,lightred,38.0,愛媛県,エヒメケン,EHIME KEN,38203.0,宇和島市,ウワジマシ,UWAJIMA SHI,保手一丁目,ホデ 1,HODE 1,,33.214817,132.55443
340,四国中央署管内,つきまとい,令和4年2月1日(火)午後2時ころ,四国中央市三島中央二丁目から同市中曽根町までの路上,小学生女児が歩行中、男が電柱の陰に隠れながら後方をつけてきたもの。,小肥、上下黒色の服、サングラス・マスク着用,四国中央市三島中央二丁目から同市中曽根町までの,四国中央市三島中央二丁目から同市中曽根町まで,0,blue,,,,,,,,,,,,,,
341,今治署管内,つきまとい,令和4年1月29日(土)午後6時30分ころ,今治市北日吉町三丁目の路上,男子高校生が自転車で移動中、車に乗った男から後方をつきまとわれた上、パッシングをされたもの。,黒色普通車、後部座席にモニター設置,今治市北日吉町三丁目の,今治市北日吉町三丁目,0,blue,38.0,愛媛県,エヒメケン,EHIME KEN,38202.0,今治市,イマバリシ,IMABARI SHI,北日吉町三丁目,キタヒヨシチョウ 3,KITAHIYOSHICHO 3,,34.05937,132.985746
342,松山南署管内,凝視,令和4年1月28日(金)午後4時40分ころ,松山市平井町の路上,女子中学生が自転車で進行中、道路端に立ち、ズボンの上から片手で下半身を触る男から凝視されたもの。,35~45歳位、小肥、身長165センチ位、白髪混じりの黒色短髪、暗色の服、ジャージ様黒色長ズボン、黒色様の電子タバコ所持、帽子・眼鏡・マスクなし,松山市平井町の,松山市平井町,3,凝視,38.0,愛媛県,エヒメケン,EHIME KEN,38201.0,松山市,マツヤマシ,MATSUYAMA SHI,平井町,ヒライマチ,HIRAIMACHI,,33.824694,132.836156
343,八幡浜署管内,住居侵入,令和4年1月27日(木)午後8時ころ,西宇和郡伊方町川永田甲の一般住宅,女性が入浴中、外からガタガタと音が聞こえたため、同居の家族が確認すると、路地に隠れた男を発見したもの。男は家族に気がつくと立ち去っている。,不明,西宇和郡伊方町川永田甲の,西宇和郡伊方町川永田,0,darkred,38.0,愛媛県,エヒメケン,EHIME KEN,38442.0,西宇和郡伊方町,ニシウワグンイカタチョウ,NISHIUWA GUN IKATA CHO,川永田,カワナガタ,KAWANAGATA,,33.482139,132.335357
344,伊予署管内,不審者,令和4年1月27日(木)午前5時55分ころ,伊予郡松前町大字西高柳の建物敷地内,男がマンションに隣接する建物敷地内に立ち、マンションの出入口方向を見ていたもの。,上下黒色の服、猫背、黒色マスク着用、黒色帽子を着用していた可能性がある、眼鏡なし,伊予郡松前町大字西高柳の建物敷地内,伊予郡松前町大字西高柳の建物敷地内,0,purple,,,,,,,,,,,,,,
345,宇和島署管内,声かけ,令和4年1月26日(水)午後8時ころ,宇和島市丸之内一丁目の路上,女子高校生が歩行中、前方を歩く男から何度も振り返って凝視され、さらに、対向から歩いてきた別の男から、すれ違いざまに「あ、お姉ちゃんちょっといい?」と声を掛けられたもの。なお、男2名の関係性は不明。,凝視してきた男(40~50歳位、身長160センチ位、小肥、暗色のジャンパー、作業ズボン、白色マスク着用)、声を掛けてきた男(20~30歳位、身長175センチ位、中肉、上下作業服、暗色のキャップ帽を深めに被っていた),宇和島市丸之内一丁目の,宇和島市丸之内一丁目,0,green,38.0,愛媛県,エヒメケン,EHIME KEN,38203.0,宇和島市,ウワジマシ,UWAJIMA SHI,丸之内一丁目,マルノウチ 1,MARUNOCHI 1,,33.219287,132.565159
346,大洲署管内,声かけ,令和4年1月25日(火)午後6時30分ころ,大洲市長浜の路上,女子高校生が歩行中、駐車した車両乗車の男に道を尋ねられたため、「スマホで検索したら分かりますよ。」と伝えたところ、車から降車した同男から後をつけられたもの。,若くはない、身長170センチ位、普通乗用自動車利用(白色、セダンタイプ)、キャップ帽・マスク着用、眼鏡なし,大洲市長浜の,大洲市長浜,0,green,38.0,愛媛県,エヒメケン,EHIME KEN,38207.0,大洲市,オオズシ,OZU SHI,長浜,ナガハマオツ,NAGAHAMA OTSU,,33.614095,132.483899
347,大洲署管内,声かけ,令和4年1月25日(火)午後6時30分ころ,大洲市長浜の路上,女子高校生が歩行中、駐車した車両乗車の男に道を尋ねられたため、「スマホで検索したら分かりますよ。」と伝えたところ、車から降車した同男から後をつけられたもの。,若くはない、身長170センチ位、普通乗用自動車利用(白色、セダンタイプ)、キャップ帽・マスク着用、眼鏡なし,大洲市長浜の,大洲市長浜,0,green,38.0,愛媛県,エヒメケン,EHIME KEN,38207.0,大洲市,オオズシ,OZU SHI,長浜,ナガハマオツ,NAGAHAMA OTSU,甲,33.613108,132.4827
348,西条西署管内,その他(暴言),令和4年1月25日(火)午後3時50分ころ,西条市丹原町池田の路上,小学生男女児数名が歩行中、交差点で接触しそうになった男に、謝罪をしたところ、同男から暴言を吐かれたもの。さらに、同男は、後続の小学生に対しても同様に暴言を吐いていた。,45~55歳位、中肉、身長170センチ位、スキンヘッド、上下作業着様の服,西条市丹原町池田の,西条市丹原町池田,0,その他(暴言),38.0,愛媛県,エヒメケン,EHIME KEN,38206.0,西条市,サイジョウシ,SAIJO SHI,丹原町池田,タンバラチョウイケダ,TAMBARACHO IKEDA,,33.912892,133.059078
349,大洲署管内,声かけ,令和4年1月25日(火)午前7時40分ころ,大洲市菅田町菅田の路上,女子中学生が歩行中、徒歩の男から「〇〇さんの家知っとる?」と声を掛けられ、女子中学生が指を差すも、男はその方向に行かず、女子中学生の後をつけたもの。,50歳位、やせ型、身長170センチ以下、黒色様の服、黒色様のズボン、黒色様のキャップ帽・黒色マスク着用、眼鏡なし,大洲市菅田町菅田の,大洲市菅田町菅田,0,green,38.0,愛媛県,エヒメケン,EHIME KEN,38207.0,大洲市,オオズシ,OZU SHI,菅田町菅田,スゲタチョウスゲタコウ,SUGETACHOSUGETAKO,,33.50695,132.588
350,大洲署管内,声かけ,令和4年1月25日(火)午前7時40分ころ,大洲市菅田町菅田の路上,女子中学生が歩行中、徒歩の男から「〇〇さんの家知っとる?」と声を掛けられ、女子中学生が指を差すも、男はその方向に行かず、女子中学生の後をつけたもの。,50歳位、やせ型、身長170センチ以下、黒色様の服、黒色様のズボン、黒色様のキャップ帽・黒色マスク着用、眼鏡なし,大洲市菅田町菅田の,大洲市菅田町菅田,0,green,38.0,愛媛県,エヒメケン,EHIME KEN,38207.0,大洲市,オオズシ,OZU SHI,菅田町菅田,スゲタチョウスゲタコウ,SUGETACHOSUGETAKO,甲,33.511248,132.586999
351,宇和島署管内,声かけ,令和4年1月25日(火)午前7時20分ころ,宇和島市中央町一丁目の路上,女子中学生2名が歩行中、対向から来た徒歩の男女数名とすれ違った際に、その内の男から「わーっ。」と大声で脅かされたもの。さらに、女子中学生等の前方を歩いていた小学生も同様の被害に遭っている。,20歳位、やせ型、身長175センチ位、ツンツン頭で明るめの茶髪、ブランドシャツ、青色デニムジャケット、青色デニムズボン、厚めのハイカットスニーカー着用、マスクなし,宇和島市中央町一丁目の,宇和島市中央町一丁目,0,green,38.0,愛媛県,エヒメケン,EHIME KEN,38203.0,宇和島市,ウワジマシ,UWAJIMA SHI,中央町一丁目,チュウオウチョウ 1,CHUOCHO 1,,33.220334,132.567955
352,大洲署管内,つきまとい,令和4年1月24日(月)午後4時15分ころ,大洲市新谷甲の路上,小学生男児が歩行中、水路を覗いていた男に挨拶をしたところ、無言で後をつけられたもの。,60~90歳位、中肉、身長150センチ位、黒色短髪、灰色ジャンパー、灰色ズボン,大洲市新谷甲の,大洲市新谷,0,blue,38.0,愛媛県,エヒメケン,EHIME KEN,38207.0,大洲市,オオズシ,OZU SHI,新谷,ニイヤ,NIIYA,,33.538365,132.608649
353,大洲署管内,つきまとい,令和4年1月24日(月)午後4時15分ころ,大洲市新谷甲の路上,小学生男児が歩行中、水路を覗いていた男に挨拶をしたところ、無言で後をつけられたもの。,60~90歳位、中肉、身長150センチ位、黒色短髪、灰色ジャンパー、灰色ズボン,大洲市新谷甲の,大洲市新谷,0,blue,38.0,愛媛県,エヒメケン,EHIME KEN,38207.0,大洲市,オオズシ,OZU SHI,新谷,ニイヤ,NIIYA,乙,33.534059,132.590817
354,大洲署管内,つきまとい,令和4年1月24日(月)午後4時15分ころ,大洲市新谷甲の路上,小学生男児が歩行中、水路を覗いていた男に挨拶をしたところ、無言で後をつけられたもの。,60~90歳位、中肉、身長150センチ位、黒色短髪、灰色ジャンパー、灰色ズボン,大洲市新谷甲の,大洲市新谷,0,blue,38.0,愛媛県,エヒメケン,EHIME KEN,38207.0,大洲市,オオズシ,OZU SHI,新谷,ニイヤ,NIIYA,田中,33.534267,132.588541
355,大洲署管内,つきまとい,令和4年1月24日(月)午後4時15分ころ,大洲市新谷甲の路上,小学生男児が歩行中、水路を覗いていた男に挨拶をしたところ、無言で後をつけられたもの。,60~90歳位、中肉、身長150センチ位、黒色短髪、灰色ジャンパー、灰色ズボン,大洲市新谷甲の,大洲市新谷,0,blue,38.0,愛媛県,エヒメケン,EHIME KEN,38207.0,大洲市,オオズシ,OZU SHI,新谷,ニイヤ,NIIYA,甲,33.537489,132.601945
356,大洲署管内,つきまとい,令和4年1月24日(月)午後4時15分ころ,大洲市新谷甲の路上,小学生男児が歩行中、水路を覗いていた男に挨拶をしたところ、無言で後をつけられたもの。,60~90歳位、中肉、身長150センチ位、黒色短髪、灰色ジャンパー、灰色ズボン,大洲市新谷甲の,大洲市新谷,0,blue,38.0,愛媛県,エヒメケン,EHIME KEN,38207.0,大洲市,オオズシ,OZU SHI,新谷,ニイヤ,NIIYA,蔵地,33.533314,132.584916
357,伊予署管内,つきまとい,令和4年1月21日(金)午後6時15分ころ,伊予郡松前町大字北川原から同町西高柳までの路上,女性が自転車で進行中、自転車に乗った男に並走されて「一人で帰ってるの?」と声を掛けられ、後をつけられたもの。なお、同女性は1月24日(月)午後6時15分ころにも、別ルートで移動していた際に、同男から「いつも一人で帰ってるの?」と声を掛けられ、後をつけられている。,35~40歳位、上下黒色の服、自転車利用、黒色マスク着用,伊予郡松前町大字北川原から同町西高柳までの,伊予郡松前町大字北川原から同町西高柳まで,0,blue,,,,,,,,,,,,,,
358,西条西署管内,写真撮影,令和4年1月21日(金)午後3時50分ころ,西条市国安の屋外施設,女性が子供と屋外施設にいたところ、ガラケーを掲げて施設内を徘徊する男から凝視されたうえ、子供にガラケーを向けられたもの。,40~50歳位、身長175センチ位、肥満、灰色パーカー、灰色スウェット、黒色帽子・白色マスク着用、白色又は灰色のガラケー所持,西条市国安の,西条市国安,0,lightred,38.0,愛媛県,エヒメケン,EHIME KEN,38206.0,西条市,サイジョウシ,SAIJO SHI,国安,クニヤス,KUNIYASU,,33.942973,133.071105
359,四国中央署管内,凝視,令和4年1月20日(木)午後4時10分ころ,四国中央市川之江町の路上,小学生女児2名が歩行中、前方を歩く男が振り返り、にやついた顔で凝視されたもの。,30~40歳位、身長170センチ位、中肉、黒色短髪、青色又は紺色のジャンパー、黒色長ズボン、左手にスマートフォン、右手に黒く尖ったもの所持,四国中央市川之江町の,四国中央市川之江町,2,凝視,38.0,愛媛県,エヒメケン,EHIME KEN,38213.0,四国中央市,シコクチュウオウシ,SHIKOKUCHUO SHI,川之江町,カワノエチョウ,KAWANOECHO,,34.014304,133.579682
360,四国中央署管内,凝視,令和4年1月20日(木)午後4時10分ころ,四国中央市川之江町の路上,小学生女児2名が歩行中、前方を歩く男が振り返り、にやついた顔で凝視されたもの。,30~40歳位、身長170センチ位、中肉、黒色短髪、青色又は紺色のジャンパー、黒色長ズボン、左手にスマートフォン、右手に黒く尖ったもの所持,四国中央市川之江町の,四国中央市川之江町,2,凝視,38.0,愛媛県,エヒメケン,EHIME KEN,38213.0,四国中央市,シコクチュウオウシ,SHIKOKUCHUO SHI,川之江町,カワノエチョウ,KAWANOECHO,塚田,34.000158,133.566627
361,四国中央署管内,凝視,令和4年1月20日(木)午後4時10分ころ,四国中央市川之江町の路上,小学生女児2名が歩行中、前方を歩く男が振り返り、にやついた顔で凝視されたもの。,30~40歳位、身長170センチ位、中肉、黒色短髪、青色又は紺色のジャンパー、黒色長ズボン、左手にスマートフォン、右手に黒く尖ったもの所持,四国中央市川之江町の,四国中央市川之江町,2,凝視,38.0,愛媛県,エヒメケン,EHIME KEN,38213.0,四国中央市,シコクチュウオウシ,SHIKOKUCHUO SHI,川之江町,カワノエチョウ,KAWANOECHO,横田,34.003925,133.565172
362,松山東署管内,つきまとい,令和4年1月19日(水)午後4時ころ,松山市余戸東五丁目の店舗駐車場内,小学生女児2名が店外へ出たところ、車に乗った男女3名(男2名、女1名)から凝視され、その後も行く先々で同男らと遭遇し、凝視されたもの。,運転手:60歳位、白髪混じり短髪、眼鏡なし、白色軽四貨物様使用、助手席乗車:50歳位の男、後部座席乗車:60歳位の女,松山市余戸東五丁目の,松山市余戸東五丁目,0,blue,38.0,愛媛県,エヒメケン,EHIME KEN,38201.0,松山市,マツヤマシ,MATSUYAMA SHI,余戸東五丁目,ヨウゴヒガシ 5,YOGOHIGASHI 5,,33.817713,132.738917
