,管轄署,種別,日時,場所,状況,特徴,住所,address,count,color,都道府県コード,都道府県名,都道府県名カナ,都道府県名ローマ字,市区町村コード,市区町村名,市区町村名カナ,市区町村名ローマ字,大字町丁目名,大字町丁目名カナ,大字町丁目名ローマ字,小字・通称名,緯度,経度
0,松山南署管内,不審者,令和3年11月8日(月)午後4時20分ころ,東温市北野田の路上,小学生女児2名が歩行中、後方から近づいてきた車が速度を落とし、車の後部座席に乗った男からニヤニヤした顔つきで見られたもの。,30〜40歳位、黒色短髪、黒色様の服、白色の自動車利用(箱型)、マスク・眼鏡なし,東温市北野田の,東温市北野田,0,purple,38.0,愛媛県,エヒメケン,EHIME KEN,38215.0,東温市,トウオンシ,TOON SHI,北野田,キタノダ,KITANODA,,33.793893,132.832002
1,松山南署管内,つきまとい,令和3年11月7日(日)午後9時45分ころ,松山市福音寺町の路上,男子高校生が自転車で移動中、後方を自転車に乗った男につきまとわれたもの。,若い、軽快兼用自転車様利用(前カゴ付き、前カゴに白色とエンジ色のカバン積載),松山市福音寺町の,松山市福音寺町,0,blue,38.0,愛媛県,エヒメケン,EHIME KEN,38201.0,松山市,マツヤマシ,MATSUYAMA SHI,福音寺町,フクオンジマチ,FUKUONJIMACHI,,33.821822,132.790842
2,宇和島署管内,声かけ,令和3年11月7日(日)午後4時30分ころ,宇和島市伊吹町甲の路上,小学生男児が歩行中、男から「どこに住んでいるの、どこの小学校。」などと声を掛けられ、数十メートル追いかけられたもの。,70歳位、黒色短髪、茶色Tシャツ、黒色ズボン、黒色キャップ帽・黒色靴着用,宇和島市伊吹町甲の,宇和島市伊吹町,0,green,38.0,愛媛県,エヒメケン,EHIME KEN,38203.0,宇和島市,ウワジマシ,UWAJIMA SHI,伊吹町,イブキチョウ,IBUKICHO,,33.234583,132.579287
3,宇和島署管内,声かけ,令和3年11月7日(日)午後4時30分ころ,宇和島市伊吹町甲の路上,小学生男児が歩行中、男から「どこに住んでいるの、どこの小学校。」などと声を掛けられ、数十メートル追いかけられたもの。,70歳位、黒色短髪、茶色Tシャツ、黒色ズボン、黒色キャップ帽・黒色靴着用,宇和島市伊吹町甲の,宇和島市伊吹町,0,green,38.0,愛媛県,エヒメケン,EHIME KEN,38203.0,宇和島市,ウワジマシ,UWAJIMA SHI,伊吹町,イブキチョウ,IBUKICHO,北宇和島町,33.237717,132.565731
4,宇和島署管内,声かけ,令和3年11月7日(日)午後4時30分ころ,宇和島市伊吹町甲の路上,小学生男児が歩行中、男から「どこに住んでいるの、どこの小学校。」などと声を掛けられ、数十メートル追いかけられたもの。,70歳位、黒色短髪、茶色Tシャツ、黒色ズボン、黒色キャップ帽・黒色靴着用,宇和島市伊吹町甲の,宇和島市伊吹町,0,green,38.0,愛媛県,エヒメケン,EHIME KEN,38203.0,宇和島市,ウワジマシ,UWAJIMA SHI,伊吹町,イブキチョウ,IBUKICHO,上井関,33.237591,132.568252
5,宇和島署管内,声かけ,令和3年11月7日(日)午後4時30分ころ,宇和島市伊吹町甲の路上,小学生男児が歩行中、男から「どこに住んでいるの、どこの小学校。」などと声を掛けられ、数十メートル追いかけられたもの。,70歳位、黒色短髪、茶色Tシャツ、黒色ズボン、黒色キャップ帽・黒色靴着用,宇和島市伊吹町甲の,宇和島市伊吹町,0,green,38.0,愛媛県,エヒメケン,EHIME KEN,38203.0,宇和島市,ウワジマシ,UWAJIMA SHI,伊吹町,イブキチョウ,IBUKICHO,カネツキ田,33.239498,132.569463
6,松山西署管内,声かけ,令和3年11月7日(日)午後2時ころ,松山市鴨川三丁目の路上,男子中学生4名が自動販売機で飲み物を買おうとしたところ、突然背後から来た男に自動販売機のボタンを押されそうになった上、暴言を吐かれたもの。,70歳位、やせ型、身長160センチ位、黒色キャップ帽着用、煙草を吸っていた,松山市鴨川三丁目の,松山市鴨川三丁目,0,green,38.0,愛媛県,エヒメケン,EHIME KEN,38201.0,松山市,マツヤマシ,MATSUYAMA SHI,鴨川三丁目,カモガワ 3,KAMOGAWA 3,,33.874015,132.748778
7,松山南署管内,声かけ,令和3年11月6日(土)の日中,東温市志津川南の公園内,小学生男児が公園で遊んでいたところ、男に「帰れ、帰れ。」と大声で言われたもの。,高齢,東温市志津川南の,東温市志津川南,0,green,,,,,,,,,,,,,,
8,西条署管内,声かけ,令和3年11月5日(金)午後5時30分ころ,西条市神拝乙の店舗内,女子高校生が店舗内にいたところ、男から「高校はどこですか?」等と声を掛けられた後、「眼鏡は曇ってないですけど、どんな眼鏡なんですか?」と言って、掛けている眼鏡を触られ、手に取って見られたもの。,40歳位、中肉、身長160センチ位、肩付近までの長さの白髪混じり、白色ジャージ(腕に黒色の1本ライン入り)、黒縁眼鏡着用,西条市神拝乙の,西条市神拝,0,green,,,,,,,,,,,,,,
9,四国中央署管内,声かけ,令和3年11月5日(金)午後4時ころ,四国中央市妻鳥町の店舗敷地内,女性が店舗で買い物を終え、店外に出たところ、面識のない男に背後からカバンの紐を引かれ、「久し振り。」「LINE交換しようか。」等と声を掛けられたもの。,50歳位、中肉、身長170センチ位、黒色短髪(スポーツ刈り)、黒色長袖シャツ、ジーンズ様ズボン、スマートフォン所持,四国中央市妻鳥町の,四国中央市妻鳥町,0,green,38.0,愛媛県,エヒメケン,EHIME KEN,38213.0,四国中央市,シコクチュウオウシ,SHIKOKUCHUO SHI,妻鳥町,メンドリチョウ,MENDORICHO,,33.991779,133.572307
10,四国中央署管内,声かけ,令和3年11月5日(金)午後4時ころ,四国中央市妻鳥町の店舗敷地内,女性が店舗で買い物を終え、店外に出たところ、面識のない男に背後からカバンの紐を引かれ、「久し振り。」「LINE交換しようか。」等と声を掛けられたもの。,50歳位、中肉、身長170センチ位、黒色短髪(スポーツ刈り)、黒色長袖シャツ、ジーンズ様ズボン、スマートフォン所持,四国中央市妻鳥町の,四国中央市妻鳥町,0,green,38.0,愛媛県,エヒメケン,EHIME KEN,38213.0,四国中央市,シコクチュウオウシ,SHIKOKUCHUO SHI,妻鳥町,メンドリチョウ,MENDORICHO,樋ノ上,33.987248,133.571502
11,四国中央署管内,声かけ,令和3年11月5日(金)午後4時ころ,四国中央市妻鳥町の店舗敷地内,女性が店舗で買い物を終え、店外に出たところ、面識のない男に背後からカバンの紐を引かれ、「久し振り。」「LINE交換しようか。」等と声を掛けられたもの。,50歳位、中肉、身長170センチ位、黒色短髪(スポーツ刈り)、黒色長袖シャツ、ジーンズ様ズボン、スマートフォン所持,四国中央市妻鳥町の,四国中央市妻鳥町,0,green,38.0,愛媛県,エヒメケン,EHIME KEN,38213.0,四国中央市,シコクチュウオウシ,SHIKOKUCHUO SHI,妻鳥町,メンドリチョウ,MENDORICHO,長束,33.997841,133.572828
12,四国中央署管内,声かけ,令和3年11月5日(金)午後4時ころ,四国中央市妻鳥町の店舗敷地内,女性が店舗で買い物を終え、店外に出たところ、面識のない男に背後からカバンの紐を引かれ、「久し振り。」「LINE交換しようか。」等と声を掛けられたもの。,50歳位、中肉、身長170センチ位、黒色短髪(スポーツ刈り)、黒色長袖シャツ、ジーンズ様ズボン、スマートフォン所持,四国中央市妻鳥町の,四国中央市妻鳥町,0,green,38.0,愛媛県,エヒメケン,EHIME KEN,38213.0,四国中央市,シコクチュウオウシ,SHIKOKUCHUO SHI,妻鳥町,メンドリチョウ,MENDORICHO,上樋之上,33.986515,133.573439
13,西条西署管内,声かけ,令和3年11月5日(金)午後3時15分ころ,西条市北条の路上,小学生男児が歩行中、後方から自転車で近づいてきた男に「家どこ?」「1キロ位ある?」と声を掛けられたもの。,やせ型、身長160センチ以上、黒色フード付きの服、黒色長ズボン様、ママチャリ様の自転車利用、フードを被っていた、口周りに無精ひげ、声が低い,西条市北条の,西条市北条,0,green,38.0,愛媛県,エヒメケン,EHIME KEN,38206.0,西条市,サイジョウシ,SAIJO SHI,北条,ホウジョウ,HOJO,,33.930116,133.101932
14,松山西署管内,不審者,令和3年11月5日(金)午後3時ころ,松山市北斎院町の路上,女性2名がそれぞれベビーカーを押しながら歩いていたところ、同じ場所を自転車で何度も往復するなどしていた男から凝視されたもの。,40歳位、小肥、身長160〜170センチ位、耳にかからない程度のパーマ頭の黒髪、紺色ブルゾン(中央に白色ライン入り)、黒色様ズボン、自転車利用(ママチャリ)、眼鏡・マスク・髭なし,松山市北斎院町の,松山市北斎院町,0,purple,38.0,愛媛県,エヒメケン,EHIME KEN,38201.0,松山市,マツヤマシ,MATSUYAMA SHI,北斎院町,キタサヤチョウ,KITASAYACHO,,33.839402,132.723636
15,松山南署管内,不審者,令和3年11月5日(金)午後2時10分ころ,松山市古川北一丁目の路上,女子中学生2名が自転車で移動中、後方にいた自転車乗車の男が「キャー。」等と奇声を発したり、自転車の前輪を地面に叩きつける姿を目撃したもの。,50〜70歳位、やせ型、白色短髪、黒色と灰色のチェック柄半袖シャツ、カーキ色スウェット長ズボン、自転車利用(白色、カゴ付き(積載物なし))、色黒、眼鏡・マスクなし,松山市古川北一丁目の,松山市古川北一丁目,0,purple,38.0,愛媛県,エヒメケン,EHIME KEN,38201.0,松山市,マツヤマシ,MATSUYAMA SHI,古川北一丁目,フルカワキタ 1,FURUKAWAKITA 1,,33.814687,132.764287
16,今治署管内,写真撮影,令和3年11月4日(木)午後4時40分ころ,今治市北宝来町のバス停に停車中のバス車内,女子高校生がバスに乗車しようとしたところ、乗車口付近に座っていた男から携帯電話機を向けられ、写真を撮られたもの。,30歳位、やせ型、黒色の服、黒色キャップ帽着用、ガラケー所持,今治市北宝来町のバス停に停車中のバス車内,今治市北宝来町のバス停に停車中のバス車内,0,lightred,,,,,,,,,,,,,,
17,愛南署管内,声かけ,令和3年11月4日(木)午後4時10分ころ,南宇和郡愛南町一本松の路上,小学生男女児10名が歩行中、横断歩道を渡り終えたところで、停止していた車の運転手から「ボケ、コラッ。」等と怒鳴られたもの。,60歳位の男、ハゲ頭、銀色の軽四乗用自動車利用、眼鏡着用,南宇和郡愛南町一本松の,南宇和郡愛南町一本松,0,green,38.0,愛媛県,エヒメケン,EHIME KEN,38506.0,南宇和郡愛南町,ミナミウワグンアイナンチョウ,MINAMIUWA GUN AINAN CHO,一本松,イッポンマツ,IPPOMMATSU,,32.961864,132.64877
18,大洲署管内,つきまとい,令和3年11月3日(水)午後6時45分ころ,喜多郡内子町内子の路上,女子中学生が歩行中、後方にいる男がライトを照らし、一定の距離を保ってついてきたことから、後をつけられた可能性があるもの。,20〜30歳位、身長175センチ位、小肥、懐中電灯様のもの所持,喜多郡内子町内子の,喜多郡内子町内子,0,blue,38.0,愛媛県,エヒメケン,EHIME KEN,38422.0,喜多郡内子町,キタグンウチコチョウ,KITA GUN UCHIKO CHO,内子,ウチコ,UCHIKO,,33.551735,132.647879
19,宇和島署管内,身体接触,令和3年11月2日(火)午後5時ころ,宇和島市津島町岩松の路上,女子中学生が歩行中、後ろから「ねぇ、ねぇ。」と声をかけてきた男に手を掴まれたもの。,30〜50歳位、身長175センチ位、中肉、白色短髪、上下黒色ジャージ(白色ロゴ・腕とズボン側面に白色ライン入り),宇和島市津島町岩松の,宇和島市津島町岩松,0,身体接触,38.0,愛媛県,エヒメケン,EHIME KEN,38203.0,宇和島市,ウワジマシ,UWAJIMA SHI,津島町岩松,ツシマチョウイワマツ,TSUSHIMACHO IWAMATSU,,33.11825,132.499587
20,宇和島署管内,身体接触,令和3年11月2日(火)午後5時ころ,宇和島市津島町岩松の路上,女子中学生が歩行中、後ろから「ねぇ、ねぇ。」と声をかけてきた男に手を掴まれたもの。,30〜50歳位、身長175センチ位、中肉、白色短髪、上下黒色ジャージ(白色ロゴ・腕とズボン側面に白色ライン入り),宇和島市津島町岩松の,宇和島市津島町岩松,0,身体接触,38.0,愛媛県,エヒメケン,EHIME KEN,38203.0,宇和島市,ウワジマシ,UWAJIMA SHI,津島町岩松,ツシマチョウイワマツ,TSUSHIMACHO IWAMATSU,甲,33.125555,132.520576
21,松山東署管内,写真撮影,令和3年10月31日(日)午後2時ころ,松山市湊町七丁目の路上,女性が施設敷地内にいたところ、路上を歩く男からしばらくの間、デジタルカメラを向けられたもの。,60〜70歳位、身長170センチ位、中肉、紺色長袖襟付シャツ、ベージュ色長ズボン、明色のハット帽・マスク着用、デジタルカメラ所持,松山市湊町七丁目の,松山市湊町七丁目,0,lightred,38.0,愛媛県,エヒメケン,EHIME KEN,38201.0,松山市,マツヤマシ,MATSUYAMA SHI,湊町七丁目,ミナトマチ 7,MINATOMACHI 7,,33.835713,132.755855
22,今治署管内,声かけ,令和3年10月29日(金)午後7時20分ころ,今治市喜田村一丁目の路上,女子中学生が自転車で進行中、脇道から出てきた車両が停車し、降車した男に「こんなとこで寒くない?」と声を掛けられ、手首を掴まれたもの。,40歳位、中肉、身長160〜165センチ位、黒色短髪、白色上着、軽四自動車利用(茶色又は黒色)、白色マスク着用、眼鏡なし,今治市喜田村一丁目の,今治市喜田村一丁目,0,green,38.0,愛媛県,エヒメケン,EHIME KEN,38202.0,今治市,イマバリシ,IMABARI SHI,喜田村一丁目,キタムラ 1,KITAMURA 1,,34.045455,133.018533
23,松山西署管内,暴行,令和3年10月29日(金)午前8時ころ,松山市山西町の路上,女子高校生が歩行中、路上に立っていた男の横を通過する際、肩をぶつけられたもの。,30〜40歳位、身長170センチ位、中肉、帽子着用、黒色リュックサック所持、眼鏡なし,松山市山西町の,松山市山西町,0,red,38.0,愛媛県,エヒメケン,EHIME KEN,38201.0,松山市,マツヤマシ,MATSUYAMA SHI,山西町,ヤマニシチョウ,YAMANISHICHO,,33.850954,132.727614
24,新居浜署管内,つきまとい,令和3年10月28日(木)午後5時ころ,新居浜市新須賀町三丁目の路上,小学生女児が友人と歩行中、男から凝視されたり、後方をつきまとわれたりしたもの。なお、小学生女児はこれまでに4回位男を目撃している。,黒色上着、紺色ズボン、白色マスク着用,新居浜市新須賀町三丁目の,新居浜市新須賀町三丁目,0,blue,38.0,愛媛県,エヒメケン,EHIME KEN,38205.0,新居浜市,ニイハマシ,NIIHAMA SHI,新須賀町三丁目,シンスカチョウ 3,SHINSUKACHO 3,,33.970112,133.284847
25,松山南署管内,声かけ,令和3年10月28日(木)午後3時30分ころ,松山市古川北二丁目の路上,小学生男児が自転車で移動中、男からアニメのタイトルを言われ、「好き?」等と声を掛けられたもの。5月ころにも同様に声を掛けられている。,40〜60歳位、黒色短髪、マスク着用(アニメのキャラクターのプリント入り),松山市古川北二丁目の,松山市古川北二丁目,0,green,38.0,愛媛県,エヒメケン,EHIME KEN,38201.0,松山市,マツヤマシ,MATSUYAMA SHI,古川北二丁目,フルカワキタ 2,FURUKAWAKITA 2,,33.812643,132.764322
26,新居浜署管内,声かけ,令和3年10月27日(水)午後5時30分ころ,新居浜市東田一丁目の路上,女子高校生が自転車で移動中、路上に座り込んでいた男から「こんにちは、こんにちは。」と何度も挨拶され、返事をすると、近くに停めていた自転車で後をつけられそうになったもの。,高齢、中肉、ボサボサの長髪、上下汚れた服、自転車利用,新居浜市東田一丁目の,新居浜市東田一丁目,0,green,38.0,愛媛県,エヒメケン,EHIME KEN,38205.0,新居浜市,ニイハマシ,NIIHAMA SHI,東田一丁目,トウダ 1,TODA 1,,33.946951,133.315367
27,松山東署管内,つきまとい,令和3年10月27日(水)午後3時30分ころ,松山市小栗七丁目の路上,女子中学生が歩行中、男から腕を掴まれ「ガラス屋さんどこですか。」と声を掛けられた後、自転車で後方をつきまとわれたもの。翌日午前中も、同男につきまとわれている。,60〜70歳位、中肉、黒色の服、黒色長ズボン、自転車利用、マスクなし,松山市小栗七丁目の,松山市小栗七丁目,0,blue,38.0,愛媛県,エヒメケン,EHIME KEN,38201.0,松山市,マツヤマシ,MATSUYAMA SHI,小栗七丁目,オグリ 7,OGURI 7,,33.827044,132.753069
28,西条署管内,身体露出,令和3年10月26日(火)午後6時ころ,西条市飯岡の路上,路上を走る男が急に物陰に隠れたのを不審に思った通行人が、隠れた方向を確認したところ、男の全身が肌色(肌色の服又は全裸)であったもの。,15〜30歳位、身長175センチ位、やせ型、サイドを刈り上げたやや長めの黒髪、左腕に布様のものを巻いていた、丸顔、眼鏡・マスクなし,西条市飯岡の,西条市飯岡,0,orange,38.0,愛媛県,エヒメケン,EHIME KEN,38206.0,西条市,サイジョウシ,SAIJO SHI,飯岡,イイオカ,IIOKA,,33.914907,133.224739
29,西条署管内,身体露出,令和3年10月26日(火)午後6時ころ,西条市飯岡の路上,路上を走る男が急に物陰に隠れたのを不審に思った通行人が、隠れた方向を確認したところ、男の全身が肌色(肌色の服又は全裸)であったもの。,15〜30歳位、身長175センチ位、やせ型、サイドを刈り上げたやや長めの黒髪、左腕に布様のものを巻いていた、丸顔、眼鏡・マスクなし,西条市飯岡の,西条市飯岡,0,orange,38.0,愛媛県,エヒメケン,EHIME KEN,38206.0,西条市,サイジョウシ,SAIJO SHI,飯岡,イイオカ,IIOKA,地蔵原,33.908638,133.214701
30,伊予署管内,つきまとい,令和3年10月26日(火)午後5時ころ,伊予郡松前町大字筒井から同町大字浜までの路上,小学生女児が歩行中、後方を歩く男から約10メートルの距離を保ちつつ、つきまとわれたもの。,50〜60歳位、身長170センチ位、中肉、灰色帽子・白色マスク着用,伊予郡松前町大字筒井から同町大字浜までの,伊予郡松前町大字筒井から同町大字浜まで,0,blue,,,,,,,,,,,,,,
31,四国中央署管内,つきまとい,令和3年10月26日(火)午後4時20分ころ,四国中央市寒川町の路上,小学生女児が、路上に立っていた男の前方を徒歩にて通り過ぎたところ、後方をつきまとわれたもの。,60〜70歳位、中肉、紺色様ジャンパー、黒色様ズボン、キャップ帽着用,四国中央市寒川町の,四国中央市寒川町,0,blue,38.0,愛媛県,エヒメケン,EHIME KEN,38213.0,四国中央市,シコクチュウオウシ,SHIKOKUCHUO SHI,寒川町,サンガワチョウ,SANGAWACHO,,33.952462,133.507717
32,四国中央署管内,つきまとい,令和3年10月26日(火)午後4時20分ころ,四国中央市寒川町の路上,小学生女児が、路上に立っていた男の前方を徒歩にて通り過ぎたところ、後方をつきまとわれたもの。,60〜70歳位、中肉、紺色様ジャンパー、黒色様ズボン、キャップ帽着用,四国中央市寒川町の,四国中央市寒川町,0,blue,38.0,愛媛県,エヒメケン,EHIME KEN,38213.0,四国中央市,シコクチュウオウシ,SHIKOKUCHUO SHI,寒川町,サンガワチョウ,SANGAWACHO,大門,33.967211,133.503062
33,新居浜署管内,不審者,令和3年10月25日(月)午後6時30分ころ,新居浜市徳常町の路上,男性が建物敷地内に到着した際、自転車乗車の男が近付いてきたことから声をかけたところ、男が驚いた様子で、声掛けを無視して立ち去ったもの。,30歳位、中肉、身長165〜170センチ位、黒色様でボサっとした感じの長めの髪、上下薄緑色の作業着、自転車利用(通学用様、ハンドルが一文字)、眼鏡あり,新居浜市徳常町の,新居浜市徳常町,0,purple,38.0,愛媛県,エヒメケン,EHIME KEN,38205.0,新居浜市,ニイハマシ,NIIHAMA SHI,徳常町,トクツネチョウ,TOKUTSUNECHO,,33.964347,133.280812
34,松山西署管内,つきまとい,令和3年10月24日(日)時間不明,松山市南吉田町から同市西垣生町までの路上,女性が車を運転中、軽四箱バンに後方をつきまとわれたもの。その後、女性が建物敷地内に駐車しようとしたところ、行為者は車を転回させ立ち去り。,白色の軽四貨物自動車利用(箱バン),松山市南吉田町から同市西垣生町までの,松山市南吉田町から同市西垣生町まで,0,blue,,,,,,,,,,,,,,
35,松山南署管内,つきまとい,令和3年10月24日(日)午後7時ころ,東温市志津川の路上,女性が歩行中、車にて低速で通り過ぎた男がUターン後に降車し、走って近付いてきたもの。男はそのまま走って通り過ぎている。,60歳位、中肉、身長165〜170センチ位、耳にかかる位の長さの白髪混じり、上下黒色作業着様、白色の軽四貨物自動車利用(箱バン)、眼鏡あり,東温市志津川の,東温市志津川,0,blue,38.0,愛媛県,エヒメケン,EHIME KEN,38215.0,東温市,トウオンシ,TOON SHI,志津川,シツカワ,SHITSUKAWA,,33.809495,132.875036
36,松山東署管内,つきまとい,令和3年10月23日(土)午後9時ころ,松山市清水町三丁目の路上,女性2名が自転車で並走中、後方からきた自転車乗車の男に間を割るようにして追い抜かれた後、Uターンして再度間に割り込まれるという行為を繰り返され、つきまとわれたもの。,50歳位、中肉、身長170センチ位、薄毛の黒色短髪、灰色ジャンパー、黒色長ズボン、自転車利用、眼鏡着用、ヘルメットなし,松山市清水町三丁目の,松山市清水町三丁目,0,blue,38.0,愛媛県,エヒメケン,EHIME KEN,38201.0,松山市,マツヤマシ,MATSUYAMA SHI,清水町三丁目,シミズマチ 3,SHIMIZUMACHI 3,,33.852554,132.765794
37,西条署管内,不審者,令和3年10月23日(土)午後7時30分ころ,西条市大町の路上,女子中学生が自転車で移動中、路地から突然現れた男に凝視されたもの。,灰色トレーナー、面長、帽子・眼鏡・マスクなし,西条市大町の,西条市大町,0,purple,38.0,愛媛県,エヒメケン,EHIME KEN,38206.0,西条市,サイジョウシ,SAIJO SHI,大町,オオマチ,OMACHI,,33.911624,133.189252
38,西条署管内,不審者,令和3年10月23日(土)午後7時30分ころ,西条市大町の路上,女子中学生が自転車で移動中、路地から突然現れた男に凝視されたもの。,灰色トレーナー、面長、帽子・眼鏡・マスクなし,西条市大町の,西条市大町,0,purple,38.0,愛媛県,エヒメケン,EHIME KEN,38206.0,西条市,サイジョウシ,SAIJO SHI,大町,オオマチ,OMACHI,福森,33.912953,133.188923
39,四国中央署管内,暴行,令和3年10月22日(金)午後5時ころ,四国中央市上分町の路上,小学生男児が自転車で信号待ちをしていたところ、徒歩の男から急に自転車を蹴られたもの。,白色マスク着用,四国中央市上分町の,四国中央市上分町,0,red,38.0,愛媛県,エヒメケン,EHIME KEN,38213.0,四国中央市,シコクチュウオウシ,SHIKOKUCHUO SHI,上分町,カミブンチョウ,KAMIBUNCHO,,33.989088,133.588503
40,四国中央署管内,声かけ,令和3年10月21日(木)午後7時30分ころ,四国中央市土居町の駅構内,女性が駅で列車を降りたところ、駅構内にいた男に「お姉さん。」と声をかけられ、意味不明なことを言われたもの。,40歳位、やせ型、身長170センチ位、スポーツ刈りの黒色短髪、上下黒色の服、口周りに短い髭あり,四国中央市土居町の駅構内,四国中央市土居町の駅構内,0,green,,,,,,,,,,,,,,
41,新居浜署管内,つきまとい,令和3年10月21日(木)午後7時ころ,新居浜市船木の路上,女性が娘と歩行中、車に乗った男から付近を繰り返し低速で走行された上、前方に割り込むように車を停められたもの。,普通車利用(白色様、セダンタイプ),新居浜市船木の,新居浜市船木,0,blue,38.0,愛媛県,エヒメケン,EHIME KEN,38205.0,新居浜市,ニイハマシ,NIIHAMA SHI,船木,フナキ,FUNAKI,,33.925772,133.343366
42,新居浜署管内,つきまとい,令和3年10月21日(木)午後7時ころ,新居浜市船木の路上,女性が娘と歩行中、車に乗った男から付近を繰り返し低速で走行された上、前方に割り込むように車を停められたもの。,普通車利用(白色様、セダンタイプ),新居浜市船木の,新居浜市船木,0,blue,38.0,愛媛県,エヒメケン,EHIME KEN,38205.0,新居浜市,ニイハマシ,NIIHAMA SHI,船木,フナキ,FUNAKI,池田,33.939464,133.331824
43,新居浜署管内,つきまとい,令和3年10月21日(木)午後7時ころ,新居浜市船木の路上,女性が娘と歩行中、車に乗った男から付近を繰り返し低速で走行された上、前方に割り込むように車を停められたもの。,普通車利用(白色様、セダンタイプ),新居浜市船木の,新居浜市船木,0,blue,38.0,愛媛県,エヒメケン,EHIME KEN,38205.0,新居浜市,ニイハマシ,NIIHAMA SHI,船木,フナキ,FUNAKI,長野,33.94444,133.345723
44,松山西署管内,つきまとい,令和3年10月21日(木)午後5時20分ころ,松山市祓川一丁目の路上,女子中学生が歩行中、後方を歩く男に、一定の距離を保ちながらつきまとわれたもの。,30歳位、身長170センチ位、やせ型、黒色短髪、紺色ジージャン、紺色ジーンズ、眼鏡・マスクなし,松山市祓川一丁目の,松山市祓川一丁目,0,blue,38.0,愛媛県,エヒメケン,EHIME KEN,38201.0,松山市,マツヤマシ,MATSUYAMA SHI,祓川一丁目,ハライカワ 1,HARAIKAWA 1,,33.858646,132.720781
45,西条署管内,つきまとい,令和3年10月21日(木)午後5時ころ,西条市下島山甲から同市飯岡までの路上,女子中学生が友人とともに自転車で移動中、車両に乗った男に後方を追随されたもの。車両の助手席には女性が乗っていた。,白色普通乗用車(セダン型),西条市下島山甲から同市飯岡までの,西条市下島山甲から同市飯岡まで,0,blue,,,,,,,,,,,,,,
46,松山南署管内,声かけ,令和3年10月21日(木)午後4時30分ころ,東温市南方の路上,小学生男児が歩行中、車に乗った男から「おうちどこ。」等と声をかけられたもの。,30歳位、短髪、軽四自動車利用(黒色様、車の後部座席にダンボール積載)、黒色サングラス・黒色マスク着用、色黒,東温市南方の,東温市南方,0,green,38.0,愛媛県,エヒメケン,EHIME KEN,38215.0,東温市,トウオンシ,TOON SHI,南方,ミナミガタ,MINAMIGATA,,33.788918,132.902291
47,松山東署管内,のぞき・盗撮,令和3年10月19日(火)午後7時35分ころ,松山市束本一丁目の店舗,女子高校生が店舗内で陳列棚を見ていたところ、足に何かが当たり、振り返ると、女子高校生の直ぐ後方で携帯電話を手に持った男が立ち上がろうとしていたもの。男は、何事もなかったように携帯電話を耳に当て、立ち去った。,20〜30歳位、中肉、身長170センチ位、黒色短髪、黒色様長袖上着、水色様シャツ、黒色様スキニーズボン、黒色マスク・黒と灰色運動靴(ソール白色)着用、黒色手提げバッグ所持,松山市束本一丁目の,松山市束本一丁目,0,pink,38.0,愛媛県,エヒメケン,EHIME KEN,38201.0,松山市,マツヤマシ,MATSUYAMA SHI,束本一丁目,ツカモト 1,TSUKAMOTO 1,,33.832743,132.787183
48,新居浜署管内,声かけ,令和3年10月19日(火)午後4時20分ころ,新居浜市東田一丁目の路上,小学生男児が歩行中、後方から車が近き、運転手の女から助手席窓越しに「お母さんの友達なんやけど、お母さんが仕事中で倒れた。」と声を掛けられたもの。,40歳位、肩にかかる長さの黒髪、自動車利用,新居浜市東田一丁目の,新居浜市東田一丁目,1,green,38.0,愛媛県,エヒメケン,EHIME KEN,38205.0,新居浜市,ニイハマシ,NIIHAMA SHI,東田一丁目,トウダ 1,TODA 1,,33.946951,133.315367
49,松山西署管内,つきまとい,令和3年10月16日(土)午後5時30分ころ,松山市北斎院町の路上,女子中高生2名が自転車で移動中、スクーターに2人乗りした男から接近されたり、前方に回って進路を塞がれるなどしてつきまとわれたもの。,10代の男、中肉、暗色の髪、赤色Tシャツ、スクーター型のバイク利用、ノーへル、同伴者:10代の男、中肉、暗色の髪、黒色様Tシャツ,松山市北斎院町の,松山市北斎院町,1,blue,38.0,愛媛県,エヒメケン,EHIME KEN,38201.0,松山市,マツヤマシ,MATSUYAMA SHI,北斎院町,キタサヤチョウ,KITASAYACHO,,33.839402,132.723636
50,宇和島署管内,つきまとい,令和3年10月16日(土)午後1時30分ころ,宇和島市中沢町二丁目から同市山際三丁目までの路上,女子中学生が歩行中、男から「お菓子あげるから住所教えて。」などと声を掛けられ、しばらくの間、つきまとわれたもの。,20〜40歳位、中肉、身長180センチ位、黒色短髪、黒色シャツ、黒色作業着様ズボン、黒色サングラス・白色マスク着用,宇和島市中沢町二丁目から同市山際三丁目までの,宇和島市中沢町二丁目から同市山際三丁目まで,0,blue,,,,,,,,,,,,,,
51,宇和島署管内,つきまとい,令和3年10月15日(金)午後6時30分ころ,宇和島市中沢町二丁目の路上,女子中学生が歩行中、後方を歩く男から走って離れようとしたところ、男も走り出し、つきまとわれたもの。,やせ型、身長170〜180センチ位、黒髪、黒色の服,宇和島市中沢町二丁目の,宇和島市中沢町二丁目,0,blue,38.0,愛媛県,エヒメケン,EHIME KEN,38203.0,宇和島市,ウワジマシ,UWAJIMA SHI,中沢町二丁目,ナカザワチョウ 2,NAKAZAWACHO 2,,33.206331,132.555416
52,松山南署管内,不審者,令和3年10月15日(金)午後5時25分ころ,松山市久米窪田町の路上,小学生男児が路上にしゃがみ込んでいたところ、対向から自動車で近づいてきた男に、運転席窓から、手に持ったタバコを当てられそうになったもの。,65歳位、白髪、白色軽四貨物自動車,松山市久米窪田町の,松山市久米窪田町,0,purple,38.0,愛媛県,エヒメケン,EHIME KEN,38201.0,松山市,マツヤマシ,MATSUYAMA SHI,久米窪田町,クメクボタマチ,KUMEKUBOTAMACHI,,33.804652,132.811203
53,松山西署管内,声かけ,令和3年10月14日(木)午後4時30分ころ,松山市東垣生町の路上,女性が子供や他の保護者らと路上にいたところ、徒歩で近づいてきた男に声をかけられたもの。,70歳位、身長160センチ位、小肥、灰色ベスト、紺色ズボン、紺色で両サイドが白色のキャップ帽,松山市東垣生町の,松山市東垣生町,0,green,38.0,愛媛県,エヒメケン,EHIME KEN,38201.0,松山市,マツヤマシ,MATSUYAMA SHI,東垣生町,ヒガシハブマチ,HIGASHIHABUMACHI,,33.813135,132.714338
54,愛南署管内,声かけ,令和3年10月14日(木)午後4時10分ころ,南宇和郡愛南町御荘平城の路上,小学生女児が歩行中、後方から自転車で近づいてきた男に「何年生?」「若いね」などと声をかけられたもの。,65歳位、中肉、白髪混じりの短髪、半袖Tシャツ、黒色様短パン、眼鏡・マスクなし、黒色様リュックを自転車前カゴに積載、黒っぽいママチャリ様使用,南宇和郡愛南町御荘平城の,南宇和郡愛南町御荘平城,0,green,38.0,愛媛県,エヒメケン,EHIME KEN,38506.0,南宇和郡愛南町,ミナミウワグンアイナンチョウ,MINAMIUWA GUN AINAN CHO,御荘平城,ミショウヒラジョウ,MISHO HIRAJO,,32.961863,132.56274
55,松山南署管内,声かけ,令和3年10月14日(木)午後4時ころ,松山市和泉南六丁目の路上,小学生女児2名が歩行中、自転車のチェーンを直している様子で指を怪我していた男から「怪我をした。」「その服で巻いてや。」などと声を掛けられ、帽子のつばを持ち上げられたり、腕を掴まれるなどしたもの。,50〜70歳位、やせ型、身長160センチ位、白色か灰色作業着(胸部に刺繍あり)、自転車利用(赤茶色、ママチャリ様、前カゴ付き)、マスク着用、酒に酔っていた様子,松山市和泉南六丁目の,松山市和泉南六丁目,0,green,38.0,愛媛県,エヒメケン,EHIME KEN,38201.0,松山市,マツヤマシ,MATSUYAMA SHI,和泉南六丁目,イズミミナミ 6,IZUMIMINAMI 6,,33.811151,132.758819
56,松山南署管内,つきまとい,令和3年10月14日(木)午前10時20分ころ,松山市古川北四丁目の路上,男子中学生が歩行中、自転車乗車の男に後方をつきまとわれたもの。男は、男子中学生が後方を振り向く度に、横を向いたり、Uターンする素振りを見せるなど不審な行動をとっていた。,中肉、小柄、長袖Tシャツ、パジャマ様の長ズボン、白色様ハット帽・黒色様フェイスカバー・明るい色の運動靴着用、小型手提げバッグ所持、ママチャリ様(前カゴ付き),松山市古川北四丁目の,松山市古川北四丁目,0,blue,38.0,愛媛県,エヒメケン,EHIME KEN,38201.0,松山市,マツヤマシ,MATSUYAMA SHI,古川北四丁目,フルカワキタ 4,FURUKAWAKITA 4,,33.809443,132.764327
57,松山東署管内,声かけ,令和3年10月13日(水)午後4時ころ,松山市余戸南四丁目の屋外施設,小学生女児が保護者や友人と屋外施設で遊んでいたところ、目の前にきた男に「フワーフワー。」と大声を出されたうえ、無断で自転車に乗られたもの。男は自転車を戻した後、歩いて立ち去った。,70〜80歳位、身長160センチ位、中肉、白髪混じり、白地に茶色ライン入りTシャツ、白色キャップ帽・マスク・白色手袋着用,松山市余戸南四丁目の,松山市余戸南四丁目,0,green,38.0,愛媛県,エヒメケン,EHIME KEN,38201.0,松山市,マツヤマシ,MATSUYAMA SHI,余戸南四丁目,ヨウゴミナミ 4,YOGOMINAMI 4,,33.808879,132.727788
58,松山西署管内,声かけ,令和3年10月13日(水)午前11時50分ころ,松山市鴨川三丁目の路上,女子中学生が歩行中、電動カート乗車の男に「ちょっと待て。」と呼び止められ、卑猥な言葉を掛けられたもの。,50〜60歳位、中肉、電動カート乗車、マスク・眼鏡なし,松山市鴨川三丁目の,松山市鴨川三丁目,1,green,38.0,愛媛県,エヒメケン,EHIME KEN,38201.0,松山市,マツヤマシ,MATSUYAMA SHI,鴨川三丁目,カモガワ 3,KAMOGAWA 3,,33.874015,132.748778
59,松山南署管内,つきまとい,令和3年10月13日(水)午前0時15分ころ,東温市横河原の路上,女性2名が自転車で移動中、すれ違った後Uターンした自転車乗車の男から、後方をつきまとわれたもの。男はしばらくの間付近を徘徊していた。,40歳位、中肉、上下黒色様の服、野球帽・マスク着用、眼鏡なし、黄緑色自転車(キーキーと音がする),東温市横河原の,東温市横河原,0,blue,38.0,愛媛県,エヒメケン,EHIME KEN,38215.0,東温市,トウオンシ,TOON SHI,横河原,ヨコガワラ,YOKOGAWARA,,33.80093,132.884856
60,今治署管内,つきまとい,令和3年10月12日(火)午後6時30分ころ,今治市馬越四丁目の路上,女子高校生が歩行中、前方に停まった車の助手席乗車の男から声をかけられたもの。声かけ内容は聞き取れなかったが、女子高校生が「大丈夫です。」などと断ると、車は走り去った。,運転手:20〜30歳位の男、銀色自動車(軽四乗用の可能性あり)、助手席同乗者:20〜30歳位の男,今治市馬越四丁目の,今治市馬越四丁目,0,blue,,,,,,,,,,,,,,
61,松山東署管内,声かけ,令和3年10月12日(火)午後4時45分ころ,松山市土居田町の歩道上,小学生女児が歩行中、男に名前を呼ばれ、返事をしたところ「〇〇さん知ってる。」と聞かれ、理由を問うと「話したいことがある。」と言われたもの。男は、小学生女児と反対方向に歩いて立ち去った。,20〜25歳位、身長170センチ位、茶色短髪パーマ、黒色シャツ、黒色長ズボン,松山市土居田町の歩道上,松山市土居田町の歩道上,0,green,,,,,,,,,,,,,,
62,四国中央署管内,つきまとい,令和3年10月12日(火)午後3時45分ころ,四国中央市金田町金川の路上,小学生女児が保護者と歩行中、男に後方をつきまとわれたもの。なお、男はつきまといの前後に付近を徘徊している。,40歳位、やせ型、身長170センチ位、黒色短髪、黒色Tシャツ、灰色ジャージズボン(サイドに黒色ライン入り)、膝丈位の長さの長靴(ズボンを入れている)、透明のビニール傘・レジ袋(物が入り膨らんでいる)所持,四国中央市金田町金川の,四国中央市金田町金川,0,blue,38.0,愛媛県,エヒメケン,EHIME KEN,38213.0,四国中央市,シコクチュウオウシ,SHIKOKUCHUO SHI,金田町金川,カナダチョウカナガワ,KANADACHO KANAGAWA,,33.977056,133.595496
63,松山東署管内,身体露出,令和3年10月11日(月)午前8時40分ころ,松山市土居田町のマンション敷地内,男がマンションの敷地内で建物に向かい、ズボンのチャックを下げていたもの。,40〜50歳位、小肥、黒髪、上下ベージュ色作業着,松山市土居田町の,松山市土居田町,0,orange,38.0,愛媛県,エヒメケン,EHIME KEN,38201.0,松山市,マツヤマシ,MATSUYAMA SHI,土居田町,ドイダマチ,DOIDAMACHI,,33.823276,132.746488
64,松山南署管内,つきまとい,令和3年10月10日(日)午後5時ころ,松山市枝松から同市来住町の路上,女子中学生が自転車で移動中、自転車乗車の男から後方をつきまとわれたもの。,赤色の服、自転車使用、麦わら帽子・黒縁眼鏡着用,松山市枝松から同市来住町の,松山市枝松から同市来住町,0,blue,,,,,,,,,,,,,,
65,松山西署管内,暴行容疑,令和3年10月5日(火)午後5時30分ころ,松山市西長戸町の路上,小学生女児が友人と自転車で移動中、自転車乗車の男とすれ違う際、男が伸ばした足が女児の足に当たったもの。,40〜50歳位、中肉、黒色短髪、上下青色様作業着、眼鏡あり、黒色自転車使用、ふらついていた,松山市西長戸町の,松山市西長戸町,0,暴行容疑,38.0,愛媛県,エヒメケン,EHIME KEN,38201.0,松山市,マツヤマシ,MATSUYAMA SHI,西長戸町,ニシナガトチョウ,NISHINAGATOCHO,,33.867813,132.741949
66,新居浜署管内,つきまとい,令和3年10月4日(月)午後6時25分ころ,新居浜市八幡三丁目の路上,女子中学生3名が自転車で移動中、自転車乗車の男から後方をつきまとわれたもの。,40歳位、中肉中背、軽快兼用様の自転車利用,新居浜市八幡三丁目の,新居浜市八幡三丁目,0,blue,38.0,愛媛県,エヒメケン,EHIME KEN,38205.0,新居浜市,ニイハマシ,NIIHAMA SHI,八幡三丁目,ハチマン 3,HACHIMAN 3,,33.983344,133.315261
67,松山南署管内,つきまとい,令和3年10月4日(月)午後3時ころ,松山市来住町の路上,小学生男女児十数名が歩行中、後方を男につきまとわれたもの。,40〜60歳位、やせ型、身長160センチ位、灰色半袖Tシャツ、黒色様半ズボン、白色タオルを頭に巻いている、灰色リュックサック所持,松山市来住町の,松山市来住町,0,blue,38.0,愛媛県,エヒメケン,EHIME KEN,38201.0,松山市,マツヤマシ,MATSUYAMA SHI,来住町,キシマチ,KISHIMACHI,,33.806831,132.800645
68,松山西署管内,声かけ,令和3年10月2日(土)午後10時30分ころ,松山市安城寺町の路上,女子高校生が歩行中、後方をつけてきた男から卑わいな声かけをされたもの。,40〜50歳位、身長180センチ位、中肉、黒色Tシャツ、黒色様のズボン、黒色帽子・白色マスク(顎までずらした状態)着用、眼鏡なし,松山市安城寺町の,松山市安城寺町,0,green,38.0,愛媛県,エヒメケン,EHIME KEN,38201.0,松山市,マツヤマシ,MATSUYAMA SHI,安城寺町,アンジョウジマチ,ANJOJIMACHI,,33.879403,132.740016
69,松山南署管内,不審者,令和3年10月2日(土)午後6時ころ,松山市森松町の路上,小学生女児が自転車で移動中、対向してきた車の車内から行為者に赤色のレーザーを当てられたもの。,自動車利用(水色様、小型の車)、猫用おもちゃのようなレーザー,松山市森松町の,松山市森松町,0,purple,38.0,愛媛県,エヒメケン,EHIME KEN,38201.0,松山市,マツヤマシ,MATSUYAMA SHI,森松町,モリマツマチ,MORIMATSUMACHI,,33.789207,132.791713
70,松山東署管内,身体露出,令和3年10月2日(土)午前1時5分ころ,松山市高砂二丁目の路上,男が路上にしゃがみ込み、片手を下半身に当てていたもの。,20〜30歳位、中肉、短髪(坊主頭様)、ノースリーブの服、丈の短いズボン、縁の太い眼鏡,松山市高砂二丁目の,松山市高砂二丁目,0,orange,,,,,,,,,,,,,,
71,西条署管内,つきまとい,令和3年10月1日(金)午後8時ころ,西条市氷見乙の路上,女子高校生が自転車で移動中、バイクに乗った男から後方をつきまとわれたもの。,40〜60歳位、中肉中背、バイク利用(黒色、原付、スクーター型)、白色半ヘルメット着用、丸顔,西条市氷見乙の,西条市氷見,0,blue,,,,,,,,,,,,,,
72,松山南署管内,つきまとい,令和3年10月1日(金)午後7時50分ころ,松山市北久米の路上,女子高校生等2名が歩行中、急に進路変更をした男からつきまとわれたもの。,40〜50歳位、身長165〜170センチ位、やせ型、目にかからない位の黒っぽい髪、迷彩柄様のTシャツ、色不明の長ズボン、黒縁眼鏡着用、帽子・マスクなし、大きめで色不明のトートバッグを肩にかけている,松山市北久米の,松山市北久米,0,blue,,,,,,,,,,,,,,
73,新居浜署管内,つきまとい,令和3年10月1日(金)午後6時ころ,新居浜市八幡二丁目から同市八幡一丁目までの間の路上,女子中学生が自転車で移動中、自転車乗車の男から後方をつきまとわれたもの。,45歳位、中肉、耳にかかる位の黒髪、無地の黄色半袖Tシャツ、黒色半ズボン、紺色様のサンダル着用、帽子・眼鏡・マスクなし、黒色ママチャリ,新居浜市八幡二丁目から同市八幡一丁目までの間の,新居浜市八幡二丁目から同市八幡一丁目までの間,0,blue,,,,,,,,,,,,,,
74,新居浜署管内,写真撮影,令和3年10月1日(金)午後3時ころ,新居浜市船木甲の路上,小学生女児等が歩行中、路上に立つ女に、デジタルカメラ様のもので写真撮影されたもの。女は、その後車両に乗り込むも、少し移動した先で降車し、再度女児等を撮影している。,身長150センチ位、中肉、白髪混じり、後ろでひとつ結び(団子ヘアー)、白色軽四乗用車、デジタルカメラ様のもの所持,新居浜市船木甲の,新居浜市船木,1,lightred,38.0,愛媛県,エヒメケン,EHIME KEN,38205.0,新居浜市,ニイハマシ,NIIHAMA SHI,船木,フナキ,FUNAKI,,33.925772,133.343366
75,新居浜署管内,写真撮影,令和3年10月1日(金)午後3時ころ,新居浜市船木甲の路上,小学生女児等が歩行中、路上に立つ女に、デジタルカメラ様のもので写真撮影されたもの。女は、その後車両に乗り込むも、少し移動した先で降車し、再度女児等を撮影している。,身長150センチ位、中肉、白髪混じり、後ろでひとつ結び(団子ヘアー)、白色軽四乗用車、デジタルカメラ様のもの所持,新居浜市船木甲の,新居浜市船木,1,lightred,38.0,愛媛県,エヒメケン,EHIME KEN,38205.0,新居浜市,ニイハマシ,NIIHAMA SHI,船木,フナキ,FUNAKI,池田,33.939464,133.331824
76,新居浜署管内,写真撮影,令和3年10月1日(金)午後3時ころ,新居浜市船木甲の路上,小学生女児等が歩行中、路上に立つ女に、デジタルカメラ様のもので写真撮影されたもの。女は、その後車両に乗り込むも、少し移動した先で降車し、再度女児等を撮影している。,身長150センチ位、中肉、白髪混じり、後ろでひとつ結び(団子ヘアー)、白色軽四乗用車、デジタルカメラ様のもの所持,新居浜市船木甲の,新居浜市船木,1,lightred,38.0,愛媛県,エヒメケン,EHIME KEN,38205.0,新居浜市,ニイハマシ,NIIHAMA SHI,船木,フナキ,FUNAKI,長野,33.94444,133.345723
77,松山南署管内,声かけ,令和3年9月30日(木)午後6時10分ころ,東温市見奈良の路上,女性が歩行中、車で並走してきた男から「良かったら送りましょうか?」と声かけされたもの。,50〜60歳位、中肉、耳にかかる位の黒っぽい髪、面長、目が細く鼻が高い、白色軽四乗用車(黄色ナンバー),東温市見奈良の,東温市見奈良,0,green,38.0,愛媛県,エヒメケン,EHIME KEN,38215.0,東温市,トウオンシ,TOON SHI,見奈良,ミナラ,MINARA,,33.792101,132.876856
78,松山東署管内,写真撮影,令和3年9月30日(木)午後5時ころ,松山市中村四丁目の路上,高校生2名が自転車で走行中、後方から追随してくる女にスマートフォンで写真撮影された上、「気持ち悪いって言ったやろ。」「あんたら○○高生やろ。」等と言われたもの。,40〜60歳位、小肥、肩位までの長さの茶髪、暗色で丸首の半袖シャツ、暗色の長ズボン、自転車利用(暗色、ママチャリ風、銀色の前カゴ)、紺色野球帽(額部分に英字)・マスク着用、スマートフォン所持、眼鏡なし,松山市中村四丁目の,松山市中村四丁目,0,lightred,38.0,愛媛県,エヒメケン,EHIME KEN,38201.0,松山市,マツヤマシ,MATSUYAMA SHI,中村四丁目,ナカムラ 4,NAKAMURA 4,,33.828016,132.776618
79,松山西署管内,声かけ,令和3年9月30日(木)午後4時15分ころ,松山市勝岡町の路上,小学生男児が歩行中、後方からきた自転車乗車の男から突然、「待てこらー。」と叫ばれたもの。,40〜50歳位、黒色ジャケット、自転車利用(銀色、ママチャリ風、銀色前カゴ)、色不明の帽子・黒色マスク着用,松山市勝岡町の,松山市勝岡町,0,green,38.0,愛媛県,エヒメケン,EHIME KEN,38201.0,松山市,マツヤマシ,MATSUYAMA SHI,勝岡町,カツオカチョウ,KATSUOKACHO,,33.900906,132.722481
80,大洲署管内,写真撮影,令和3年9月27日(月)午後8時ころ,JR伊予大洲駅からJR内子駅を走行中の列車内,高校生男女複数名が列車に乗車中、座席に座った男から、ガラケーで動画撮影をされたもの。,40〜50歳位、小肥、身長160センチ位、坊主頭の黒髪、紺色半袖Tシャツ、長ズボン、細目、銀色ガラケー・ナイロン袋所持、鼻歌を歌っている,JR伊予大洲駅からJR内子駅を走行中の列車内,JR伊予大洲駅からJR内子駅を走行中の列車内,0,lightred,,,,,,,,,,,,,,
81,松山東署管内,声かけ,令和3年9月27日(月)午後4時30分ころ,松山市湊町の飲食店街内,女子高校生が友人と談笑中、隣に座ってきた男から声かけされ、「喫茶店に行こう。」と誘われたもの。,70〜80歳位、中肉、身長170センチ位、頭頂部薄めの白髪、白色Tシャツ、腰が曲がっている、黒色スマートフォン所持,松山市湊町の飲食店街内,松山市湊町の飲食店街内,0,green,,,,,,,,,,,,,,
82,松山東署管内,写真撮影,令和3年9月27日(月)午前10時50分ころ,松山市湊町のアーケード内,女性が勤務中、アーケード内にいた男から凝視された上、スマートフォンを向けられたもの。,35〜40歳位、やせ型、身長165センチ位、茶髪、白色半袖Tシャツ、緑色の迷彩柄長ズボン、キャップ帽(白色、赤ライン)・白色マスク着用、暗色のトートバッグ・スマートフォン所持,松山市湊町のアーケード内,松山市湊町のアーケード内,0,lightred,,,,,,,,,,,,,,
83,松山東署管内,つきまとい,令和3年9月27日(月)午前7時10分ころ,松山市朝日ヶ丘二丁目から同市南江戸二丁目までの路上,女子中学生が自転車で走行中、路上にいた自転車乗車の男につきまとわれ、Uターンして道を引き返すも同様につきまとわれたもの。,40〜50歳位、黒色長袖Tシャツ、黒色長ズボン、黒色キャップ帽・白色マスク・黒縁サングラス着用、黒色様自転車(前カゴあり),松山市朝日ヶ丘二丁目から同市南江戸二丁目までの,松山市朝日ヶ丘二丁目から同市南江戸二丁目まで,0,blue,,,,,,,,,,,,,,
84,西条署管内,声かけ,令和3年9月26日(日)午後3時ころ,西条市朔日市の路上,小学生女児が友人と路上にいたところ、近づいて来た自転車乗車の男から卑わいな言葉を言われたもの。,60〜70歳位、やせ型、水色の服、赤色の自転車利用,西条市朔日市の,西条市朔日市,0,green,38.0,愛媛県,エヒメケン,EHIME KEN,38206.0,西条市,サイジョウシ,SAIJO SHI,朔日市,ツイタチ,TSUITACHI,,33.928571,133.183796
85,松山東署管内,つきまとい,令和3年9月25日(土)午後5時ころ,松山市紅葉町から同市湯の山四丁目までの路上,女子高校生が自転車で走行中、自転車乗車の男2名に「学校帰り?家はどこ?」等と声をかけられ、追い越しては待ち伏せされたうえ、声をかけられながらつきまとわれたもの。,A(16〜20歳位、身長160〜165センチ位、中肉、黒色短髪、赤色Tシャツ、暗色の半ズボン、黒色様自転車)B(16〜20歳位、身長160〜165センチ位、中肉、黒色短髪、自転車使用),松山市紅葉町から同市湯の山四丁目までの,松山市紅葉町から同市湯の山四丁目まで,0,blue,,,,,,,,,,,,,,
86,大洲署管内,つきまとい,令和3年9月24日(金)午後6時15分ころ,大洲市新谷の路上から同市新谷町の路上までの間,女子中学生が歩行中、路上にてカメラを田んぼに向けていた男に挨拶をしながら通り過ぎたところ、後方をつきまとわれたもの。,60歳位、小肥、身長170センチ位、白髪混じりの短髪、白色半袖シャツ、黒色小型のカメラ所持,大洲市新谷の,大洲市新谷,0,blue,38.0,愛媛県,エヒメケン,EHIME KEN,38207.0,大洲市,オオズシ,OZU SHI,新谷,ニイヤ,NIIYA,,33.538365,132.608649
87,大洲署管内,つきまとい,令和3年9月24日(金)午後6時15分ころ,大洲市新谷の路上から同市新谷町の路上までの間,女子中学生が歩行中、路上にてカメラを田んぼに向けていた男に挨拶をしながら通り過ぎたところ、後方をつきまとわれたもの。,60歳位、小肥、身長170センチ位、白髪混じりの短髪、白色半袖シャツ、黒色小型のカメラ所持,大洲市新谷の,大洲市新谷,0,blue,38.0,愛媛県,エヒメケン,EHIME KEN,38207.0,大洲市,オオズシ,OZU SHI,新谷,ニイヤ,NIIYA,乙,33.534059,132.590817
88,大洲署管内,つきまとい,令和3年9月24日(金)午後6時15分ころ,大洲市新谷の路上から同市新谷町の路上までの間,女子中学生が歩行中、路上にてカメラを田んぼに向けていた男に挨拶をしながら通り過ぎたところ、後方をつきまとわれたもの。,60歳位、小肥、身長170センチ位、白髪混じりの短髪、白色半袖シャツ、黒色小型のカメラ所持,大洲市新谷の,大洲市新谷,0,blue,38.0,愛媛県,エヒメケン,EHIME KEN,38207.0,大洲市,オオズシ,OZU SHI,新谷,ニイヤ,NIIYA,甲,33.537489,132.601945
89,大洲署管内,つきまとい,令和3年9月24日(金)午後6時15分ころ,大洲市新谷の路上から同市新谷町の路上までの間,女子中学生が歩行中、路上にてカメラを田んぼに向けていた男に挨拶をしながら通り過ぎたところ、後方をつきまとわれたもの。,60歳位、小肥、身長170センチ位、白髪混じりの短髪、白色半袖シャツ、黒色小型のカメラ所持,大洲市新谷の,大洲市新谷,0,blue,38.0,愛媛県,エヒメケン,EHIME KEN,38207.0,大洲市,オオズシ,OZU SHI,新谷,ニイヤ,NIIYA,蔵地,33.533314,132.584916
90,大洲署管内,つきまとい,令和3年9月24日(金)午後6時15分ころ,大洲市新谷の路上から同市新谷町の路上までの間,女子中学生が歩行中、路上にてカメラを田んぼに向けていた男に挨拶をしながら通り過ぎたところ、後方をつきまとわれたもの。,60歳位、小肥、身長170センチ位、白髪混じりの短髪、白色半袖シャツ、黒色小型のカメラ所持,大洲市新谷の,大洲市新谷,0,blue,38.0,愛媛県,エヒメケン,EHIME KEN,38207.0,大洲市,オオズシ,OZU SHI,新谷,ニイヤ,NIIYA,田中,33.534267,132.588541
91,四国中央署管内,不審者,令和3年9月24日(金)午前8時15分ころ,四国中央市金生町の路上,男が路上にて、手に持った刃物様のものを見つめていたもの。,40歳位、中肉、身長170センチ位、黒色短髪、長ズボン、果物ナイフ様のもの所持(刃の部分にカバーあり)、帽子なし,四国中央市金生町の,四国中央市金生町,0,purple,,,,,,,,,,,,,,
92,松山東署管内,つきまとい,令和3年9月22日(水)午後7時30分ころ,松山市雄郡一丁目から同市藤原二丁目の路上までの間,女性が歩行中、信号待ちで対向にいた自転車乗車の男が信号が変わっても進行しなかったため、横を通り過ぎると、反転して後方をつきまとわれたり、ぶつぶつ呟きながら凝視されたもの。,50〜70歳位、中肉、身長170〜180センチ位、黒色短髪、自転車利用、色黒、外国人風、ヘルメットなし,松山市雄郡一丁目から同市藤原二丁目の,松山市雄郡一丁目から同市藤原二丁目,0,blue,,,,,,,,,,,,,,
93,大洲署管内,写真撮影,令和3年9月22日(水)午後5時ころ,大洲市新谷の路上,男子中学生が自転車で進行中、対向から来た車両乗車の男からすれ違いざまにスマートフォンを二度向けられたもの。,40歳位、緑色様の軽四自動車利用、スマートフォン所持,大洲市新谷の,大洲市新谷,1,lightred,38.0,愛媛県,エヒメケン,EHIME KEN,38207.0,大洲市,オオズシ,OZU SHI,新谷,ニイヤ,NIIYA,,33.538365,132.608649
94,大洲署管内,写真撮影,令和3年9月22日(水)午後5時ころ,大洲市新谷の路上,男子中学生が自転車で進行中、対向から来た車両乗車の男からすれ違いざまにスマートフォンを二度向けられたもの。,40歳位、緑色様の軽四自動車利用、スマートフォン所持,大洲市新谷の,大洲市新谷,1,lightred,38.0,愛媛県,エヒメケン,EHIME KEN,38207.0,大洲市,オオズシ,OZU SHI,新谷,ニイヤ,NIIYA,乙,33.534059,132.590817
95,大洲署管内,写真撮影,令和3年9月22日(水)午後5時ころ,大洲市新谷の路上,男子中学生が自転車で進行中、対向から来た車両乗車の男からすれ違いざまにスマートフォンを二度向けられたもの。,40歳位、緑色様の軽四自動車利用、スマートフォン所持,大洲市新谷の,大洲市新谷,1,lightred,38.0,愛媛県,エヒメケン,EHIME KEN,38207.0,大洲市,オオズシ,OZU SHI,新谷,ニイヤ,NIIYA,甲,33.537489,132.601945
96,大洲署管内,写真撮影,令和3年9月22日(水)午後5時ころ,大洲市新谷の路上,男子中学生が自転車で進行中、対向から来た車両乗車の男からすれ違いざまにスマートフォンを二度向けられたもの。,40歳位、緑色様の軽四自動車利用、スマートフォン所持,大洲市新谷の,大洲市新谷,1,lightred,38.0,愛媛県,エヒメケン,EHIME KEN,38207.0,大洲市,オオズシ,OZU SHI,新谷,ニイヤ,NIIYA,蔵地,33.533314,132.584916
97,大洲署管内,写真撮影,令和3年9月22日(水)午後5時ころ,大洲市新谷の路上,男子中学生が自転車で進行中、対向から来た車両乗車の男からすれ違いざまにスマートフォンを二度向けられたもの。,40歳位、緑色様の軽四自動車利用、スマートフォン所持,大洲市新谷の,大洲市新谷,1,lightred,38.0,愛媛県,エヒメケン,EHIME KEN,38207.0,大洲市,オオズシ,OZU SHI,新谷,ニイヤ,NIIYA,田中,33.534267,132.588541
98,西条署管内,声かけ,令和3年9月22日(水)午前11時30分ころ,西条市ひうちの屋外施設,女性が屋外施設にいたところ、近寄ってきた自転車乗車の男に道を尋ねられ、卑猥な言葉を言われたもの。,60歳位、中肉、身長165センチ位、スキンヘッド、薄ピンク色半袖Tシャツ、短パン、上半身が日に焼けて黒い、自転車利用(銀色、前カゴあり、前カゴに白色手帳型スマートフォン積載),西条市ひうちの,西条市ひうち,0,green,38.0,愛媛県,エヒメケン,EHIME KEN,38206.0,西条市,サイジョウシ,SAIJO SHI,ひうち,ヒウチ,HIUCHI,,33.94149,133.195547
99,西条署管内,声かけ,令和3年9月22日(水)午前11時30分ころ,西条市朔日市の路上,女性が歩行中、対向してきた自転車乗車の男に卑わいな言葉を言われたもの。,60〜70歳位、中肉、白髪混じりの短髪薄毛、ピンク色Tシャツ、白色様の自転車利用、鋭い目つき、マスクなし,西条市朔日市の,西条市朔日市,1,green,38.0,愛媛県,エヒメケン,EHIME KEN,38206.0,西条市,サイジョウシ,SAIJO SHI,朔日市,ツイタチ,TSUITACHI,,33.928571,133.183796
100,四国中央署管内,つきまとい,令和3年9月21日(火)午後6時15分ころ,四国中央市妻鳥町の路上,女子中学生が歩行中、徒歩で追い抜かれたはずの男が後方に現れ、つきまとわれたもの。,中肉、身長170センチ位、黒色Tシャツ、黒色長ズボン、黒色キャップ帽着用,四国中央市妻鳥町の,四国中央市妻鳥町,1,blue,38.0,愛媛県,エヒメケン,EHIME KEN,38213.0,四国中央市,シコクチュウオウシ,SHIKOKUCHUO SHI,妻鳥町,メンドリチョウ,MENDORICHO,,33.991779,133.572307
101,四国中央署管内,つきまとい,令和3年9月21日(火)午後6時15分ころ,四国中央市妻鳥町の路上,女子中学生が歩行中、徒歩で追い抜かれたはずの男が後方に現れ、つきまとわれたもの。,中肉、身長170センチ位、黒色Tシャツ、黒色長ズボン、黒色キャップ帽着用,四国中央市妻鳥町の,四国中央市妻鳥町,1,blue,38.0,愛媛県,エヒメケン,EHIME KEN,38213.0,四国中央市,シコクチュウオウシ,SHIKOKUCHUO SHI,妻鳥町,メンドリチョウ,MENDORICHO,樋ノ上,33.987248,133.571502
102,四国中央署管内,つきまとい,令和3年9月21日(火)午後6時15分ころ,四国中央市妻鳥町の路上,女子中学生が歩行中、徒歩で追い抜かれたはずの男が後方に現れ、つきまとわれたもの。,中肉、身長170センチ位、黒色Tシャツ、黒色長ズボン、黒色キャップ帽着用,四国中央市妻鳥町の,四国中央市妻鳥町,1,blue,38.0,愛媛県,エヒメケン,EHIME KEN,38213.0,四国中央市,シコクチュウオウシ,SHIKOKUCHUO SHI,妻鳥町,メンドリチョウ,MENDORICHO,長束,33.997841,133.572828
103,四国中央署管内,つきまとい,令和3年9月21日(火)午後6時15分ころ,四国中央市妻鳥町の路上,女子中学生が歩行中、徒歩で追い抜かれたはずの男が後方に現れ、つきまとわれたもの。,中肉、身長170センチ位、黒色Tシャツ、黒色長ズボン、黒色キャップ帽着用,四国中央市妻鳥町の,四国中央市妻鳥町,1,blue,38.0,愛媛県,エヒメケン,EHIME KEN,38213.0,四国中央市,シコクチュウオウシ,SHIKOKUCHUO SHI,妻鳥町,メンドリチョウ,MENDORICHO,上樋之上,33.986515,133.573439
104,松山南署管内,暴行,令和3年9月21日(火)午後5時ころ,伊予郡砥部町宮内の歩道上,女子高校生が自転車で進行中、前方を走る自転車乗車の男を追い抜こうとした際、スカートに唾を吐きかけられたもの。,40〜60歳位、小肥、スキンヘッド、黒色長袖シャツ、水色(パステルカラー)の自転車利用、眼鏡・マスクなし,伊予郡砥部町宮内の歩道上,伊予郡砥部町宮内の歩道上,0,red,,,,,,,,,,,,,,
105,松山南署管内,不審者,令和3年9月21日(火)午前11時05分ころ,伊予郡砥部町岩谷口の路上,女子中学生が友人と話をしていたところ、低速で近づいてきた車に乗った男に直近で停車され、運転席の窓を開けてニヤリと笑われたもの。,40〜50歳位、黒髪、上下黒色様の服、白色普通車利用(セダンタイプ)、頭に黒色様バンダナを巻いていた、黒縁眼鏡着用,伊予郡砥部町岩谷口の,伊予郡砥部町岩谷口,0,purple,38.0,愛媛県,エヒメケン,EHIME KEN,38402.0,伊予郡砥部町,イヨグントベチョウ,IYO GUN TOBE CHO,岩谷口,イワヤグチ,IWAYAGUCHI,,33.735696,132.803116
106,今治署管内,写真撮影,令和3年9月19日(日)午後1時ころ,今治市常盤町二丁目の路上,女子中学生が友人と外出中、すれ違いざまに男からスマートフォンを向けられたもの。,50歳位、赤色半袖シャツ、水色長ズボン、自転車利用(灰色、後輪泥除け部にステッカーを貼付)、外国語を話す,今治市常盤町二丁目の,今治市常盤町二丁目,0,lightred,38.0,愛媛県,エヒメケン,EHIME KEN,38202.0,今治市,イマバリシ,IMABARI SHI,常盤町二丁目,トキワチョウ 2,TOKIWACHO 2,,34.06745,133.002287
107,松山東署管内,不審者,令和3年9月18日(土)午後6時30分ころ,松山市立花四丁目の路上,男が目撃者方2階の部屋を凝視しながら、手袋を着用していたもの。,40〜50歳位、中肉、身長170センチ位、頭頂部が長めのスポーツ刈り、白色半袖Tシャツ(紺色か黒色の細めボーダー柄)、黒縁眼鏡・軍手着用、マスクなし,松山市立花四丁目の,松山市立花四丁目,0,purple,38.0,愛媛県,エヒメケン,EHIME KEN,38201.0,松山市,マツヤマシ,MATSUYAMA SHI,立花四丁目,タチバナ 4,TACHIBANA 4,,33.828724,132.767951
108,松山南署管内,不審者,令和3年9月17日(金),松山市今在家の路上,女子高校生方前の路上に、普段見かけない車両がエンジンをかけずに停車していたもの。なお、同車両は、同月3日と6日にも同所付近で目撃されている。,水色軽四自動車,松山市今在家の,松山市今在家,0,purple,,,,,,,,,,,,,,
109,松山東署管内,つきまとい,令和3年9月16日(木)午後8時45分ころ,松山市和泉北一丁目のアパート駐車場,女性が外出した際、アパート駐車場の出入口付近に佇んでいた男が、帰宅後も駐車場内を自転車に乗り周回していたもの。,35〜40歳位、身長160センチ位、頭頂部禿げ頭、赤色チェック柄様の長袖シャツ、長ズボン、ママチャリ様自転車,松山市和泉北一丁目の,松山市和泉北一丁目,0,blue,38.0,愛媛県,エヒメケン,EHIME KEN,38201.0,松山市,マツヤマシ,MATSUYAMA SHI,和泉北一丁目,イズミキタ 1,IZUMIKITA 1,,33.823903,132.759925
110,松山南署管内,つきまとい,令和3年9月16日(木)午後4時10分ころ,東温市横河原の路上,女子高校生が歩行中、一度すれ違いUターンしてきた男に後をつけられたもの。,30〜40歳位、身長175センチ位、肥満、黒色短髪、藍色様半袖Tシャツ、藍色様半ズボン、黒縁眼鏡(横長四角)着用、マスクなし、手にスマートフォンを所持している可能性あり,東温市横河原の,東温市横河原,1,blue,38.0,愛媛県,エヒメケン,EHIME KEN,38215.0,東温市,トウオンシ,TOON SHI,横河原,ヨコガワラ,YOKOGAWARA,,33.80093,132.884856
111,松山西署管内,声かけ,令和3年9月16日(木)午前11時30分ころ,松山市内走行中の電車内,女性が電車内にて座っていたところ、「向かいの席に座ってもいい?」と言いながら対面の座席に座ってきた男から「これから付き合うならこんな男性やあんな男性がいいよ。」「私は車を取り上げられた。」「スマホを持っていない。主婦は楽でいいよな。」等と大声で話しかけられたもの。,40〜50歳位、身長165センチ位、中肉、スキンヘッド、緑色Tシャツ、茶色長ズボン,松山市内走行中の電車内,松山市内走行中の電車内,0,green,,,,,,,,,,,,,,
112,西条署管内,声かけ,令和3年9月14日(火)午後4時30分ころ,西条市大町の路上,女子高校生が歩行中、男からコンビニの場所を聞かれ、伝えると、「お姉さんはどこに行きますか?お姉さんについて行ってもいいですか?」と言われたもの。,30〜50歳位、身長165センチ位、やせ型、紺色様長袖、紺色様長ズボン、眼鏡・白色マスク・スニーカー様の靴着用、黒色又は茶色の肩掛けカバン所持,西条市大町の,西条市大町,1,green,38.0,愛媛県,エヒメケン,EHIME KEN,38206.0,西条市,サイジョウシ,SAIJO SHI,大町,オオマチ,OMACHI,,33.911624,133.189252
113,西条署管内,声かけ,令和3年9月14日(火)午後4時30分ころ,西条市大町の路上,女子高校生が歩行中、男からコンビニの場所を聞かれ、伝えると、「お姉さんはどこに行きますか?お姉さんについて行ってもいいですか?」と言われたもの。,30〜50歳位、身長165センチ位、やせ型、紺色様長袖、紺色様長ズボン、眼鏡・白色マスク・スニーカー様の靴着用、黒色又は茶色の肩掛けカバン所持,西条市大町の,西条市大町,1,green,38.0,愛媛県,エヒメケン,EHIME KEN,38206.0,西条市,サイジョウシ,SAIJO SHI,大町,オオマチ,OMACHI,福森,33.912953,133.188923
114,新居浜署管内,声かけ,令和3年9月14日(火)午後3時30分ころ,新居浜市本郷二丁目の路上,小学生女児が歩行中、男から「今何年生なん?名前はなんていうの?」と声をかけられ、後をつけられたもの。,30〜40歳位、身長170センチ位、短髪、小肥、上下黒色の服、黒色サングラス・黒色マスク着用、黒色ショルダーバッグ所持,新居浜市本郷二丁目の,新居浜市本郷二丁目,0,green,38.0,愛媛県,エヒメケン,EHIME KEN,38205.0,新居浜市,ニイハマシ,NIIHAMA SHI,本郷二丁目,ホンゴウ 2,HONGO 2,,33.935849,133.28107
115,松山南署管内,声かけ,令和3年9月13日(月)午後9時45分ころ,松山市古川北三丁目の店舗駐車場,女性が駐車中の車に乗り込もうとしたところ、突然、男から「すみません。お姉さん。仕事帰りですか?」「綺麗な人なので声をかけました。」と声掛けされたもの。,20〜30歳位、中肉、身長180センチ位、短髪、白色シャツ、紺色ズボン、灰色の普通乗用自動車利用、小さめのマスク・茶色の靴着用、眼鏡なし,松山市古川北三丁目の,松山市古川北三丁目,0,green,38.0,愛媛県,エヒメケン,EHIME KEN,38201.0,松山市,マツヤマシ,MATSUYAMA SHI,古川北三丁目,フルカワキタ 3,FURUKAWAKITA 3,,33.810955,132.764327
116,松山東署管内,つきまとい,令和3年9月13日(月)午後4時10分ころ,松山市中央二丁目の路上,女性が店内で買い物中、男と何度もすれ違い、店外にて後方をつきまとわれたもの。,50〜60歳位、身長170センチ位、やせ型、黒色短髪、紺色半袖ポロシャツ、黒色ズボン、色黒、眼鏡なし,松山市中央二丁目の,松山市中央二丁目,0,blue,38.0,愛媛県,エヒメケン,EHIME KEN,38201.0,松山市,マツヤマシ,MATSUYAMA SHI,中央二丁目,チュウオウ 2,CHUO 2,,33.85583,132.746259
117,松山東署管内,声かけ,令和3年9月13日(月)午後2時ころ,松山市道後樋又の店舗,女性が店内で買い物中、男から「綺麗ですね。」「子供さんがいらっしゃるんですか?」と声をかけられたもの。,20〜30歳位、身長180センチ位、短髪、中肉、白色ワイシャツ、紺色スラックス、白色マスク着用,松山市道後樋又の,松山市道後樋又,0,green,38.0,愛媛県,エヒメケン,EHIME KEN,38201.0,松山市,マツヤマシ,MATSUYAMA SHI,道後樋又,ドウゴヒマタ,DOGO HIMATA,,33.852406,132.772246
118,松山東署管内,写真撮影,令和3年9月11日(土)午後4時35分ころ,松山市湊町三丁目の路上,女性がベンチに座っていたところ、通りかかった男から2回にわたり、携帯電話機を向けられたもの。,35歳位、中肉、身長170センチ位、黒髪、黒色半袖Tシャツ、下衣:不明(全体的に暗め)、頭に眼鏡をかけていた,松山市湊町三丁目の,松山市湊町三丁目,0,lightred,38.0,愛媛県,エヒメケン,EHIME KEN,38201.0,松山市,マツヤマシ,MATSUYAMA SHI,湊町三丁目,ミナトマチ 3,MINATOMACHI 3,,33.835677,132.769073
119,松山東署管内,写真撮影,令和3年9月11日(土)午後4時35分ころ,松山市湊町三丁目の路上,女性がベンチに座っていたところ、通りかかった男から2回にわたり、携帯電話機を向けられたもの。,35歳位、中肉、身長170センチ位、黒髪、黒色半袖Tシャツ、下衣:不明(全体的に暗め)、頭に眼鏡をかけていた,松山市湊町三丁目の,松山市湊町三丁目,1,lightred,38.0,愛媛県,エヒメケン,EHIME KEN,38201.0,松山市,マツヤマシ,MATSUYAMA SHI,湊町三丁目,ミナトマチ 3,MINATOMACHI 3,,33.835677,132.769073
120,松山西署管内,つきまとい,令和3年9月10日(金)午後8時ころ,松山市安城寺町の路上,女子高校生が自転車で走行中、車に乗った男から追い越されたり、前方に停車して待ち伏せされた上、降車した同男から徒歩で近づかれたもの。,30〜40歳位、やせ型、身長170センチ位、白色様の服、黒色様の長ズボン、普通車利用(黒色、セダンタイプ),松山市安城寺町の,松山市安城寺町,1,blue,38.0,愛媛県,エヒメケン,EHIME KEN,38201.0,松山市,マツヤマシ,MATSUYAMA SHI,安城寺町,アンジョウジマチ,ANJOJIMACHI,,33.879403,132.740016
121,松山東署管内,不審者,令和3年9月10日(金)午後6時ころ,松山市南江戸二丁目の建物敷地内,男が携帯電話機を操作しながら、建物敷地内を徘徊し、同建物の階段を上がろうとしていたもの。なお、同男は8月17日午前7時30分ころにも、同じ服装で敷地内に座り、携帯電話機を操作している状況を目撃されている。,40歳位、中肉、身長170センチ位、天然パーマの黒髪、白色ワイシャツ、黒色スラックス、自転車利用、眼鏡着用、黒色リュックサック・携帯電話機所持,松山市南江戸二丁目の建物敷地内,松山市南江戸二丁目の建物敷地内,0,purple,,,,,,,,,,,,,,
122,西予署管内,住居侵入,令和3年9月9日(木)午後9時20分ころ,西予市宇和町久枝の敷地内,女性が建物2階のベランダにいたところ、男から建物内を覗くようにして敷地内を一周されたもの。,白色Tシャツ、サンダル様の履物着用,西予市宇和町久枝の敷地内,西予市宇和町久枝の敷地内,0,darkred,,,,,,,,,,,,,,
123,松山東署管内,のぞき・盗撮,令和3年9月9日(木)午前9時10分ころ,松山市南江戸一丁目の階段,女子高校生が徒歩で階段を上っていたところ、背後からスカート下に携帯電話機を差し入れられたもの。,20〜30歳位、身長160〜170センチ位、黒髪、中肉、耳が隠れる位のマッシュルームカット様、白色ワイシャツ、黒色ズボン、色白、目が小さめ、眼鏡なし、白色マスク着用、黒色リュックサック所持、サラリーマン風,松山市南江戸一丁目の階段,松山市南江戸一丁目の階段,0,pink,,,,,,,,,,,,,,
124,松山南署管内,ちかん,令和3年9月9日(木)午前7時25分ころ,松山市西石井一丁目の路上,小学生が集団登校中、後方から近づいてきた男に、スカート上から臀部を1回撫でられたもの。,若い感じ、中肉、身長170センチ位、黒色坊主頭、白色半袖ポロシャツ、黒色長ズボン、白色マスク・黒色靴着用、黒色リュックサック(縦長、四角形)所持,松山市西石井一丁目の,松山市西石井一丁目,0,gray,38.0,愛媛県,エヒメケン,EHIME KEN,38201.0,松山市,マツヤマシ,MATSUYAMA SHI,西石井一丁目,ニシイシイ 1,NISHIISHII 1,,33.81758,132.773781
125,松山西署管内,つきまとい,令和3年9月8日(水)午後5時30分ころ,松山市北斎院町の路上,女性が犬の散歩中、男が後方にいたことから避けるためにUターンしたものの、男もUターンしてつきまとわれたもの。,40〜50歳位、中肉、身長170センチ位、耳にかからない程度の黒色短髪、半袖、半ズボン(体操ズボンのように短い)、地黒、がっちり体型、土木作業員風,松山市北斎院町の,松山市北斎院町,2,blue,38.0,愛媛県,エヒメケン,EHIME KEN,38201.0,松山市,マツヤマシ,MATSUYAMA SHI,北斎院町,キタサヤチョウ,KITASAYACHO,,33.839402,132.723636
126,愛南署管内,声かけ,令和3年9月8日(水)午後3時30分ころ,愛南町城辺の路上,小学生が集団下校中、車に乗った男から「百円上げるけん、前に来い。」等と声を掛けられたもの。,60歳位、白色Tシャツ、濃い緑色のキャップ帽着用、マスク無し、白色軽四トラック,愛南町城辺の,愛南町城辺,0,green,,,,,,,,,,,,,,
127,西条署管内,声かけ,令和3年9月8日(水)午後3時ころ,西条市喜多川の路上,小学生が1人で下校中、男からすれ違いざまに「可愛いね。」「名前を教えて。」等と声をかけられたもの。,40〜60歳位、中肉、坊主頭、黒色半袖パーカー、眼鏡なし,西条市喜多川の,西条市喜多川,0,green,38.0,愛媛県,エヒメケン,EHIME KEN,38206.0,西条市,サイジョウシ,SAIJO SHI,喜多川,キタガワ,KITAGAWA,,33.922611,133.170114
128,松山南署管内,声かけ,令和3年9月7日(火)午後8時20分ころ,松山市平井町の店舗駐車場,女性が買い物をしていたところ、別店舗にて凝視してきた男が移動先の店舗にも現れ、「友達になってください。」等と声を掛けられたもの。,40歳位、中肉、黒色短髪、170センチ位、黒色ポロシャツ(胸元に青色のロゴ入り)、黒色チノパン、黒色ショルダーバッグ所持、白色自動車,松山市平井町の,松山市平井町,0,green,38.0,愛媛県,エヒメケン,EHIME KEN,38201.0,松山市,マツヤマシ,MATSUYAMA SHI,平井町,ヒライマチ,HIRAIMACHI,,33.824694,132.836156
129,松山南署管内,つきまとい,令和3年9月6日(月)午後11時30分ころ,松山市朝生田町一丁目の路上,女性が歩行中、自転車に乗車したり、押して移動する男から何度もつきまとわれたもの。,身長165センチ位、小肥、ボサボサ頭、上下黒色スウェット、オレンジ色折り畳み式自転車使用,松山市朝生田町一丁目の,松山市朝生田町一丁目,0,blue,38.0,愛媛県,エヒメケン,EHIME KEN,38201.0,松山市,マツヤマシ,MATSUYAMA SHI,朝生田町一丁目,アソダマチ 1,ASODAMACHI 1,,33.823191,132.773714
130,今治署管内,不審者,令和3年9月6日(月)午後4時45分ころ,今治市泉川町の敷地内,建物内から出てきた男が、手に刃物様のものを所持しているのを発見したもの。,60歳位、中肉、身長160センチ位、上下黒色ジャージ、黒色スクーター乗車、刃物様のもの1本所持(特徴不明)、半キャップ型ヘルメット着用,今治市泉川町の敷地内,今治市泉川町の敷地内,0,purple,,,,,,,,,,,,,,
131,四国中央署管内,写真撮影,令和3年9月6日(月)午前7時30分ころ,四国中央市下柏町の路上,小学生が集団登校中、道路脇に座り込んだ男から携帯電話機を向けられたもの。,40歳位、リュックサック所持,四国中央市下柏町の,四国中央市下柏町,0,lightred,38.0,愛媛県,エヒメケン,EHIME KEN,38213.0,四国中央市,シコクチュウオウシ,SHIKOKUCHUO SHI,下柏町,シモガシワチョウ,SHIMOGASHIWACHO,,33.98585,133.566343
132,松山西署管内,声かけ,令和3年9月5日(日)午前10時30分ころ,松山市北斎院町の路上,女性が歩行中、並走してきた車両乗車の男に「これから何するの?」「どこ行くの?」等と声をかけられたもの。,40〜50歳位、中肉、黒色短髪、黒色Tシャツ、黒色軽四乗用自動車乗車、眼鏡なし,松山市北斎院町の,松山市北斎院町,3,green,38.0,愛媛県,エヒメケン,EHIME KEN,38201.0,松山市,マツヤマシ,MATSUYAMA SHI,北斎院町,キタサヤチョウ,KITASAYACHO,,33.839402,132.723636
133,西条署管内,ちかん,令和3年9月1日(水)午後8時30分ころ,西条市大町の路上,女子高校生が歩行中、後方から来た自転車乗車の男に体を触られたもの。,30〜40歳位、中肉、黒色短髪、チェック柄シャツ、競技用のような自転車利用,西条市大町の,西条市大町,2,gray,38.0,愛媛県,エヒメケン,EHIME KEN,38206.0,西条市,サイジョウシ,SAIJO SHI,大町,オオマチ,OMACHI,,33.911624,133.189252
134,西条署管内,ちかん,令和3年9月1日(水)午後8時30分ころ,西条市大町の路上,女子高校生が歩行中、後方から来た自転車乗車の男に体を触られたもの。,30〜40歳位、中肉、黒色短髪、チェック柄シャツ、競技用のような自転車利用,西条市大町の,西条市大町,2,gray,38.0,愛媛県,エヒメケン,EHIME KEN,38206.0,西条市,サイジョウシ,SAIJO SHI,大町,オオマチ,OMACHI,福森,33.912953,133.188923
135,西条署管内,声かけ,令和3年9月1日(水)午後6時30分ころ,西条市ひうちの路上,女性が歩行中、対向から来た自転車乗車の男に、「付きおうてや。」と声を掛けられ、その後別の場所で卑わいなことを言われたもの。,60〜80歳位、やせ型、白髪交じりの坊主頭、170センチ位、グレー色半袖シャツ、緑色ハーフパンツ、ママチャリ様自転車利用,西条市ひうちの,西条市ひうち,1,green,38.0,愛媛県,エヒメケン,EHIME KEN,38206.0,西条市,サイジョウシ,SAIJO SHI,ひうち,ヒウチ,HIUCHI,,33.94149,133.195547
136,伊予署管内,声かけ,令和3年9月1日(水)午後6時ころ,伊予郡松前町大字北黒田の路上,小学生女児が建物敷地内にいたところ、男から「名前なんていうの。苗字教えて。」と声を掛けられたもの。,40〜70歳位、中肉、身長160センチ位、灰色長ズボン、藍色キャップ帽・白色不織布マスク着用、眼鏡なし,伊予郡松前町大字北黒田の,伊予郡松前町大字北黒田,0,green,38.0,愛媛県,エヒメケン,EHIME KEN,38401.0,伊予郡松前町,イヨグンマサキチョウ,IYO GUN MASAKI CHO,大字北黒田,,,,33.781156,132.711217
137,松山東署管内,身体露出,令和3年8月31日(火)午後11時10分ころ,松山市中央一丁目の路上,男が上半身裸で歩いていたもの。,50歳位、中肉、黒色ハーフパンツ、眼鏡・スリッパ着用,松山市中央一丁目の,松山市中央一丁目,0,orange,38.0,愛媛県,エヒメケン,EHIME KEN,38201.0,松山市,マツヤマシ,MATSUYAMA SHI,中央一丁目,チュウオウ 1,CHUO 1,,33.853932,132.751538
138,今治署管内,不審者,令和3年8月31日(火)午後0時ころ,今治市徳重の会社敷地内,女子中学生2名が敷地内にいたところ、一度通り過ぎUターンしてきた軽四トラック乗車の男に、真横をギリギリで走行されたもの。,70歳位、白色軽四トラック利用、麦わら帽子着用,今治市徳重の会社敷地内,今治市徳重の会社敷地内,0,purple,,,,,,,,,,,,,,
139,松山東署管内,声かけ,令和3年8月31日(火)午前9時30分ころ,松山市道後樋又の駐車場内,女性が突然現れた男から「警察に通報するぞ。」と言われ、つきまとわれた上、「最近不審者が多いからな。通報は取り消すわ。」等と言われたもの。,小肥、身長160〜170センチ位、灰色半袖Tシャツ、黒色スラックス、ベージュ色ハット帽着用、眼鏡・マスクなし,松山市道後樋又の,松山市道後樋又,1,green,38.0,愛媛県,エヒメケン,EHIME KEN,38201.0,松山市,マツヤマシ,MATSUYAMA SHI,道後樋又,ドウゴヒマタ,DOGO HIMATA,,33.852406,132.772246
140,伯方署管内,声かけ,令和3年8月27日(金)午後5時15ころ,越智郡上島町の施設内,女子高校生2名が施設内にいたところ、新聞記者を装って近づいてきた男から「一緒に船に乗っていいですか?」「2人が船のデッキで和やかに話しているところを写真に撮りたいんです。」等と声をかけられたもの。,40〜60歳位、身長165センチ位、中肉、黒色又は濃い灰色の半袖Tシャツ、紺色ジーパン、黒縁眼鏡着用、一眼レフカメラ・大きい四角形の肩掛けバッグ所持,越智郡上島町の,越智郡上島町,0,green,,,,,,,,,,,,,,
141,松山南署管内,不審者,令和3年8月26日(木)午後10時ころ,東温市北野田の路上,女子高校生が自転車で移動中、正面から歩いてきた男に近寄られ、すれ違い様にスカートを捲られそうになったもの。,25〜40歳位、中肉、黒色短髪、暗色系の長袖、暗色系の長ズボン、黒縁様の眼鏡着用,東温市北野田の,東温市北野田,1,purple,38.0,愛媛県,エヒメケン,EHIME KEN,38215.0,東温市,トウオンシ,TOON SHI,北野田,キタノダ,KITANODA,,33.793893,132.832002
142,松山西署管内,声かけ,令和3年8月26日(木)午後8時25分ころ,松山市久万ノ台の路上,女性が歩行中、男から急にライトで照らされ、「写真撮らせてくれ。」「お前がいつもこの道を通っているのは知っている。」等と言われ、後をつけられたもの。,40〜50歳位、中肉、自転車使用(前後に大量の荷物を括りつけている)、スマートフォン所持,松山市久万ノ台の,松山市久万ノ台,0,green,38.0,愛媛県,エヒメケン,EHIME KEN,38201.0,松山市,マツヤマシ,MATSUYAMA SHI,久万ノ台,クマノダイ,KUMANODAI,,33.859432,132.742567
143,松山南署管内,つきまとい,令和3年8月25日(水)午後8時ころ,松山市朝生田町一丁目の路上から同町二丁目の路上までの間,女性が歩行中、自転車に乗った男とすれ違う際に目が合い、後をつけられた上、先回りして待ち伏せされたもの。,30〜40歳位、中肉、身長170〜180センチ位、白色かベージュ様の半袖、茶色様の長ズボン、頭に白色様のタオルを巻いている、口髭あり、マスクなし,松山市朝生田町一丁目の,松山市朝生田町一丁目,1,blue,38.0,愛媛県,エヒメケン,EHIME KEN,38201.0,松山市,マツヤマシ,MATSUYAMA SHI,朝生田町一丁目,アソダマチ 1,ASODAMACHI 1,,33.823191,132.773714
144,西条署管内,身体露出,令和3年8月25日(水)午前9時ころ,西条市喜多川の路上,男がパンツ姿で歩いていたもの。,30〜40歳位、中肉、上衣:裸、下衣:黒色パンツ、上半身が日に焼けて黒い,西条市喜多川の,西条市喜多川,1,orange,38.0,愛媛県,エヒメケン,EHIME KEN,38206.0,西条市,サイジョウシ,SAIJO SHI,喜多川,キタガワ,KITAGAWA,,33.922611,133.170114
145,四国中央署管内,のぞき・盗撮,令和3年8月24日(火)午後5時20分ころ,四国中央市内を走行中の列車内,女子高校生3名が列車に乗車中、向かいの席に座った男から、足元等にスマートフォンを向けられたもの。,50歳位、やせ型、身長180センチ位、白髪混じりのスポーツ刈り、黒色ポロシャツ、灰色短パン、眼鏡あり(金属フレーム)、白色マスク・イヤホン着用、黒色リュックサック・黒色っぽいスマートフォン所持,四国中央市内を走行中の列車内,四国中央市内を走行中の列車内,0,pink,,,,,,,,,,,,,,
146,新居浜署管内,不審者,令和3年8月24日(火)午前10時30分ころ,新居浜市大生院の一般住宅,小学生女児と未就学男児が在宅中、男に施錠した玄関のドアノブを何度も引かれたもの。,白色普通乗用車利用,新居浜市大生院の,新居浜市大生院,0,purple,38.0,愛媛県,エヒメケン,EHIME KEN,38205.0,新居浜市,ニイハマシ,NIIHAMA SHI,大生院,オオジョウイン,OJOIN,,33.899194,133.257014
147,松山東署管内,不審者,令和3年8月22日(日)午後4時ころ,松山市桑原一丁目の路上,原付に乗った男が、付近を往復走行したり、佇んで建物を見つめていたもの。なお、男はこれまでに2回、同様の行為をしているのを目撃されている。,60〜70歳位、中肉、ハゲ頭、赤色半袖シャツ、黒色ジャージ、赤色第一種原付利用、白色ジェット型ヘルメット着用,松山市桑原一丁目の,松山市桑原一丁目,0,purple,38.0,愛媛県,エヒメケン,EHIME KEN,38201.0,松山市,マツヤマシ,MATSUYAMA SHI,桑原一丁目,クワバラ 1,KUWABARA 1,,33.835855,132.788967
148,松山南署管内,声かけ,令和3年8月22日(日)午前0時15分ころ,松山市南久米町の駐車場内,女性が駐車場内にいたところ、降車した男から「何しているの?何歳?ドライブ行こうよ。」等と声を掛けられ、腕を掴まれそうになり、その後、車で追いかけられたもの。,20〜30歳位、やせ型、身長170センチ位、黒色短髪、前髪がべとべとしている、黒色Tシャツ、クリーム色の長ズボン、普通乗用車利用(黒色、コンパクトカー)、白色マスク着用,松山市南久米町の,松山市南久米町,0,green,38.0,愛媛県,エヒメケン,EHIME KEN,38201.0,松山市,マツヤマシ,MATSUYAMA SHI,南久米町,ミナミクメマチ,MINAMIKUMEMACHI,,33.817141,132.80287
149,四国中央署管内,声かけ,令和3年8月21日(土)午後8時ころ,四国中央市三島中央三丁目の路上,高校生3名(男1名、女2名)が歩行中、うち2名の女子高校生が、原付に二人乗りした男等から二度にわたって、「ちょっと待って、そこのお姉さん。」等と声を掛けられたもの。,20歳位の男、中肉、オートバイ利用(黒色様、スクータータイプ、ナンバー不明)、半キャップ型ヘルメット着用(共犯者:20歳位の男、中肉、金髪短髪、半袖Tシャツ、長ズボン、肩掛けバッグ所持),四国中央市三島中央三丁目の,四国中央市三島中央三丁目,0,green,38.0,愛媛県,エヒメケン,EHIME KEN,38213.0,四国中央市,シコクチュウオウシ,SHIKOKUCHUO SHI,三島中央三丁目,ミシマチュウオウ 3,MISHIMA CHUO 3,,33.981476,133.542925
150,松山南署管内,声かけ,令和3年8月19日(木)午前11時40分ころ,東温市田窪の一般住宅,小学生男児が建物内にいたところ、訪問してきた男から勝手口を叩かれ「あーそーぼ。」と声を掛けられたもの。,身長170センチ位、上下黒色様の服、中年男性の声色,東温市田窪の,東温市田窪,0,green,38.0,愛媛県,エヒメケン,EHIME KEN,38215.0,東温市,トウオンシ,TOON SHI,田窪,タノクボ,TANOKUBO,,33.79037,132.860296
151,松山南署管内,声かけ,令和3年8月19日(木)午前11時40分ころ,東温市田窪の一般住宅,小学生男児が建物内にいたところ、訪問してきた男から勝手口を叩かれ「あーそーぼ。」と声を掛けられたもの。,身長170センチ位、上下黒色様の服、中年男性の声色,東温市田窪の,東温市田窪,0,green,38.0,愛媛県,エヒメケン,EHIME KEN,38215.0,東温市,トウオンシ,TOON SHI,田窪,タノクボ,TANOKUBO,門田,33.784374,132.855824
152,松山南署管内,つきまとい,令和3年8月18日(水)午後7時ころ,東温市野田三丁目の店舗内,女性が女子中学生と店内にいたところ、女性等を見て自身の下半身を触る男から、後方をつきまとわれたもの。,30〜40歳位、身長150センチ位、小肥、短髪、赤色と黒色又は紺色のボーダーシャツ、黒色ハーフパンツ、赤色キャップ帽着用、外国人風、色黒、目が大きい,東温市野田三丁目の,東温市野田三丁目,0,blue,38.0,愛媛県,エヒメケン,EHIME KEN,38215.0,東温市,トウオンシ,TOON SHI,野田三丁目,ノダ 3,NODA 3,,33.794556,132.835071
153,松山東署管内,凝視,令和3年8月18日(水)午前7時45分ころ,松山市土居田町の路上,女性が歩行中、車に乗った男に並走され、車内から凝視されたもの。,70〜80歳位、短髪、面長、眼鏡・マスクなし、白色軽四トラック使用,松山市土居田町の,松山市土居田町,1,凝視,38.0,愛媛県,エヒメケン,EHIME KEN,38201.0,松山市,マツヤマシ,MATSUYAMA SHI,土居田町,ドイダマチ,DOIDAMACHI,,33.823276,132.746488
154,新居浜署管内,不審者,令和3年8月10日(火)午後6時30分ころ,新居浜市本郷一丁目の路上,男がバイクに跨ったまま、一般住宅敷地内に駐車された車両を注視していたもの。,50〜60歳位、細身、小柄、白色又はシルバーのスクーター(75又は125cc位)利用、ジェット型ヘルメット着用,新居浜市本郷一丁目の,新居浜市本郷一丁目,0,purple,38.0,愛媛県,エヒメケン,EHIME KEN,38205.0,新居浜市,ニイハマシ,NIIHAMA SHI,本郷一丁目,ホンゴウ 1,HONGO 1,,33.935817,133.28608
155,松山西署管内,声かけ,令和3年8月10日(火)午後5時10分ころ,松山市西垣生町の路上,男子中学生が自転車で移動中、路上駐車していたトラックの運転手と目が合い、近寄られ、「何笑っとんぞ。どついたろか。」等と因縁をつけられたもの。,40〜50歳位、小肥、身長170センチ位、耳にかからない位の白髪混じりの黒髪、灰色Tシャツ、紺色作業ズボン、白色普通トラック利用、フレームが深緑色の眼鏡,松山市西垣生町の,松山市西垣生町,0,green,38.0,愛媛県,エヒメケン,EHIME KEN,38201.0,松山市,マツヤマシ,MATSUYAMA SHI,西垣生町,ニシハブマチ,NISHIHABUMACHI,,33.813675,132.701207
156,西条署管内,住居侵入,令和3年8月9日(月)午後11時30分ころ,西条市氷見丙の一般住宅,男が一般住宅敷地内に侵入し、しゃがみ込む等していたもの。女性が声掛けしたところ、男は「あーあー。」と声を発して立ち去った。,50歳位、やせ型、身長160〜170センチ位、坊主頭、無地の紺色様Tシャツ、暗色のズボン、タバコの白箱様の物所持,西条市氷見丙の,西条市氷見,1,darkred,,,,,,,,,,,,,,
157,松山南署管内,つきまとい,令和3年8月4日(水)午前8時25分ころ,松山市越智二丁目の路上から同市越智一丁目の路上までの間,小学生男児が歩行中、男に後方をつきまとわれ、一度立ち去るも、移動先で待ち伏せされたもの。,65〜80歳位、小肥、身長170センチ位、上下青色又は紺色の半袖半ズボンジャージ、明るめの眼鏡・白色のハット帽又は麦わら帽子着用、もじゃもじゃの白髭あり,松山市越智二丁目の,松山市越智二丁目,0,blue,38.0,愛媛県,エヒメケン,EHIME KEN,38201.0,松山市,マツヤマシ,MATSUYAMA SHI,越智二丁目,オチ 2,OCHI 2,,33.810089,132.784573
158,松山東署管内,声かけ,令和3年8月3日(火)午後6時30分ころ,松山市味酒町一丁目の路上から同市味酒町二丁目の路上までの間,女性が歩行中、男に後方をつきまとわれた上、「素敵ですね、恋人いますか?」と声を掛けられたもの。,30〜40歳位、中肉、身長175センチ位、茶色混じりのぼさっとした黒色短髪、白色半袖Tシャツ(ボーダー柄)、茶色長ズボン、色白、色不明のボディバッグ所持、履物不明、眼鏡・マスクなし,松山市味酒町一丁目の,松山市味酒町一丁目,0,green,38.0,愛媛県,エヒメケン,EHIME KEN,38201.0,松山市,マツヤマシ,MATSUYAMA SHI,味酒町一丁目,ミサケマチ 1,MISAKEMACHI 1,,33.841555,132.75583
159,松山西署管内,声かけ,令和3年8月3日(火)午後0時40分ころ,松山市東垣生町の路上,男子中学生が歩行中、バイクにまたがった男から「手のひら、赤ちゃんみたいやろ。」等と意味不明の声掛けをされたもの。,40歳位、肥満、黒色短髪、白色スクーター,松山市東垣生町の,松山市東垣生町,1,green,38.0,愛媛県,エヒメケン,EHIME KEN,38201.0,松山市,マツヤマシ,MATSUYAMA SHI,東垣生町,ヒガシハブマチ,HIGASHIHABUMACHI,,33.813135,132.714338
160,松山西署管内,声かけ,令和3年8月1日(日)午後5時30分ころ,松山市東垣生町の路上,女子高校生が歩行中、小型の車に乗った男から「車に乗らない?」と声を掛けられた上、自宅まで低速で後をつけられたもの。,50〜70歳位、自動車利用(黒色、小型車),松山市東垣生町の,松山市東垣生町,2,green,38.0,愛媛県,エヒメケン,EHIME KEN,38201.0,松山市,マツヤマシ,MATSUYAMA SHI,東垣生町,ヒガシハブマチ,HIGASHIHABUMACHI,,33.813135,132.714338
161,松山東署管内,声かけ,令和3年7月31日(土)午後5時ころ,松山市一番町二丁目の施設内,女子中学生が施設内にいたところ、横に座ってきた男から「どこに行くの?家の住所は分からんの?」等と声を掛けられたもの。,50〜70歳位、やせ型、身長160〜170センチ位、黒色短髪、暗い色の長袖ジャンパー、黒色長ズボン、白色マスク・黒色スニーカー着用、紙袋(茶色)2袋所持,松山市一番町二丁目の,松山市一番町二丁目,0,green,38.0,愛媛県,エヒメケン,EHIME KEN,38201.0,松山市,マツヤマシ,MATSUYAMA SHI,一番町二丁目,イチバンチョウ 2,ICHIBANCHO 2,,33.841222,132.771378
162,松山東署管内,写真撮影,令和3年7月30日(金)午後0時55分ころ,松山市南江戸四丁目の路上,女子高校生が自転車で進行中、後方から来た自転車乗車の男にスマートフォンを向けられたもの。,30歳位、中肉、身長175センチ位、黒色短髪、白色半袖シャツ、黒色チェック柄ズボン、自転車利用(緑色、クロスバイク様)、黒縁眼鏡着用、マスク・髭なし、白色スマートフォン・黒色リュックサック所持,松山市南江戸四丁目の,松山市南江戸四丁目,0,lightred,38.0,愛媛県,エヒメケン,EHIME KEN,38201.0,松山市,マツヤマシ,MATSUYAMA SHI,南江戸四丁目,ミナミエド 4,MINAMIEDO 4,,33.837758,132.741668
163,松山東署管内,身体露出,令和3年7月29日(木)午前8時10分ころ,松山市下伊台町の路上,路上に立っていた男が、陰部を露出していたもの。,20〜40歳位、中肉、中背、Tシャツ(色不明),松山市下伊台町の,松山市下伊台町,0,orange,38.0,愛媛県,エヒメケン,EHIME KEN,38201.0,松山市,マツヤマシ,MATSUYAMA SHI,下伊台町,シモイダイマチ,SHIMOIDAIMACHI,,33.873539,132.799896
164,四国中央署管内,公然わいせつ容疑,令和3年7月28日(水)午後9時40分ころ,四国中央市下柏町の路上,女性が友人と歩行中、男から後方をつきまとわれ、一旦離れたものの、同男がズボンを脱ぎ下半身を手で隠した状態で走り寄ってきたもの。,30〜50歳位、中肉、身長170センチ位、肩までの長さの黒髪、黒色様のタイトな服、ズボンを穿いていない(下着の着用は不明)、眼鏡・帽子なし,四国中央市下柏町の,四国中央市下柏町,1,公然わいせつ容疑,38.0,愛媛県,エヒメケン,EHIME KEN,38213.0,四国中央市,シコクチュウオウシ,SHIKOKUCHUO SHI,下柏町,シモガシワチョウ,SHIMOGASHIWACHO,,33.98585,133.566343
165,宇和島署管内,写真撮影等,令和3年7月28日(水)午後4時40分ころ,宇和島市錦町の路上,女子中学生2名が歩行中、路上にいた男から一眼レフカメラを向けられたもの。その後、男は付近をうろつき別の女性に対してもカメラを向けていた。,50〜60歳位、中肉、身長165センチ位、黒色短髪、黒地に茶色模様の襟付きシャツ、グレー色様長ズボン、薄い黒縁眼鏡・白色マスク着用、黒色様ショルダーバッグ2個・黒色一眼レフカメラ所持,宇和島市錦町の,宇和島市錦町,0,写真撮影等,38.0,愛媛県,エヒメケン,EHIME KEN,38203.0,宇和島市,ウワジマシ,UWAJIMA SHI,錦町,ニシキマチ,NISHIKIMACHI,,33.226647,132.568488
166,松山東署管内,つきまとい,令和3年7月28日(水)午後3時30分ころ,松山市六軒家町の路上,女性が路上にて目が合った男から、後方をつきまとわれたもの。,30〜40歳位、身長175センチ位、中肉、肩にかかる長さの黒色パーマ、透明レンズの眼鏡着用、空のペットボトルを2本所持,松山市六軒家町の,松山市六軒家町,0,blue,38.0,愛媛県,エヒメケン,EHIME KEN,38201.0,松山市,マツヤマシ,MATSUYAMA SHI,六軒家町,ロッケンヤチョウ,ROKKENYACHO,,33.851253,132.752283
167,今治署管内,声かけ,令和3年7月24日(土)午後6時20分ころ,今治市常盤町七丁目の路上,男子高校生2名が自転車で走行中、前方を自転車でフラフラしながら走行していた男が急にUターンし、同男から「お前らワシに勝てると思っとるんか。」等と言われたもの。,60歳位、小肥、白髪混じりの黒色短髪、灰色タンクトップ、水色ジーンズ(半ズボン)、銀色の自転車利用、灰色サンダル、マスク・帽子なし,今治市常盤町七丁目の,今治市常盤町七丁目,0,green,38.0,愛媛県,エヒメケン,EHIME KEN,38202.0,今治市,イマバリシ,IMABARI SHI,常盤町七丁目,トキワチョウ 7,TOKIWACHO 7,,34.055931,132.988937
168,今治署管内,声かけ,令和3年7月24日(土)午後3時40分ころ,今治市大西町の施設内,小学生女児が友人と遊んでいたところ、男から「こんにちは。」と声を掛けられた上、敬礼をされたもの。,30歳位、やせ型、身長150〜160センチ位、黒色短髪、黒色の服、一見して外国人風、眼鏡・マスク(色不明)着用,今治市大西町の,今治市大西町,0,green,,,,,,,,,,,,,,
169,松山東署管内,写真撮影,令和3年7月22日(木)午後7時50分ころ,松山市湊町七丁目の路上,女性が停止中の車両内にいたところ、近づいてきた男から一眼レフカメラを向けられたもの。,20〜30歳位、やせ型、身長170センチ位、黒色様の服、黒色様長ズボン、一眼レフカメラ所持、黒色ハット帽・マスク着用、眼鏡なし,松山市湊町七丁目の,松山市湊町七丁目,1,lightred,38.0,愛媛県,エヒメケン,EHIME KEN,38201.0,松山市,マツヤマシ,MATSUYAMA SHI,湊町七丁目,ミナトマチ 7,MINATOMACHI 7,,33.835713,132.755855
170,松山南署管内,住居侵入,令和3年7月20日(火)午前5時05分ころ,松山市東方町の一般住宅,女性が浴室の窓を開けたところ、敷地内にいた男が住宅の壁に張り付くようにして隠れていたもの。,身長165センチ位、桃色シャツ、からし色ズボン,松山市東方町の,松山市東方町,0,darkred,38.0,愛媛県,エヒメケン,EHIME KEN,38201.0,松山市,マツヤマシ,MATSUYAMA SHI,東方町,ヒガシガタマチ,HIGASHIGATAMACHI,,33.763088,132.820612
171,西条西署管内,ちかん,令和3年7月19日(月)午後3時10分ころ,西条市周布の店舗内,女性が店舗内にいたところ、男が後方を通過しながら、腰部や臀部等を服の上から触ってきたもの。,40〜50歳位、中肉、黒色短髪、紺色Tシャツ、紺色作業ズボン様、自転車利用、銀縁眼鏡・マスク・黒色運動靴様着用、白色トートバッグ所持,西条市周布の,西条市周布,0,gray,38.0,愛媛県,エヒメケン,EHIME KEN,38206.0,西条市,サイジョウシ,SAIJO SHI,周布,シュウ,SHU,,33.915576,133.079875
172,松山東署管内,写真撮影,令和3年7月19日(月)午後3時ころ,松山市余戸西一丁目の路上,小学生女児が友人と歩行中、自転車に乗った男から二度にわたってカメラで写真を撮られたうえ、逃げようとした際に後ろから近づいてこられたもの。,30〜50歳位、禿げている、上下黒色の服、青色マウンテンバイク様(カゴなし),松山市余戸西一丁目の,松山市余戸西一丁目,0,lightred,38.0,愛媛県,エヒメケン,EHIME KEN,38201.0,松山市,マツヤマシ,MATSUYAMA SHI,余戸西一丁目,ヨウゴニシ 1,YOGONISHI 1,,33.813536,132.725131
173,西条西署管内,暴行,令和3年7月17日(土)午前10時ころ,西条市三芳の路上,小学生女児が一人で歩行中、男に前方を立ち塞がれたことから、横をすり抜けようとしたところ、足を引っ掛けられたもの。,身長170センチ位、中肉、短髪、白色と黒色のキャップ帽・黒色マスク着用,西条市三芳の,西条市三芳,0,red,38.0,愛媛県,エヒメケン,EHIME KEN,38206.0,西条市,サイジョウシ,SAIJO SHI,三芳,ミヨシ,MIYOSHI,,33.953294,133.067329
174,松山東署管内,声かけ,令和3年7月16日(金)午後5時30分ころ,松山市空港通二丁目から三丁目までの間の路上,男子中学生が自転車で車道端を通行中、車に乗った男からクラクションを鳴らされたうえ、怒鳴られたもの。,30〜50歳位、黒髪、小肥、白色普通乗用車,松山市空港通二丁目から三丁目までの間の,松山市空港通二丁目から三丁目までの間,0,green,,,,,,,,,,,,,,
175,宇和島署管内,写真撮影,令和3年7月16日(金)午後5時30分ころ,宇和島市新田町二丁目の駐車場内,女子高校生2名が駐車場にいたところ、駐車中の車内にいた男から一眼レフカメラを向けられたもの。,40歳位、黒髪、普通乗用自動車利用(オレンジ色)、一眼レフカメラ所持,宇和島市新田町二丁目の,宇和島市新田町二丁目,0,lightred,38.0,愛媛県,エヒメケン,EHIME KEN,38203.0,宇和島市,ウワジマシ,UWAJIMA SHI,新田町二丁目,シンデンチョウ 2,SHINDENCHO 2,,33.213243,132.557992
176,伊予署管内,つきまとい,令和3年7月16日(金)午前5時20分ころ,伊予郡松前町大字北黒田の路上から同町大字南黒田の路上までの間,男性が徒歩で移動中、路上にいた男が「ふふふ。」と笑うなどしながら、周囲をつきまとってきたもの。,20〜30歳位、中肉、身長170センチ位、短髪、白色Tシャツ、短パン、裸足、眼鏡・髭なし,伊予郡松前町大字北黒田の,伊予郡松前町大字北黒田,1,blue,38.0,愛媛県,エヒメケン,EHIME KEN,38401.0,伊予郡松前町,イヨグンマサキチョウ,IYO GUN MASAKI CHO,大字北黒田,,,,33.781156,132.711217
177,松山西署管内,声かけ,令和3年7月15日(木)午後4時ころ,松山市南斎院町の屋外施設,小学生男女児4名が遊んでいたところ、歩いて来た男から学校名、学年、クラスを聞かれた上、ブランコで遊んでいた児童が、「後ろから押そうか?」と声を掛けられたもの。,70〜80歳位、中肉、身長170センチ位、白髪混じりの髪、水色Tシャツ、青色ズボン、青色帽子着用、眼鏡なし,松山市南斎院町の,松山市南斎院町,0,green,38.0,愛媛県,エヒメケン,EHIME KEN,38201.0,松山市,マツヤマシ,MATSUYAMA SHI,南斎院町,ミナミサヤチョウ,MINAMISAYACHO,,33.83303,132.731679
178,松山南署管内,暴行,令和3年7月15日(木)午前7時40分ころ,松山市西石井五丁目の路上,女子中学生が友人と徒歩で移動中、車両に乗った行為者から、すれ違いざまにブルーベリーを投げつけられたもの。,普通乗用自動車利用(白色、セダン車),松山市西石井五丁目の,松山市西石井五丁目,0,red,38.0,愛媛県,エヒメケン,EHIME KEN,38201.0,松山市,マツヤマシ,MATSUYAMA SHI,西石井五丁目,ニシイシイ 5,NISHIISHII 5,,33.813787,132.771416
179,松山東署管内,声かけ,令和3年7月15日(木)午前0時25分ころ,松山市味酒のエレベーター内,女性が路上にいた男に後をつけられ、同乗したマンションのエレベーター内で、ズボンに手をかけた状態で「お金あげるけん見て。」等と声を掛けられたもの。,30歳位、身長175センチ位、ベタついてもっさりした黒髪、薄手の白色シャツ、ベージュ色ズボン,松山市味酒のエレベーター内,松山市味酒のエレベーター内,0,green,,,,,,,,,,,,,,
180,松山南署管内,つきまとい,令和3年7月14日(水)午後7時30分ころから同日午後8時30分ころまでの間,松山市水泥町等の路上,女子高校生が自転車で移動中、自転車に乗った男から、約1時間にわたって後方をつきまとわれたもの。,18〜25歳位、マスク着用、白色リュックサックを背負っている、黒色ロードバイク様自転車使用,松山市水泥町等の,松山市水泥町等,0,blue,,,,,,,,,,,,,,
181,松山西署管内,声かけ,令和3年7月13日(火)午後3時ころ,松山市堀江町の路上,女性が歩行中、男から「覚えとる?」と声をかけられ、「分かりません。」と答えると、「あ、そうですか。」と言い、立ち去ったもの。,30歳位、身長170センチ位、中肉、やや長めの茶髪、黒色Tシャツ、ジーパン、マスク着用、眼鏡なし,松山市堀江町の,松山市堀江町,0,green,38.0,愛媛県,エヒメケン,EHIME KEN,38201.0,松山市,マツヤマシ,MATSUYAMA SHI,堀江町,ホリエチョウ,HORIECHO,,33.908885,132.759138
182,松山東署管内,不審者,令和3年7月12日(月)午後1時30分ころ,松山市北立花町の路上,男が折り畳み式様のナイフを持ち、歩いていたもの。,20〜30歳位、身長175センチ位、やせ型、黒色短髪、灰色長袖上衣、紺色長ズボン、眼鏡着用、コンパクトサイズの折り畳み式様のナイフ(柄が黒色)所持,松山市北立花町の,松山市北立花町,0,purple,38.0,愛媛県,エヒメケン,EHIME KEN,38201.0,松山市,マツヤマシ,MATSUYAMA SHI,北立花町,キタタチバナマチ,KITATACHIBANAMACHI,,33.834261,132.77277
183,松山東署管内,不審者,令和3年7月11日(日)午後0時40分ころ,松山市余戸東一丁目の歩道上,女子中学生が徒歩にて移動中、自転車に乗り対向してきた男が何かを呟きながら、すれ違いざまに手を振ってきたもの。,50〜60歳位、少し痩せている、薄汚れた作業着様の服、薄汚れた作業ズボン、自転車(銀色、ママチャリ、前カゴ付)、頭全体と鼻から下にタオルを巻いており目元しか見えない、眼鏡なし,松山市余戸東一丁目の歩道上,松山市余戸東一丁目の歩道上,0,purple,,,,,,,,,,,,,,
184,四国中央署管内,声かけ,令和3年7月11日(日)午前11時ころ,四国中央市寒川町の路上,小学生女児が路上にいたところ、自転車に乗った男から手招きされ、「お金をあげるけんおいで。」と声を掛けられたもの。,80歳位、小肥、身長165〜170センチ位、色不明の長袖、色不明の半ズボン、自転車利用、青色キャップ帽着用,四国中央市寒川町の,四国中央市寒川町,1,green,38.0,愛媛県,エヒメケン,EHIME KEN,38213.0,四国中央市,シコクチュウオウシ,SHIKOKUCHUO SHI,寒川町,サンガワチョウ,SANGAWACHO,,33.952462,133.507717
185,四国中央署管内,声かけ,令和3年7月11日(日)午前11時ころ,四国中央市寒川町の路上,小学生女児が路上にいたところ、自転車に乗った男から手招きされ、「お金をあげるけんおいで。」と声を掛けられたもの。,80歳位、小肥、身長165〜170センチ位、色不明の長袖、色不明の半ズボン、自転車利用、青色キャップ帽着用,四国中央市寒川町の,四国中央市寒川町,1,green,38.0,愛媛県,エヒメケン,EHIME KEN,38213.0,四国中央市,シコクチュウオウシ,SHIKOKUCHUO SHI,寒川町,サンガワチョウ,SANGAWACHO,大門,33.967211,133.503062
186,松山東署管内,つきまとい,令和3年7月9日(金)午前8時40分ころ,松山市和泉北三丁目の建物軒下,女性が軒下にいたところ、一旦通り過ぎた男が戻ってきて、何か小声で呟きながら近付いてきたもの。女性は同日午後3時ころにも、同所付近にて佇む男を目撃している。,30〜40歳位、やせ型、身長165〜170センチ位、黒色様のパーマ頭、黒色ジャージ(2回目の目撃時は白色半袖シャツ)、黒色ジャージ(白色ライン2本入り)、目つきが鋭い、透明ビニール傘所持,松山市和泉北三丁目の建物軒下,松山市和泉北三丁目の建物軒下,0,blue,,,,,,,,,,,,,,
187,松山南署管内,不審者,令和3年7月9日(金)午前7時40分ころ,松山市居相五丁目の路上,男がパンツ姿で、路上に面する一軒家の壁にもたれかかるようにして座り込んでいたもの。,50〜60歳位、小肥、黒色短髪、上半身裸、青色トランクス、赤茶色の靴,松山市居相五丁目の,松山市居相五丁目,0,purple,38.0,愛媛県,エヒメケン,EHIME KEN,38201.0,松山市,マツヤマシ,MATSUYAMA SHI,居相五丁目,イアイ 5,IAI 5,,33.807713,132.773921
188,松山東署管内,写真撮影,令和3年7月7日(水)午後2時45分ころ,松山市松前町三丁目の路上,小学生男女数人が歩行中、路上に立つ男にデジタルカメラで撮影されたうえ、後をつけられたもの。,30〜40歳位、中肉、パーマをかけたようなボサボサの茶髪、上下青色様の服、眼鏡あり、茶色の靴着用、マスクなし、白色デジタルカメラ所持,松山市松前町三丁目の,松山市松前町三丁目,0,lightred,38.0,愛媛県,エヒメケン,EHIME KEN,38201.0,松山市,マツヤマシ,MATSUYAMA SHI,松前町三丁目,マサキマチ 3,MASAKIMACHI 3,,33.846412,132.757657
189,松山西署管内,つきまとい,令和3年7月6日(火)午後9時15分ころ,松山市東長戸四丁目から同市問屋町の間の路上,女性が歩行中、男に後をつけられ、逃げ込んだ店舗内にて無言でスマートフォンを向けられたもの。,20〜30歳位、身長160〜165センチ位、中肉、センター分けで少し長めの黒髪、白色マスク着用、眼鏡・帽子なし、軽快兼用自転車使用,松山市東長戸四丁目から同市問屋町の間の,松山市東長戸四丁目から同市問屋町の間,0,blue,,,,,,,,,,,,,,
190,松山南署管内,不審者,令和3年7月6日(火)午後6時40分ころ,松山市森松町の施設付近,女性が施設の駐車場にいたところ、付近から施設内を何度も覗く男を発見し、女性が車で施設を出たところ、走って追いかけられたもの。,25〜30歳位、身長170〜175センチ位、中肉、白色半袖Tシャツ、灰色ハーフパンツ、灰色キャップ帽着用、マスク・眼鏡なし,松山市森松町の,松山市森松町,1,purple,38.0,愛媛県,エヒメケン,EHIME KEN,38201.0,松山市,マツヤマシ,MATSUYAMA SHI,森松町,モリマツマチ,MORIMATSUMACHI,,33.789207,132.791713
191,松山南署管内,声かけ,令和3年7月6日(火)午後5時ころ,松山市朝生田町六丁目の屋外施設,小学生男女数人が屋外施設にいたところ、車内にいた女から「おいで。おいで。」と言われ、手招きをされたもの。,40〜50歳位、黒色長髪、つり目、白色ボックスタイプの軽四自動車,松山市朝生田町六丁目の,松山市朝生田町六丁目,0,green,38.0,愛媛県,エヒメケン,EHIME KEN,38201.0,松山市,マツヤマシ,MATSUYAMA SHI,朝生田町六丁目,アソダマチ 6,ASODAMACHI 6,,33.82048,132.767167
192,松山東署管内,つきまとい,令和3年7月6日(火)午前8時40分ころ,松山市大街道二丁目の路上,女子高校生が友人と歩行中、自転車に乗った男から後をつけられ、スマートフォンを向けられたもの。なお、女子高校生は7月2日と5日にも同男から同様の行為を受けている。,20〜30歳位、やせ型、黒又は茶色の長髪、七三分け、黒色ノーカラーシャツ、青色ジーンズ、黒色リュックサック、タオル所持、眼鏡あり、マスクなし、軽快兼用自転車(黒色前カゴ、茶色ハンドルグリップ),松山市大街道二丁目の,松山市大街道二丁目,0,blue,38.0,愛媛県,エヒメケン,EHIME KEN,38201.0,松山市,マツヤマシ,MATSUYAMA SHI,大街道二丁目,オオカイドウ 2,OKAIDO 2,,33.839723,132.770173
193,松山東署管内,写真撮影,令和3年7月5日(月)午前8時20分ころ,松山市室町二丁目の路上,女子高校生が自転車で信号待ち中、自転車で後方に停車した男からスマートフォンで後ろ姿を動画撮影されたもの。,16〜20歳位、中肉、黒色短髪、えんじ色の長ズボン、自転車利用、黒縁様眼鏡、イヤホン着用、黒色様スマートフォン所持,松山市室町二丁目の,松山市室町二丁目,0,lightred,38.0,愛媛県,エヒメケン,EHIME KEN,38201.0,松山市,マツヤマシ,MATSUYAMA SHI,室町二丁目,ムロマチ 2,MUROMACHI 2,,33.82957,132.763921
194,西条署管内,暴行,令和3年7月5日(月)午前7時30分ころ,西条市樋之口の路上,女子中学生が友人と自転車で走行中、男と自転車同士が接触し、直ちに謝罪したにもかかわらず、追いかけてきた男から「先に謝るのが普通やろが。」等と言われ、ヘルメット越しに頭を一度叩かれたもの。,50〜60歳位、ボサボサの短髪、黒色タンクトップ、自転車利用(オレンジ色、ママチャリ)、眉毛が太い、黒色サングラス着用,西条市樋之口の,西条市樋之口,0,red,38.0,愛媛県,エヒメケン,EHIME KEN,38206.0,西条市,サイジョウシ,SAIJO SHI,樋之口,ヒノクチ,HINOKUCHI,,33.918738,133.165782
195,今治署管内,不審者,令和3年7月3日(土)午後1時30分ころ,今治市東門町五丁目の店舗内,小学生男児が移動中、女から突然、「邪魔じゃ。」「子供は泣くから嫌いなんじゃ。」等と怒鳴られたもの。,70〜80歳位、身長165センチ位、小肥、白髪混じり短髪、上下茶色の服、目が細く鋭い、眼鏡・マスクなし,今治市東門町五丁目の,今治市東門町五丁目,0,purple,38.0,愛媛県,エヒメケン,EHIME KEN,38202.0,今治市,イマバリシ,IMABARI SHI,東門町五丁目,ヒガシモンチョウ 5,HIGASHIMONCHO 5,,34.061825,133.015016
196,四国中央署管内,身体露出,令和3年7月2日(金)午後6時ころ,四国中央市下柏町の店舗駐車場,女性が駐車場内にいたところ、車両の運転席にいた男から、露出した下半身を触る様子を見せつけられたもの。,30〜40歳位、頭髪薄め、無精髭あり、眼鏡・マスクなし、黒色軽四乗用車使用,四国中央市下柏町の,四国中央市下柏町,2,orange,38.0,愛媛県,エヒメケン,EHIME KEN,38213.0,四国中央市,シコクチュウオウシ,SHIKOKUCHUO SHI,下柏町,シモガシワチョウ,SHIMOGASHIWACHO,,33.98585,133.566343
197,松山南署管内,声かけ,令和3年7月2日(金)午後3時ころ,松山市福音寺町の路上,小学生女児等が集団下校中、車を運転する男が並走し、窓から手を伸ばしたり、「お前らやめろ。」等と怒鳴ってきたもの。,50歳位、中肉、黒色半袖Tシャツ、黒色キャップ帽・黒色様の眼鏡・白色マスク着用、白色普通乗用車使用,松山市福音寺町の,松山市福音寺町,1,green,38.0,愛媛県,エヒメケン,EHIME KEN,38201.0,松山市,マツヤマシ,MATSUYAMA SHI,福音寺町,フクオンジマチ,FUKUONJIMACHI,,33.821822,132.790842
198,松山南署管内,不審者,令和3年7月1日(木)午前7時20分ころ,松山市平井町の駐車場,駐車場に立っていた男女2名が互いのズボン内に手を入れあっていたもの。前日の同時間帯にも同様の行為が目撃されている。,70歳位の男女,松山市平井町の,松山市平井町,1,purple,38.0,愛媛県,エヒメケン,EHIME KEN,38201.0,松山市,マツヤマシ,MATSUYAMA SHI,平井町,ヒライマチ,HIRAIMACHI,,33.824694,132.836156
199,新居浜署管内,つきまとい,令和3年6月30日(水)午後4時30分ころ,新居浜市上泉町の路上から同市岸の上町一丁目の路上までの間,小学生女児が歩行中、自転車に乗った男に後方からつきまとわれたもの。,40〜50歳位、ボサボサ頭の黒髪、上下黒色様スーツ、黒色自転車利用、眼鏡あり、黒色リュックサック所持,新居浜市上泉町の,新居浜市上泉町,0,blue,38.0,愛媛県,エヒメケン,EHIME KEN,38205.0,新居浜市,ニイハマシ,NIIHAMA SHI,上泉町,カミイズミチョウ,KAMIIZUMICHO,,33.936019,133.307329
200,松山東署管内,声かけ,令和3年6月30日(水)午前7時30分ころ,松山市立花一丁目の路上,自転車に乗った男が交差点に立つ女性に近づき、粗暴な言葉をつぶやいたもの。,赤色チェック柄の服、酒に酔っている様子、自転車使用,松山市立花一丁目の,松山市立花一丁目,0,green,38.0,愛媛県,エヒメケン,EHIME KEN,38201.0,松山市,マツヤマシ,MATSUYAMA SHI,立花一丁目,タチバナ 1,TACHIBANA 1,,33.831443,132.771511
201,今治署管内,声かけ,令和3年6月29日(火)午後1時30分ころ,今治市東村一丁目の店舗,女児が買い物をしていたところ、男が自身の下半身を指差し、「ここを触って。」等と声をかけてきたもの。,16歳位、一見して中高生風,今治市東村一丁目の,今治市東村一丁目,0,green,38.0,愛媛県,エヒメケン,EHIME KEN,38202.0,今治市,イマバリシ,IMABARI SHI,東村一丁目,ヒガシムラ 1,HIGASHIMURA 1,,34.043233,133.028504
202,四国中央署管内,声かけ,令和3年6月29日(火)午前7時15分ころ,四国中央市寒川町の路上,小学生男児が歩行中、車に乗って近づいてきた男から、学年と氏名を聞かれたもの。,70歳位、白髪混じり、白色軽四トラック使用,四国中央市寒川町の,四国中央市寒川町,2,green,38.0,愛媛県,エヒメケン,EHIME KEN,38213.0,四国中央市,シコクチュウオウシ,SHIKOKUCHUO SHI,寒川町,サンガワチョウ,SANGAWACHO,,33.952462,133.507717
203,四国中央署管内,声かけ,令和3年6月29日(火)午前7時15分ころ,四国中央市寒川町の路上,小学生男児が歩行中、車に乗って近づいてきた男から、学年と氏名を聞かれたもの。,70歳位、白髪混じり、白色軽四トラック使用,四国中央市寒川町の,四国中央市寒川町,2,green,38.0,愛媛県,エヒメケン,EHIME KEN,38213.0,四国中央市,シコクチュウオウシ,SHIKOKUCHUO SHI,寒川町,サンガワチョウ,SANGAWACHO,大門,33.967211,133.503062
204,松山南署管内,不審者,令和3年6月28日(月)午後3時55分ころ,松山市天山一丁目の路上から同市天山二丁目の路上までの間,女子中学生が自転車で走行中、前方を走る自転車乗車の男を追い抜こうとする際、同男から繰り返し進路を妨害されたもの。,50〜60歳位、青色ジャンパー、銀色自転車利用、白色マスク着用,松山市天山一丁目の,松山市天山一丁目,0,purple,38.0,愛媛県,エヒメケン,EHIME KEN,38201.0,松山市,マツヤマシ,MATSUYAMA SHI,天山一丁目,アマヤマ 1,AMAYAMA 1,,33.822489,132.778633
205,松山南署管内,不審者,令和3年6月27日(日)午後6時ころ,松山市市坪西町の路上,女性が歩行中、対向から徒歩にてニヤニヤしながら近づいてきた男から文言不明の言葉をかけられたうえ、肩を触られそうになったもの。男は、車に乗って立ち去った。,30〜40歳位、身長165センチ位、小肥、黒色短髪、白色半袖シャツ、黒色様半ズボン、白色サンダル着用、白色軽四乗用車使用,松山市市坪西町の,松山市市坪西町,0,purple,38.0,愛媛県,エヒメケン,EHIME KEN,38201.0,松山市,マツヤマシ,MATSUYAMA SHI,市坪西町,イチツボニシマチ,ICHITSUBONISHIMACHI,,33.809432,132.744574
206,四国中央署管内,のぞき・盗撮,令和3年6月26日(土)午後8時15分ころ,四国中央市三島朝日二丁目の一般住宅,女性が入浴中、屋外にいた者から、閉めていた窓を棒状の物で叩かれたうえ、同窓を約1センチ開けられたもの。,不審者像不明、色不明の合羽様着用,四国中央市三島朝日二丁目の,四国中央市三島朝日二丁目,0,pink,38.0,愛媛県,エヒメケン,EHIME KEN,38213.0,四国中央市,シコクチュウオウシ,SHIKOKUCHUO SHI,三島朝日二丁目,ミシマアサヒ 2,MISHIMA ASAHI 2,,33.987588,133.558205
207,松山東署管内,声かけ,令和3年6月25日(金)午後7時10分ころ,松山市緑町一丁目のマンション敷地内,女性がマンションを訪れていたところ、エレベーターホールにいた男がエレベーター前に立ちふさがり、同人から「電話番号教えて。」等としつこく声をかけられたもの。,20〜30歳位、ギンガムチェック柄の服,松山市緑町一丁目の,松山市緑町一丁目,0,green,38.0,愛媛県,エヒメケン,EHIME KEN,38201.0,松山市,マツヤマシ,MATSUYAMA SHI,緑町一丁目,ミドリマチ 1,MIDORIMACHI 1,,33.845975,132.770125
208,大洲署管内,写真撮影,令和3年6月25日(金)午後5時ころ,大洲市大洲の駐車場内,女子高校生が駐車場内にいたところ、徒歩で近づいてきた男から首に提げたままのカメラを向けられたもの。男は離れた場所で、撮影した写真を確認する素振りをしていた。,60〜70歳位、身長170センチ位、やせ型、青色カッターシャツ、紺色スラックス、麦わら帽子着用、一眼レフカメラ所持,大洲市大洲の,大洲市大洲,0,lightred,38.0,愛媛県,エヒメケン,EHIME KEN,38207.0,大洲市,オオズシ,OZU SHI,大洲,オオズ,OZU,,33.505549,132.542621
209,松山東署管内,声かけ,令和3年6月24日(木)午後0時50分ころ,松山市湊町五丁目の屋外施設,女子高校生が屋外施設のベンチに座っていたところ、隣に座ってきた男から卑わいな言葉を掛けられたもの。,60〜70歳位、中肉、身長170〜180センチ位、白色短髪、灰色半袖シャツ、深緑色長ズボン、白色マスク着用、白色様のトートバッグ所持、眼鏡・帽子なし、少し前屈みで歩く,松山市湊町五丁目の,松山市湊町五丁目,0,green,38.0,愛媛県,エヒメケン,EHIME KEN,38201.0,松山市,マツヤマシ,MATSUYAMA SHI,湊町五丁目,ミナトマチ 5,MINATOMACHI 5,,33.835933,132.762679
210,伊予署管内,声かけ,令和3年6月23日(水)午後5時50分ころ,伊予郡松前町大字筒井の屋外施設,小学生女児が友人と屋外施設で遊んでいたところ、路上を自転車で走行していた男から「小学生?中学生?」と声を掛けられ、さらに「胸が大きいね。」と言われたもの。,60〜70歳位、やせ型、身長160〜170センチ位、白色半袖Tシャツ、黒色様長ズボン、自転車利用(銀色、前カゴ・荷台あり)、白色キャップ帽、眼鏡なし、歯が抜けている,伊予郡松前町大字筒井の,伊予郡松前町大字筒井,0,green,38.0,愛媛県,エヒメケン,EHIME KEN,38401.0,伊予郡松前町,イヨグンマサキチョウ,IYO GUN MASAKI CHO,大字筒井,,,,33.790916,132.699561
211,伊予署管内,声かけ,令和3年6月23日(水)午後4時ころ,伊予市米湊の路上,女子中学生が歩行中、自転車に乗った男から「中学生?高校生?」と声を掛けられたもの。,50〜60歳位、やせ型、身長160センチ位、白髪混じりの短髪、青色半袖シャツ(ボタン付き)、黒色様ズボン、黒色の自転車利用、薄水色のキャップ帽、浅黒い,伊予市米湊の,伊予市米湊,0,green,38.0,愛媛県,エヒメケン,EHIME KEN,38210.0,伊予市,イヨシ,IYO SHI,米湊,コミナト,KOMINATO,,33.753461,132.703302
212,伊予署管内,声かけ,令和3年6月23日(水)午後4時ころ,伊予市米湊の路上,女子中学生が歩行中、自転車に乗った男から「中学生?高校生?」と声を掛けられたもの。,50〜60歳位、やせ型、身長160センチ位、白髪混じりの短髪、青色半袖シャツ(ボタン付き)、黒色様ズボン、黒色の自転車利用、薄水色のキャップ帽、浅黒い,伊予市米湊の,伊予市米湊,0,green,38.0,愛媛県,エヒメケン,EHIME KEN,38210.0,伊予市,イヨシ,IYO SHI,米湊,コミナト,KOMINATO,安広,33.757102,132.705117
213,松山西署管内,声かけ,令和3年6月23日(水)午後3時ころ,松山市古三津五丁目の路上,小学生男児が徒歩で信号待ちをしていたところ、道路の反対側で徒歩にて信号待ちをしていた男から「こっち来いコラ。」等と叫ばれたもの。男は付近に停車していた車の助手席に乗り込み立ち去った。,35歳位、中肉、身長170センチ位、黒色短髪、白色半袖、マスク・眼鏡なし、軽四乗用自動車利用(紫色、車の運転手:30-40歳位、黒髪短髪の男),松山市古三津五丁目の,松山市古三津五丁目,0,green,38.0,愛媛県,エヒメケン,EHIME KEN,38201.0,松山市,マツヤマシ,MATSUYAMA SHI,古三津五丁目,フルミツ 5,FURUMITSU 5,,33.855781,132.726709
214,伊予署管内,声かけ,令和3年6月23日(水)午後1時30分ころ,伊予郡松前町大字西古泉の路上,男子中学生2名が歩行中、後方から自転車に乗って近づいてきた男から暴言を吐かれたもの。,60歳位、赤色の服、自転車利用,伊予郡松前町大字西古泉の,伊予郡松前町大字西古泉,0,green,38.0,愛媛県,エヒメケン,EHIME KEN,38401.0,伊予郡松前町,イヨグンマサキチョウ,IYO GUN MASAKI CHO,大字西古泉,,,,33.794521,132.713929
215,伊予署管内,不審者,令和3年6月22日(火)午後4時30分ころ,伊予郡松前町大字東古泉の路上,女子高校生が自転車で進行中、自転車に乗った男に手を振られたもの。,40〜50歳位、身長160センチ位、やせ型、白髪混じりの短髪、上下黒色様ジャージ、マスク着用、軽快兼用自転車使用,伊予郡松前町大字東古泉の,伊予郡松前町大字東古泉,0,purple,38.0,愛媛県,エヒメケン,EHIME KEN,38401.0,伊予郡松前町,イヨグンマサキチョウ,IYO GUN MASAKI CHO,大字東古泉,,,,33.787475,132.720514
216,松山南署管内,不審者,令和3年6月22日(火)午後1時20分ころ,松山市和泉南一丁目の路上,男がズボンを下ろし、パンツ姿で歩いていたもの。,65〜70歳位、身長165センチ位、やせ型、白髪短髪、黒色Tシャツ、ベージュ色ズボン、黒地に赤色柄のパンツ、白色様マスク着用,松山市和泉南一丁目の,松山市和泉南一丁目,0,purple,38.0,愛媛県,エヒメケン,EHIME KEN,38201.0,松山市,マツヤマシ,MATSUYAMA SHI,和泉南一丁目,イズミミナミ 1,IZUMIMINAMI 1,,33.818264,132.764546
217,松山東署管内,声かけ,令和3年6月21日(月)午後4時ころ,松山市桑原一丁目の路上,小学生らが歩いていたところ、男に意味不明な言葉をかけられたり、頭を触られたりしたもの。,60〜70歳位、自転車(前カゴ付き、荷台に「フルーツ」と記載の段ボールを積載)使用、白色マスク・麦わら帽子着用、眼鏡なし,松山市桑原一丁目の,松山市桑原一丁目,1,green,38.0,愛媛県,エヒメケン,EHIME KEN,38201.0,松山市,マツヤマシ,MATSUYAMA SHI,桑原一丁目,クワバラ 1,KUWABARA 1,,33.835855,132.788967
218,伊予署管内,不審者,令和3年6月20日(日)ころから,伊予郡松前町大字筒井の店舗,買い物等を全くしない男が、度々店舗を訪れ、店内を徘徊したり、店舗利用の女性客への声かけや、つきまといを行っているもの。,50〜70歳位、黒色軽四乗用車使用,伊予郡松前町大字筒井の,伊予郡松前町大字筒井,1,purple,38.0,愛媛県,エヒメケン,EHIME KEN,38401.0,伊予郡松前町,イヨグンマサキチョウ,IYO GUN MASAKI CHO,大字筒井,,,,33.790916,132.699561
219,松山南署管内,不審者,令和3年6月,松山市浄瑠璃町の路上,男が朝夕の時間帯に、2か所の寺付近の路上で駐車したり移動したりを繰り返しているもの。,40〜50歳位、中肉、色黒、白色の軽四乗用自動車利用,松山市浄瑠璃町の,松山市浄瑠璃町,0,purple,38.0,愛媛県,エヒメケン,EHIME KEN,38201.0,松山市,マツヤマシ,MATSUYAMA SHI,浄瑠璃町,ジョウルリマチ,JORURIMACHI,,33.749282,132.815242
220,松山南署管内,声かけ,令和3年6月18日(金)午後3時30分ころ,東温市北方の路上,小学生男児が歩いていたところ、車に乗った男から「家遠いん。」と声を掛けられたもの。,25〜35歳位、中肉、身長170センチ位、黒色パーカー、白色の普通車利用、フードを目深に被っている、黒色マスク着用,東温市北方の,東温市北方,0,green,38.0,愛媛県,エヒメケン,EHIME KEN,38215.0,東温市,トウオンシ,TOON SHI,北方,キタガタ,KITAGATA,,33.820826,132.91541
221,松山東署管内,身体接触,令和3年6月17日(木)午後4時30分ころ,松山市中村三丁目の屋外施設,小学生女児3名が屋外施設にいたところ、内2名が男に肩や髪の毛を触られたもの。,70歳位、中肉、身長160〜170センチ位、白髪混じりの短髪、黒色Tシャツ、黒色シャツを羽織っている、黒色長ズボン、高齢者風、ショルダーバッグ(暗めのクリーム色)・黒色杖所持、眼鏡・帽子・マスクなし,松山市中村三丁目の,松山市中村三丁目,0,身体接触,38.0,愛媛県,エヒメケン,EHIME KEN,38201.0,松山市,マツヤマシ,MATSUYAMA SHI,中村三丁目,ナカムラ 3,NAKAMURA 3,,33.830733,132.777186
222,西条西署管内,声かけ,令和3年6月15日(火)午後7時ころ,西条市北条の路上,女子高校生が歩いていたところ、自転車に乗った男に「高校どこ行きよん。」「名前は。」「おじさん前から見よったよ。」「ジュース買ってあげる。」「電話番号教えて。」「次会ったときにまた声かけるね。」等と声を掛けられたもの。,50〜60歳位、やせ型、青色半袖Tシャツ、黒色長ジャージ、黒色自転車使用,西条市北条の,西条市北条,1,green,38.0,愛媛県,エヒメケン,EHIME KEN,38206.0,西条市,サイジョウシ,SAIJO SHI,北条,ホウジョウ,HOJO,,33.930116,133.101932
223,伊予署管内,声かけ,令和3年6月15日(火)午後2時ころ,伊予市下吾川の店舗駐車場内,女性が車に乗り込もうとしたところ、近づいてきた男から「今いいですか。時間潰したいのでお茶をしましょう。」と声を掛けられたもの。,60歳位、やせ型、身長165センチ位、白髪混じりの七三分け、白色ワイシャツ、黒色スラックス、黒色長財布所持,伊予市下吾川の,伊予市下吾川,0,green,38.0,愛媛県,エヒメケン,EHIME KEN,38210.0,伊予市,イヨシ,IYO SHI,下吾川,シモアガワ,SHIMOAGAWA,,33.767149,132.708137
224,伊予署管内,声かけ,令和3年6月15日(火)午後2時ころ,伊予市下吾川の店舗駐車場内,女性が車に乗り込もうとしたところ、近づいてきた男から「今いいですか。時間潰したいのでお茶をしましょう。」と声を掛けられたもの。,60歳位、やせ型、身長165センチ位、白髪混じりの七三分け、白色ワイシャツ、黒色スラックス、黒色長財布所持,伊予市下吾川の,伊予市下吾川,0,green,38.0,愛媛県,エヒメケン,EHIME KEN,38210.0,伊予市,イヨシ,IYO SHI,下吾川,シモアガワ,SHIMOAGAWA,馬塚,33.772775,132.708144
225,西条署管内,のぞき・盗撮,令和3年6月14日(月)午後8時35分ころ,西条市樋之口の一般住宅敷地内,女子高校生が在宅中、敷地内に侵入した男から窓越しに室内を覗かれたもの。,30〜40歳位、中肉、身長170センチ位、黒色半袖,西条市樋之口の,西条市樋之口,1,pink,38.0,愛媛県,エヒメケン,EHIME KEN,38206.0,西条市,サイジョウシ,SAIJO SHI,樋之口,ヒノクチ,HINOKUCHI,,33.918738,133.165782
226,松山東署管内,のぞき・盗撮,令和3年6月14日(月)午後7時30分ころ,松山市祝谷二丁目の一般住宅,女子中学生が服を着た状態で浴室内にいたところ、浴室の窓から何者かにスマートフォンを差し向けられたもの。,不審者像不明、スマートフォン(ボロボロのカバー)所持,松山市祝谷二丁目の,松山市祝谷二丁目,0,pink,38.0,愛媛県,エヒメケン,EHIME KEN,38201.0,松山市,マツヤマシ,MATSUYAMA SHI,祝谷二丁目,イワイダニ 2,IWAIDANI 2,,33.855782,132.780457
227,西条署管内,写真撮影,令和3年6月12日(土)午後4時30分ころ,西条市禎瑞の路上,男性が車を運転中、徒歩で移動する男の横を通り過ぎたところ、男からカメラを向けられたもの。,50歳位、眼鏡あり、カメラ所持,西条市禎瑞の,西条市禎瑞,0,lightred,38.0,愛媛県,エヒメケン,EHIME KEN,38206.0,西条市,サイジョウシ,SAIJO SHI,禎瑞,テイズイ,TEIZUI,,33.915518,133.143844
228,伊予署管内,身体露出,令和3年6月12日(土)午後2時ころ,伊予市上野の路上,女子中学生が施設敷地内にいたところ、路上にいた男から下半身を見せつけられたもの。,上下黒色様の服,伊予市上野の,伊予市上野,0,orange,38.0,愛媛県,エヒメケン,EHIME KEN,38210.0,伊予市,イヨシ,IYO SHI,上野,ウエノ,UENO,,33.772114,132.748155
229,松山東署管内,のぞき・盗撮,令和3年6月12日(土)午後0時50分ころ,松山市宮田町の屋外施設内,女性が施設敷地内にいたところ、背後にてしゃがみ込んだ男から、レンズ様の物を向けられたもの。,50歳位、やせ型、茶色様チェック柄長袖シャツ、長ズボン、マスク着用、眼鏡なし、取っ手のない黒色長方形の箱に入ったレンズ様の物所持,松山市宮田町の,松山市宮田町,0,pink,38.0,愛媛県,エヒメケン,EHIME KEN,38201.0,松山市,マツヤマシ,MATSUYAMA SHI,宮田町,ミヤタマチ,MIYATAMACHI,,33.842382,132.752948
230,松山南署管内,つきまとい,令和3年6月8日(火)午後6時20分ころ,松山市和泉北四丁目から同市市坪北二丁目までの路上,女子高校生が自転車で走行中、空き地内に駐車されていた車が移動の先々で現れ、接近されるなどして、つきまとわれたもの。,男、ハッチバックタイプの白色普通自動車,松山市和泉北四丁目から同市市坪北二丁目までの,松山市和泉北四丁目から同市市坪北二丁目まで,0,blue,,,,,,,,,,,,,,
231,四国中央署管内,つきまとい,令和3年6月7日(月)午後7時ころ,四国中央市川之江町の路上から同市金生町の路上までの間,女子中学生2名が自転車で走行中、自転車に乗った男から外国語のような言葉で声をかけられ、追いかけられたもの。,20〜40歳位、やせ型、身長170センチ位、黒色短髪、黒色ポロシャツ、黒色ズボン、黒色スニーカー(ロゴが白色)、口髭あり、マスクなし、アジア系外国人風、スマートフォン所持、黒色軽快兼用自転車使用,四国中央市川之江町の,四国中央市川之江町,0,blue,38.0,愛媛県,エヒメケン,EHIME KEN,38213.0,四国中央市,シコクチュウオウシ,SHIKOKUCHUO SHI,川之江町,カワノエチョウ,KAWANOECHO,,34.014304,133.579682
232,四国中央署管内,つきまとい,令和3年6月7日(月)午後7時ころ,四国中央市川之江町の路上から同市金生町の路上までの間,女子中学生2名が自転車で走行中、自転車に乗った男から外国語のような言葉で声をかけられ、追いかけられたもの。,20〜40歳位、やせ型、身長170センチ位、黒色短髪、黒色ポロシャツ、黒色ズボン、黒色スニーカー(ロゴが白色)、口髭あり、マスクなし、アジア系外国人風、スマートフォン所持、黒色軽快兼用自転車使用,四国中央市川之江町の,四国中央市川之江町,0,blue,38.0,愛媛県,エヒメケン,EHIME KEN,38213.0,四国中央市,シコクチュウオウシ,SHIKOKUCHUO SHI,川之江町,カワノエチョウ,KAWANOECHO,横田,34.003925,133.565172
233,四国中央署管内,つきまとい,令和3年6月7日(月)午後7時ころ,四国中央市川之江町の路上から同市金生町の路上までの間,女子中学生2名が自転車で走行中、自転車に乗った男から外国語のような言葉で声をかけられ、追いかけられたもの。,20〜40歳位、やせ型、身長170センチ位、黒色短髪、黒色ポロシャツ、黒色ズボン、黒色スニーカー(ロゴが白色)、口髭あり、マスクなし、アジア系外国人風、スマートフォン所持、黒色軽快兼用自転車使用,四国中央市川之江町の,四国中央市川之江町,0,blue,38.0,愛媛県,エヒメケン,EHIME KEN,38213.0,四国中央市,シコクチュウオウシ,SHIKOKUCHUO SHI,川之江町,カワノエチョウ,KAWANOECHO,塚田,34.000158,133.566627
234,松山東署管内,声かけ,令和3年6月7日(月)午後3時10分ころ,松山市味酒町二丁目の路上,小学生女児が建物の前にいたところ、車に乗った男から「ねえねえ。」と声をかけられたもの。,50〜60歳位、キャップ帽(つばが赤色、帽子の部分が黒色)着用、マスク・眼鏡なし、白色セダン様自動車使用,松山市味酒町二丁目の,松山市味酒町二丁目,0,green,38.0,愛媛県,エヒメケン,EHIME KEN,38201.0,松山市,マツヤマシ,MATSUYAMA SHI,味酒町二丁目,ミサケマチ 2,MISAKEMACHI 2,,33.844027,132.755574
235,伊予署管内,不審者,令和3年6月7日(月)午後1時30分ころ,伊予郡松前町大字浜の施設非常階段,男が階段の踊り場から、建物内を覗き込んでいたもの。,20〜30歳位、中肉中背、上下ジャージ、眼鏡・マスクなし,伊予郡松前町大字浜の,伊予郡松前町大字浜,0,purple,38.0,愛媛県,エヒメケン,EHIME KEN,38401.0,伊予郡松前町,イヨグンマサキチョウ,IYO GUN MASAKI CHO,大字浜,,,,33.789199,132.701735
236,大洲署管内,つきまとい,令和3年6月6日(日)午後4時20分ころ,喜多郡内子町内子の店舗から同町五十崎の路上までの間,女子中学生3名が店舗内にいたところ、男に凝視され、その後移動していると二度にわたり、付近を車で走行され、つきまとわれたもの。,40〜50歳位、中肉、身長170センチ位、肩位の長さの黒髪、白色上衣、黒色下衣、マスク・眼鏡着用、灰色軽四自動車使用,喜多郡内子町内子の,喜多郡内子町内子,1,blue,38.0,愛媛県,エヒメケン,EHIME KEN,38422.0,喜多郡内子町,キタグンウチコチョウ,KITA GUN UCHIKO CHO,内子,ウチコ,UCHIKO,,33.551735,132.647879
237,松山東署管内,身体露出,令和3年6月6日(日)午後4時ころ,松山市南江戸一丁目の路上,男がズボンを下ろし、道路に向かって下半身を露出していたもの。,30歳位、中肉、身長170センチ位、スポーツ刈り風の黒色短髪、青色様半袖上衣、青色様半ズボン,松山市南江戸一丁目の,松山市南江戸一丁目,0,orange,38.0,愛媛県,エヒメケン,EHIME KEN,38201.0,松山市,マツヤマシ,MATSUYAMA SHI,南江戸一丁目,ミナミエド 1,MINAMIEDO 1,,33.838208,132.75005
238,伊予署管内,声かけ,令和3年6月5日(土)午後3時30分ころ,伊予郡松前町大字北川原の空き地,小学生男女2名が空き地にいたところ、男から住所、氏名、学年を尋ねられたもの。,60〜70歳位、中肉、身長170センチ位、上下茶色様の服、緑色ハット帽着用,伊予郡松前町大字北川原の空き地,伊予郡松前町大字北川原の空き地,0,green,,,,,,,,,,,,,,
239,松山東署管内,声かけ,令和3年6月5日(土)午前10時ころ,松山市宮西一丁目の路上から同市宮田町の店舗までの間,女子中学生が自転車で走行中、自転車に乗った男に「自転車はどこで買ったの。」「○○中学校ってどこにあるの。」等と声をかけられ、後をつけられたもの。,70歳位、やせ型、身長180センチ位、白色半袖Tシャツ、黒色ニット帽着用、顔の彫りが深い、黒色の古い軽快兼用自転車使用,松山市宮西一丁目の,松山市宮西一丁目,0,green,38.0,愛媛県,エヒメケン,EHIME KEN,38201.0,松山市,マツヤマシ,MATSUYAMA SHI,宮西一丁目,ミヤニシ 1,MIYANISHI 1,,33.845813,132.752728
240,松山東署管内,身体露出,令和3年6月4日(金)午後7時15分ころ,松山市永木町二丁目の路上,女子高校生が自転車で走行中、前方で背を向けて立っていた男から、振り向きざまに、ズボンチャックから露出した下半身を見せつけられ、さらに接近されたもの。,30〜40歳位、中肉、身長165〜170センチ位、肩位の長さの黒髪、黒色上衣、黒色スラックス、荷物の所持なし,松山市永木町二丁目の,松山市永木町二丁目,0,orange,38.0,愛媛県,エヒメケン,EHIME KEN,38201.0,松山市,マツヤマシ,MATSUYAMA SHI,永木町二丁目,ナガキマチ 2,NAGAKIMACHI 2,,33.835355,132.774791
241,松山東署管内,不審者,令和3年6月4日(金)午後7時ころ,松山市永木町一丁目の路上,男がズボンの上から、下半身を触りながら路上を歩いていたもの。,40〜50歳位、中肉、身長が低い、もさっとした黒髪、黒色スーツ、白色シャツ、黒色スラックス,松山市永木町一丁目の,松山市永木町一丁目,0,purple,38.0,愛媛県,エヒメケン,EHIME KEN,38201.0,松山市,マツヤマシ,MATSUYAMA SHI,永木町一丁目,ナガキマチ 1,NAGAKIMACHI 1,,33.836412,132.776874
242,松山南署管内,つきまとい,令和3年6月4日(金)午後4時20分ころ,東温市北方甲の路上,小学生女児が歩いていたところ、後方にいた男に走って追いかけられたもの。,30歳位、黒色半袖上衣、黒色半ズボン、黒色帽子・白色マスク着用,東温市北方甲の,東温市北方,1,blue,38.0,愛媛県,エヒメケン,EHIME KEN,38215.0,東温市,トウオンシ,TOON SHI,北方,キタガタ,KITAGATA,,33.820826,132.91541
243,松山東署管内,声かけ,令和3年6月2日(水)午後7時30分ころ,松山市味酒一丁目の路上,女性が歩いていたところ、男から「お姉さんLINE教えてよ。」と声をかけられ、それを拒むと「家に帰るまでお話しませんか。」「手をつないで欲しい。」等と言われたもの。,20〜30歳位、中肉、身長170センチ位、短髪、白又は黄色の上衣、スマートフォン所持,松山市味酒一丁目の,松山市味酒一丁目,0,green,,,,,,,,,,,,,,
244,松山東署管内,ちかん,令和3年6月2日(水)午後3時40分ころ,松山市保免上一丁目の路上,小学生女児が歩いていたところ、男から「スカートにゴミがついている。」と声を掛けられ、スカートを触られたもの。,20〜30歳位、中肉、身長165〜170センチ位、黒色短髪、白色シャツ、黒色長ズボン、黒色マスク着用,松山市保免上一丁目の,松山市保免上一丁目,0,gray,38.0,愛媛県,エヒメケン,EHIME KEN,38201.0,松山市,マツヤマシ,MATSUYAMA SHI,保免上一丁目,ホウメンカミ 1,HOMENKAMI 1,,33.818466,132.752079
245,松山南署管内,声かけ,令和3年6月1日(火)午後8時ころ,松山市鷹子町の路上,女性が歩いていたところ、自転車に乗った男に「エッチしませんか。」と声をかけられたもの。,15〜20歳位、中肉、黒色短髪、白色ワイシャツ、黒色長ズボン、学生風、大容量の四角いリュックサック所持、眼鏡なし、ママチャリ使用,松山市鷹子町の,松山市鷹子町,0,green,38.0,愛媛県,エヒメケン,EHIME KEN,38201.0,松山市,マツヤマシ,MATSUYAMA SHI,鷹子町,タカノコマチ,TAKANOKOMACHI,,33.819919,132.813414
246,松山東署管内,のぞき・盗撮,令和3年6月1日(火)午後6時10分ころ,松山市真砂町の路上,女子高校生が建物の窓を閉める際、外にいた男から注視され、付近を徘徊されたもの。,30〜40歳位、やせ型、身長170センチ位、黒色短髪、赤色Tシャツ、ベージュ色長ズボン、軽快兼用自転車利用(銀色、前カゴ付)、白色マスク着用、眼鏡なし,松山市真砂町の,松山市真砂町,0,pink,38.0,愛媛県,エヒメケン,EHIME KEN,38201.0,松山市,マツヤマシ,MATSUYAMA SHI,真砂町,マサゴチョウ,MASAGOCHO,,33.832591,132.760831
247,松山南署管内,声かけ,令和3年5月31日(月)午後6時30分ころ,松山市南梅本町の路上,女子中学生が歩いていたところ、男に道を尋ねられたため地理教示をすると、握手を求められ手首付近を掴まれたもの。,40〜50歳位、身長170センチ位、小肥、耳にかかる位の黒髪、上下白色様作業着、白色不織布マスク着用、眉毛が濃い、髭あり,松山市南梅本町の,松山市南梅本町,0,green,38.0,愛媛県,エヒメケン,EHIME KEN,38201.0,松山市,マツヤマシ,MATSUYAMA SHI,南梅本町,ミナミウメモトマチ,MINAMIUMEMOTOMACHI,,33.800612,132.840061
248,松山東署管内,声かけ,令和3年5月31日(月)午前11時ころ,松山市宮田町の歩道上,女性が徒歩にて信号待ち中、直近にいた男から顔を覗かれながら、卑わいな声掛けをされたもの。,20〜30歳位、身長160センチ位、短髪、ジーパン様ズボン、左手にスマートフォン所持,松山市宮田町の歩道上,松山市宮田町の歩道上,0,green,,,,,,,,,,,,,,
249,松山東署管内,つきまとい,令和3年5月30日(日)午後2時5分ころ,松山市本町三丁目の交差点から同市平和通一丁目の路上までの間,女子中学生が自転車にて移動中、すれ違い様に目が合った男から待ち伏せされる等して、何度もつきまとわれたもの。,30〜40歳位、中肉、被った帽子から若干出る程度の長さの黒髪、水色作業着様の長袖、水色作業着様の長ズボン、白色キャップ帽、丸眼鏡、白色軍手、白色マスク、目が小さく目線が鋭い、自転車利用(銀色、前カゴ付、荷台なし),松山市本町三丁目の交差点から同市平和通一丁目の,松山市本町三丁目の交差点から同市平和通一丁目,0,blue,,,,,,,,,,,,,,
250,松山南署管内,暴行,令和3年5月30日(日)午後1時20分ころ,松山市朝生田町五丁目の路上,女子高校生が自転車を押して移動中、自転車に乗り外国語を叫びながら進む男と目が合ったにもかかわらず、男がそのまま進行したことにより、両名の自転車が衝突したもの。,40〜60歳位、やせ型、身長180センチ位、黒色半袖Tシャツ、灰色スキニーパンツ、銀色の自転車利用、東南アジア系の外国人風、目がくりっとしている、右手に金属バット所持,松山市朝生田町五丁目の,松山市朝生田町五丁目,0,red,38.0,愛媛県,エヒメケン,EHIME KEN,38201.0,松山市,マツヤマシ,MATSUYAMA SHI,朝生田町五丁目,アソダマチ 5,ASODAMACHI 5,,33.820663,132.771511
251,愛南署管内,声かけ,令和3年5月29日(土)午後0時ころ,南宇和郡愛南町御荘平城の橋上,小学生女児2名が歩いていたところ、橋上にいた男から「おい、こらぁ。」と声を掛けられたもの。,70歳位、中肉、白色短髪(頭頂部がハゲている)、灰色長袖の服、茶色ズボン、自転車利用,南宇和郡愛南町御荘平城の橋上,南宇和郡愛南町御荘平城の橋上,0,green,,,,,,,,,,,,,,
252,大洲署管内,写真撮影,令和3年5月29日(土)午前10時30分ころ,大洲市柚木の公園,小学生女児3名が公園で遊んでいたところ、公園の周りを自転車で徘徊していた男から木の陰に隠れるようにして、デジタルカメラ様の物を向けられたもの。,50〜60歳位、中肉、身長175センチ位、黒髪、白色Tシャツ、ジャージ、自転車利用(前後のカゴに大量の荷物を積載)黄色デジタルカメラ様(タブレットの可能性もあり)所持、眼鏡・マスクなし,大洲市柚木の,大洲市柚木,0,lightred,38.0,愛媛県,エヒメケン,EHIME KEN,38207.0,大洲市,オオズシ,OZU SHI,柚木,ユノキ,YUNOKI,,33.503637,132.553007
253,八幡浜署管内,不審者,令和3年5月28日(金)午後9時20分ころ,八幡浜市大門の路上,男子中学生が自転車に跨って友人と会話中、男に何かを叫ばれながら自転車を一度足蹴りされたもの。,50〜60歳位、中肉、上下黒色作業着,八幡浜市大門の,八幡浜市大門,0,purple,38.0,愛媛県,エヒメケン,EHIME KEN,38204.0,八幡浜市,ヤワタハマシ,YAWATAHAMA SHI,大門,ダイモン,DAIMON,,33.461624,132.426877
254,四国中央署管内,不審者,令和3年5月27日(木)午後5時10分ころ,四国中央市金田町金川の歩道上,女子高校生が自転車で走行中、前方を歩いていた男から何度も振り返って見られた上、横を通り過ぎる際に進路を妨害するように足を踏み出してこられたもの。,40歳位、小肥、身長160センチ位、黒色短髪、黒色様長袖の服(白色ライン入り)、ガラケーを首に掛けている、首を左右どちらかに傾けて歩く、眼鏡なし,四国中央市金田町金川の歩道上,四国中央市金田町金川の歩道上,0,purple,,,,,,,,,,,,,,
255,四国中央署管内,声かけ,令和3年5月27日(木)午後3時ころ,四国中央市寒川町の路上,小学生男児が徒歩にて移動中、車両から降りてきた男に、「何人で住んでるの。」と声を掛けられたもの。,60歳位、灰色の長袖作業着、自動車利用(白色、車両には会社名等の記載なし)、灰色ハット帽様の帽子、眼鏡着用、メモ帳様の物所持,四国中央市寒川町の,四国中央市寒川町,3,green,38.0,愛媛県,エヒメケン,EHIME KEN,38213.0,四国中央市,シコクチュウオウシ,SHIKOKUCHUO SHI,寒川町,サンガワチョウ,SANGAWACHO,,33.952462,133.507717
256,四国中央署管内,声かけ,令和3年5月27日(木)午後3時ころ,四国中央市寒川町の路上,小学生男児が徒歩にて移動中、車両から降りてきた男に、「何人で住んでるの。」と声を掛けられたもの。,60歳位、灰色の長袖作業着、自動車利用(白色、車両には会社名等の記載なし)、灰色ハット帽様の帽子、眼鏡着用、メモ帳様の物所持,四国中央市寒川町の,四国中央市寒川町,3,green,38.0,愛媛県,エヒメケン,EHIME KEN,38213.0,四国中央市,シコクチュウオウシ,SHIKOKUCHUO SHI,寒川町,サンガワチョウ,SANGAWACHO,大門,33.967211,133.503062
257,大洲署管内,声かけ,令和3年5月26日(水)午後3時30分ころ,大洲市若宮の路上,小学生女児が歩いていたところ、歩いて近づいてきた男から「お姉さん、お姉さん、この道知っとるやろ。」と声をかけられたもの。,45〜50歳位、上下黒色ジャージ、黒色マスク着用,大洲市若宮の,大洲市若宮,0,green,38.0,愛媛県,エヒメケン,EHIME KEN,38207.0,大洲市,オオズシ,OZU SHI,若宮,ワカミヤ,WAKAMIYA,,33.521514,132.549221
258,松山東署管内,つきまとい,令和3年5月25日(火)午後6時30分ころ,松山市泉町の遊歩道上,女子高校生が自転車で停車中、Uターンしてきた自転車乗車の男から横並びの状態で独り言を言われた上、後をつけられたもの。,40〜50歳位、やせ型、身長180センチ位、黒色短髪、白色Tシャツ、軽快兼用自転車利用、彫が深い顔、眼鏡なし、マスクなし、黒色のエナメル様バッグ(ピンクや黄色のボールの柄3つ位あり)を自転車の前カゴに積載,松山市泉町の遊歩道上,松山市泉町の遊歩道上,0,blue,,,,,,,,,,,,,,
259,西条署管内,つきまとい,令和3年5月25日(火)午後6時ころ,西条市大町から同市樋之口までの間,女子中学生が自転車で信号待ちをしていたところ、自転車に乗った男から「バカでアホ」と声をかけられ、つきまとわれたもの。,50歳位、中肉、身長170センチ位、黒髪(前髪は目が隠れる位、後髪は肩位)、上下黒色様の服、眼鏡なし、黒色マスク着用、黒色携帯電話、黒色マウンテンバイク様,西条市大町から同市樋之口までの間,西条市大町から同市樋之口までの間,0,blue,,,,,,,,,,,,,,
260,伊予署管内,声かけ,令和3年5月25日(火)午前7時30分ころ,伊予郡松前町大字出作の路上,小学生男児2名がじゃれ合いながら横断歩道を渡ろうとしたところ、その内1名が、車から降りてきた男から「お前何しよんぞ。」と怒鳴られた上、頭を掴まれたもの。,60〜70歳位、白髪混じりの短髪、銀色の軽四乗用自動車利用,伊予郡松前町大字出作の,伊予郡松前町大字出作,0,green,38.0,愛媛県,エヒメケン,EHIME KEN,38401.0,伊予郡松前町,イヨグンマサキチョウ,IYO GUN MASAKI CHO,大字出作,,,,33.789567,132.751819
261,四国中央署管内,写真撮影,令和3年5月21日(金)午後3時ころ,四国中央市上分町の橋上,小学生男児が複数人で歩いていたところ、後方から近づいてきた女から追い抜きざまにスマートフォンを向けられたもの。,25歳位、やせ型、焦げ茶色の長髪、ズボン、自転車利用、スマートフォン所持,四国中央市上分町の橋上,四国中央市上分町の橋上,0,lightred,,,,,,,,,,,,,,
262,伊予署管内,不審者,令和3年5月21日(金)午前10時ころ,伊予郡松前町筒井の共同住宅敷地内,女性が自宅にいたところ、男に玄関ドアのドアノブをガチャガチャと回されたもの。,50〜60歳位、中肉、身長170センチ位、白髪混じりの坊主に近い短髪、上下黒色ジャージ、足を引きずっているように見えた,伊予郡松前町筒井の共同,伊予郡松前町筒井の共同,0,purple,,,,,,,,,,,,,,
263,松山西署管内,不審者,令和3年5月19日(水)午後3時30分ころ,松山市南吉田町歩道上,小学生女児が複数人で歩いていたところ、自転車に乗車した男からすれ違いざまに、ひょっとこのような顔で息を吹きかけられたもの。,60〜70歳位、ぼさぼさ頭の白髪、自転車利用(薄い黄色がかかった白色、カゴなし)、マスク・眼鏡・髭なし,松山市南吉田町歩道上,松山市南吉田町歩道上,0,purple,,,,,,,,,,,,,,
264,松山西署管内,不審者,令和3年5月19日(水)午後3時15分ころ,松山市南吉田町歩道上,小学生男児が複数人で歩いていたところ、自転車に乗車した男からすれ違いざまに、いきなり息を吹きかけられたもの。,70歳位、やせ型、身長165センチ位、白色短髪、白色半袖Tシャツ、下衣:不明、軽快兼用自転車利用(白色、銀色の前カゴ付き、荷台なし)、マスクなし,松山市南吉田町歩道上,松山市南吉田町歩道上,1,purple,,,,,,,,,,,,,,
265,松山西署管内,声かけ,令和3年5月17日(月)午後6時15分ころ,松山市内浜町アパート敷地内,小学生女児が迎えを待っていたところ、女に「誰を待っているの。おうちはどこ。」等と声を掛けられたもの。,50〜60歳位、中肉、身長160センチ位、肩くらいの黒髪ウェーブ、上衣:ブラウス様、下衣:柄物のスカート、ベージュ色厚底サンダル着用、ベージュ色トートバッグ所持,松山市内浜町,松山市内浜町,0,green,38.0,愛媛県,エヒメケン,EHIME KEN,38201.0,松山市,マツヤマシ,MATSUYAMA SHI,内浜町,ウチハマチョウ,UCHIHAMACHO,,33.86603,132.726942
266,西条署管内,声かけ,令和3年5月16日(日)午後5時20分ころ,西条市福武路上,小学生女児が現金を持って信号待ちをしていたところ、近寄ってきた男に「お金。」と金銭を要求されたもの。,50〜60歳位、中肉、黒色短髪、黒色上衣、灰色ズボン、白色マスク着用,西条市福武,西条市福武,0,green,,,,,,,,,,,,,,
267,松山南署管内,声かけ,令和3年5月15日(土)午前8時30分ころ,松山市天山一丁目店舗内,小学生女児が買い物中、男に「ガチャガチャをしに行こう。」と声をかけられたもの。,50〜70歳位、身長160〜170センチ位、中肉、黒色と白色のボーダーシャツ、帽子・眼鏡なし,松山市天山一丁目,松山市天山一丁目,1,green,38.0,愛媛県,エヒメケン,EHIME KEN,38201.0,松山市,マツヤマシ,MATSUYAMA SHI,天山一丁目,アマヤマ 1,AMAYAMA 1,,33.822489,132.778633
268,西条署管内,つきまとい,令和3年5月14日(金)午後8時40分ころ,西条市氷見路上,女子高校生が友人と自転車で帰宅中、オートバイに乗車の男に後方から低速で接近され、その後、男は車両のライトを消し、女子高校生等から隠れるような素振りをしたもの。,原付様利用,西条市氷見,西条市氷見,2,blue,,,,,,,,,,,,,,
269,松山西署管内,声かけ,令和3年5月14日(金)午後2時55分ころ,松山市北条辻路上,小学生女児が徒歩で下校中、男に「誰待っとるん。」「幼稚園の帰りなん。」等と声をかけられ、後ろから手を回されそうになり、「自転車がないから一緒に探してほしい。」と言われたもの。,60〜70歳位、身長160センチ位、やせ型、白髪混じり、上下灰色ジャージ、頬が真っ赤、眼鏡・マスクなし、黒色様セカンドバッグ様所持,松山市北条辻,松山市北条辻,0,green,38.0,愛媛県,エヒメケン,EHIME KEN,38201.0,松山市,マツヤマシ,MATSUYAMA SHI,北条辻,ホウジョウツジ,HOJO TSUJI,,33.968379,132.777843
270,松山西署管内,声かけ,令和3年5月13日(木)午後5時30分ころ,松山市山西町から同市古三津六丁目まで,女子高校生が徒歩で帰宅中、男に「この近くにあるスーパーの場所を知らないか。」と声をかけられ、後をつけられ、さらに「家はどこ。どこ行くの。」等と声をかけられたもの。,65歳位、身長170センチ以上、やせ型、灰色長袖Tシャツ、黒色長ズボン、黒色様帽子、歯が2〜3本しかない,松山市山西町から同市古三津六丁目まで,松山市山西町から同市古三津六丁目まで,0,green,,,,,,,,,,,,,,
271,松山南署管内,写真撮影,令和3年5月13日(木)午後5時ころ,松山市土居町屋外施設,小学生女児が友人2人と遊んでいたところ、男女2人のうちの女からスマートフォンを向けられたもの。,男:特徴不明、女:17〜20歳位、身長155〜160センチ位、やせ型、ひとつ結びの茶髪、白色様半袖Tシャツ、茶色のワイドパンツ、薄茶色の肩掛けバッグ所持、イヤリング・白色マスク・白色ヘルメット着用、自転車利用,松山市土居町,松山市土居町,0,lightred,38.0,愛媛県,エヒメケン,EHIME KEN,38201.0,松山市,マツヤマシ,MATSUYAMA SHI,土居町,ドイマチ,DOIMACHI,,33.798272,132.790757
272,松山西署管内,不審者,令和3年5月13日(木)午前7時45分ころ,松山市西長戸町路上,女性が歩いていたところ、原付に乗車した男に顔を覗き込まれるように凝視され、短時間で合計3回離合したもの.。,30〜40歳位、中肉、上下黒色の服、第二種原動機付自転車利用(ワインレッド)、黒色のフルフェイス型ヘルメット着用(目の部分にシールドが付いていない),松山市西長戸町,松山市西長戸町,1,purple,38.0,愛媛県,エヒメケン,EHIME KEN,38201.0,松山市,マツヤマシ,MATSUYAMA SHI,西長戸町,ニシナガトチョウ,NISHINAGATOCHO,,33.867813,132.741949
273,松山東署管内,声かけ,令和3年5月13日(木)午前7時20分ころ,松山市立花四丁目,女子中学生が男に「中学生?お父さんとお母さんはどこ?また戻ってくるの?学校行っても意味ないよ。バイクに乗ったら?」等と声をかけられたもの。,60歳位、やせ型、上下灰色ジャージ、目が大きい、面長、灰色ニット帽着用,松山市立花四丁目,松山市立花四丁目,1,green,38.0,愛媛県,エヒメケン,EHIME KEN,38201.0,松山市,マツヤマシ,MATSUYAMA SHI,立花四丁目,タチバナ 4,TACHIBANA 4,,33.828724,132.767951
274,四国中央署管内,声かけ,令和3年5月11日(火)午後3時ころ,四国中央市金生町下分路上,小学生男児が歩いていたところ、路上にいた男に「たくさんお菓子があるけど、こっち来ん。」と声を掛けられたもの。,おじいさんではない年齢、黒髪、赤色様長袖シャツ(ボタン付き)、水色ズボン、徒歩,四国中央市金生町下分,四国中央市金生町下分,0,green,38.0,愛媛県,エヒメケン,EHIME KEN,38213.0,四国中央市,シコクチュウオウシ,SHIKOKUCHUO SHI,金生町下分,キンセイチョウシモブン,KINSEICHO SHIMOBUN,,34.00079,133.582415
275,松山西署管内,声かけ,令和3年5月8日(土)午後0時55分ころ,松山市別府町店舗駐車場,小学生女児が友人と店舗駐車場にいたところ、ニヤニヤした男から「○○学校まで案内してくれ。」と声を掛けられ、地理教示をすると立ち去ったもの。,60歳位、中肉、白髪坊主風、紺色か黒色ジャケット、灰色Tシャツ、紺色長ズボン、銀色の軽快兼用様自転車利用(カバー付の前カゴあり),松山市別府町,松山市別府町,0,green,38.0,愛媛県,エヒメケン,EHIME KEN,38201.0,松山市,マツヤマシ,MATSUYAMA SHI,別府町,ベフチョウ,BEFUCHO,,33.846241,132.720868
276,松山東署管内,つきまとい,令和3年5月4日(火)午前11時40分ころ,松山市中央一丁目歩道上,女子小中学生が徒歩で進行中、自転車にまたがった男につきまとわれ、何度も右腕を掴まれたもの。,30〜40歳位、小肥、身長170センチ位、黒髪薄毛、えんじ色半袖Tシャツ、銀色様の自転車利用、マスクなし,松山市中央一丁目歩道上,松山市中央一丁目歩道上,0,blue,,,,,,,,,,,,,,
277,松山東署管内,声かけ,令和3年5月2日(日)午後3時ころ,松山市南江戸一丁目歩道上,女子高校生が友人と歩いていた際、男に「写真とってほしい。」と言われたため、撮影し、立ち去ろうとしたところ、「高校どこ。名前何て言うの。」と聞かれ、断るも、女子高校生のスマートフォンケースに入れた定期券を見られ「○○に住んでいるんだね。」と言われたもの。,50歳位、やせ型、身長165センチ位、黒色短髪、白色フード付の服、青色デニム風、リュックサック、赤色ガラケー,松山市南江戸一丁目歩道上,松山市南江戸一丁目歩道上,0,green,,,,,,,,,,,,,,
278,松山東署管内,声かけ,令和3年5月2日(日)午前10時45分ころ,松山市枝松四丁目路上,女子中学生が徒歩で帰宅中、男に「トイレどこにある。」と尋ねられ、「一緒について来て。」と言われ手を掴まれそうになったもの。,50歳位、肥満、身長155センチ位、黒髪薄毛、白色半袖Tシャツ、黒色ジャージ、自転車利用(茶色、ママチャリ)、使い捨てマスク・斜め掛けバッグ着用,松山市枝松四丁目,松山市枝松四丁目,0,green,38.0,愛媛県,エヒメケン,EHIME KEN,38201.0,松山市,マツヤマシ,MATSUYAMA SHI,枝松四丁目,エダマツ 4,EDAMATSU 4,,33.830769,132.784912
279,松山東署管内,声かけ,令和3年5月1日(日)午後4時ころ,松山市竹原三丁目付近,女子中学生が徒歩で進行中、男に道を尋ねられた後、「握手をしよう。」と言われたもの。,40歳位、中肉、身長170センチ位、黒髪、上下灰色作業着、眼鏡なし,松山市竹原三丁目,松山市竹原三丁目,0,green,38.0,愛媛県,エヒメケン,EHIME KEN,38201.0,松山市,マツヤマシ,MATSUYAMA SHI,竹原三丁目,タケワラ 3,TAKEWARA 3,,33.831886,132.749554
280,松山東署管内,写真撮影,令和3年4月29日(木)午後3時40分ころ,松山市勝山町一丁目店舗敷地内,女子高校生が店舗敷地内にいたところ、店舗から出てきた男にスマートフォンを向けられ、その後、逃げる最中に後方をつけられたもの。,40〜50歳位、中肉、身長170センチ位、黒髪、上下灰色ジャージ様、黒色キャップ帽、マスクあり,松山市勝山町一丁目,松山市勝山町一丁目,0,lightred,38.0,愛媛県,エヒメケン,EHIME KEN,38201.0,松山市,マツヤマシ,MATSUYAMA SHI,勝山町一丁目,カツヤマチョウ 1,KATSUYAMACHO 1,,33.839085,132.775365
281,松山東署管内,不審者,令和3年4月28日(水)午後6時15分ころ,松山市保免西四丁目路上,男子中学生が帰宅中、自転車に乗った女とすれ違う際に睨まれ、すれ違った後も何か呟きながら睨まれ続けたもの。,70歳位、やせ型、身長150〜160センチ位、白色ジャンパー、ズボン(色不明)、ママチャリ利用、白色ハット帽着用,松山市保免西四丁目,松山市保免西四丁目,0,purple,38.0,愛媛県,エヒメケン,EHIME KEN,38201.0,松山市,マツヤマシ,MATSUYAMA SHI,保免西四丁目,ホウメンニシ 4,HOMENNISHI 4,,33.812811,132.741799
282,松山南署管内,不審車両,令和3年4月28日(水)午後4時ころ,東温市志津川路上,女子中学生が歩いていたところ、車に乗った行為者に低速で横を通過されたもの。,黒色軽四自動車利用,東温市志津川,東温市志津川,1,不審車両,38.0,愛媛県,エヒメケン,EHIME KEN,38215.0,東温市,トウオンシ,TOON SHI,志津川,シツカワ,SHITSUKAWA,,33.809495,132.875036
283,松山東署管内,写真撮影,令和3年4月27日(火)午前8時55分ころ,松山市勝山町一丁目路上,女子専門学生が友人と通学中、自転車に乗った女からデジタルカメラを向けられたり、つきまとわれたりしたもの。,60〜70歳位、身長150センチ位、中肉、花柄紫色長袖シャツ、長ズボン、帽子着用(白色、バケットハット),松山市勝山町一丁目,松山市勝山町一丁目,1,lightred,38.0,愛媛県,エヒメケン,EHIME KEN,38201.0,松山市,マツヤマシ,MATSUYAMA SHI,勝山町一丁目,カツヤマチョウ 1,KATSUYAMACHO 1,,33.839085,132.775365
284,松山南署管内,写真撮影,令和3年4月26日(月)午後4時ころ,松山市越智三丁目,男児小学生が友人数人と遊んでいたところ、岩陰に隠れた男からスマートフォンを向けられたもの。,20〜50歳位、身長155センチ位、灰色パーカー(頭にフードを被っている)、黒色か灰色のズボン、黒色スマートフォン・灰色鞄所持、眼鏡なし,松山市越智三丁目,松山市越智三丁目,0,lightred,38.0,愛媛県,エヒメケン,EHIME KEN,38201.0,松山市,マツヤマシ,MATSUYAMA SHI,越智三丁目,オチ 3,OCHI 3,,33.810084,132.781619
285,松山東署管内,声かけ,令和3年4月26日(月)午後1時15分ころ,松山市土居田町路上,男児小学生が友人と下校中、男に内容不明の言葉をかけられ、手招きされたもの。,60歳位、中肉、身長165センチ位、白髪混じりの黒色短髪、薄いカーキ色長袖ジャンパー、肌色・水色のボーダー柄長袖トレーナー、紺色太めの長ズボン、銀色のオートバイ利用,松山市土居田町,松山市土居田町,2,green,38.0,愛媛県,エヒメケン,EHIME KEN,38201.0,松山市,マツヤマシ,MATSUYAMA SHI,土居田町,ドイダマチ,DOIDAMACHI,,33.823276,132.746488
286,松山東署管内,声かけ,令和3年4月25日(日)午後6時25分ころ,松山市道後樋又路上,男性が歩いていたところ、路上に立っていた女に、突然両手を広げて抱きつかれそうになったもの。その際、「○○さんですよね。」と別の人の名前を言われた。,50歳位、小肥、身長160センチ位、黒色長髪、白色マスク着用、トイレットペーパー・ビニール袋所持,松山市道後樋又,松山市道後樋又,2,green,38.0,愛媛県,エヒメケン,EHIME KEN,38201.0,松山市,マツヤマシ,MATSUYAMA SHI,道後樋又,ドウゴヒマタ,DOGO HIMATA,,33.852406,132.772246
287,新居浜署管内,不審者,令和3年4月25日(日)午前0時15分ころ,新居浜市宇高町三丁目路上,住宅街の路上を歩いていた男が、いきなり走り出し、付近に停めてあった自転車に乗って立ち去ったもの。,20〜40歳位、やせ型、身長175センチ位、黒色様長袖トレーナー、黒色様長ズボン、モトクロス様の自転車利用,新居浜市宇高町三丁目,新居浜市宇高町三丁目,0,purple,38.0,愛媛県,エヒメケン,EHIME KEN,38205.0,新居浜市,ニイハマシ,NIIHAMA SHI,宇高町三丁目,ウダカチョウ 3,UDAKACHO 3,,33.97729,133.302888
288,松山西署管内,不審者,令和3年4月23日(金)午後3時45分ころ,松山市高岡町路上,男女児小学生2名が歩いていたところ、後方から近づいてきた車が真横で停車し、運転席に乗っていた男に笑顔で手を振られたもの。,60歳位、中肉、白色短髪、黒色の普通乗用自動車利用、丸型眼鏡着用,松山市高岡町,松山市高岡町,0,purple,38.0,愛媛県,エヒメケン,EHIME KEN,38201.0,松山市,マツヤマシ,MATSUYAMA SHI,高岡町,タカオカマチ,TAKAOKAMACHI,,33.830862,132.720361
289,松山西署管内,不審者,令和3年4月22日(木)午後4時ころ,松山市高岡町路上,女児小学生が歩いていたところ、後方から追い越してきた車が前方に停車し、車の運転席ドアが開いたため、助手席側から通行しようとすると、運転席にいた男が助手席側のドアを開けようと手を伸ばしているのが見えたもの。,40歳位、中肉、スキンヘッド、眼鏡・マスクなし、灰色セダン型自動車利用,松山市高岡町,松山市高岡町,1,purple,38.0,愛媛県,エヒメケン,EHIME KEN,38201.0,松山市,マツヤマシ,MATSUYAMA SHI,高岡町,タカオカマチ,TAKAOKAMACHI,,33.830862,132.720361
290,松山南署管内,声かけ,令和3年4月21日(水)午後4時30分ころ,松山市東方町路上,女子高校生が自転車で走行中、自転車に乗った男につきまとわれた後、停車中に自転車の荷台を掴まれて「なんもせんけんちょっと来て。」と声をかけられたもの。,20歳位、やせ型、茶髪のマッシュルームカット、自転車利用(ロードバイク様)、一重で目が細い、眼鏡なし,松山市東方町,松山市東方町,1,green,38.0,愛媛県,エヒメケン,EHIME KEN,38201.0,松山市,マツヤマシ,MATSUYAMA SHI,東方町,ヒガシガタマチ,HIGASHIGATAMACHI,,33.763088,132.820612
291,松山西署管内,声かけ,令和3年4月21日(水)午前8時45分ころ,松山市空港通七丁目路上,女性がバス停にいたところ、自転車に乗った男と目が合い、大声で卑わいな言葉を叫ばれたもの。,30〜40歳位、小肥、身長160センチ位、黒髪ボサボサ頭、上下白色ジャージ様、自転車利用、丸顔、太い眉毛、眼鏡なし,松山市空港通七丁目,松山市空港通七丁目,0,green,38.0,愛媛県,エヒメケン,EHIME KEN,38201.0,松山市,マツヤマシ,MATSUYAMA SHI,空港通七丁目,クウコウドオリ 7,KUKODORI 7,,33.827801,132.727598
292,松山東署管内,写真撮影,令和3年4月20日(火)午後6時ころ,松山市から伊予市間を走行中の列車,女子高校生が列車内で立っていたところ、隣に立っていた男にスマートフォンを向けられたもの。,45〜50歳位、身長165〜170センチ位、肥満、白髪混じり短髪、ジーパン、白縁眼鏡・スニーカー着用、ボディバッグ所持,松山市から伊予市間を走行中の列車,松山市から伊予市間を走行中の列車,0,lightred,,,,,,,,,,,,,,
293,新居浜署管内,つきまとい,令和3年4月16日(金)午後5時40分ころ,新居浜市川東地区店舗,女性が帰宅中、自転車に乗った男が立ち寄り先に何度も現れ、つきまとわれたもの。,25〜30歳位、身長170センチ位、やせ型、伸びかけの黒色短髪、くすんだカーキ色ジャンパーとズボン、自転車利用,新居浜市川東地区,新居浜市川東地区,0,blue,,,,,,,,,,,,,,
294,松山西署管内,つきまとい,令和3年4月16日(金)午後5時20分ころ,松山市中央一丁目から松山市東長戸三丁目までの間,女子高校生が自転車で帰宅中、自転車に乗った男につきまとわれたもの。,25〜40歳位、中肉中背、黒色短髪、白色シャツ、黒色か灰色のズボン、黒色スポーツタイプ自転車利用(前カゴあり)、黒縁眼鏡、黒色リュックサック・黒色ウエストバッグ所持,松山市中央一丁目から松山市東長戸三丁目までの間,松山市中央一丁目から松山市東長戸三丁目までの間,0,blue,,,,,,,,,,,,,,
295,松山東署管内,のぞき・盗撮,令和3年4月16日(金)午後5時ころ,松山市真砂町路上,女子高校生が室内で着替え等をしていたところ、開いていた窓から室内をのぞいている男を目撃したもの。,30〜40歳位、やせ型、身長170センチ位、黒色短髪、上下黒色ジャージ、軽快兼用自転車利用(銀色、前カゴ付、前輪に反射板)、白色マスク着用、眼鏡なし,松山市真砂町,松山市真砂町,1,pink,38.0,愛媛県,エヒメケン,EHIME KEN,38201.0,松山市,マツヤマシ,MATSUYAMA SHI,真砂町,マサゴチョウ,MASAGOCHO,,33.832591,132.760831
296,四国中央署管内,声かけ,令和3年4月16日(金)午後4時ころ,四国中央市金生町路上,男児が徒歩で下校中、白色軽トラックに乗った男に「連れて帰ってあげる。」と声をかけられたもの。,不明,四国中央市金生町,四国中央市金生町,1,green,,,,,,,,,,,,,,
297,松山南署管内,声かけ,令和3年4月16日(金)午後3時40分ころ,松山市北井門二丁目路上,男児小学生が歩いていたところ、車に乗った男に「乗る?」と声をかけられたもの。,45〜50歳位、スキンヘッド、自動車利用(黒色、ミニバン様)、髭あり,松山市北井門二丁目,松山市北井門二丁目,0,green,38.0,愛媛県,エヒメケン,EHIME KEN,38201.0,松山市,マツヤマシ,MATSUYAMA SHI,北井門二丁目,キタイド 2,KITAIDO 2,,33.803033,132.780334
298,大洲署管内,声かけ,令和3年4月16日(金)午後1時25分ころ,大洲市徳森店舗内,女性が店内で買い物中、真後ろにいた男に「ちょっとお時間いいですか。」と声をかけられたもの。,50歳位、やせ型、黒髪、白地に黒色か紺色のストライプ柄の服、黒色スラックス、眼鏡なし、白色の大きめマスク着用、もみあげなし,大洲市徳森,大洲市徳森,0,green,38.0,愛媛県,エヒメケン,EHIME KEN,38207.0,大洲市,オオズシ,OZU SHI,徳森,トクノモリ,TOKUNOMORI,,33.524891,132.585004
299,大洲署管内,声かけ,令和3年4月16日(金)午後1時25分ころ,大洲市徳森店舗内,女性が店内で買い物中、真後ろにいた男に「ちょっとお時間いいですか。」と声をかけられたもの。,50歳位、やせ型、黒髪、白地に黒色か紺色のストライプ柄の服、黒色スラックス、眼鏡なし、白色の大きめマスク着用、もみあげなし,大洲市徳森,大洲市徳森,0,green,38.0,愛媛県,エヒメケン,EHIME KEN,38207.0,大洲市,オオズシ,OZU SHI,徳森,トクノモリ,TOKUNOMORI,宮方,33.533059,132.578947
300,松山東署管内,身体露出,令和3年4月16日(金)午前8時ころ,松山市松末二丁目路上,女性が友人と路上にいたところ、スクーター型バイクを空ぶかししている男が下半身を露出しているのを目撃したもの。,短髪、白色作業着、白色ズボン、白色ヘルメット着用,松山市松末二丁目,松山市松末二丁目,0,orange,38.0,愛媛県,エヒメケン,EHIME KEN,38201.0,松山市,マツヤマシ,MATSUYAMA SHI,松末二丁目,マツスエ 2,MATSUSUE 2,,33.825734,132.788349
301,松山東署管内,つきまとい,令和3年4月15日(木)午後0時10分ころ,松山市平和通六丁目から湊町五丁目までの間,女性が座ったベンチに背中合わせで座ってきた男から、電車で移動中に凝視され、下車後もつきまとわれたもの。,60歳位、やせ型、身長165センチ位、黒色ジャンパー、黒色ズボン、黒色野球帽着用,松山市平和通六丁目から湊町五丁目までの間,松山市平和通六丁目から湊町五丁目までの間,0,blue,,,,,,,,,,,,,,
302,大洲署管内,身体露出,令和3年4月14日(水)午後7時50分ころ,喜多郡内子町内子店舗内,女性が店舗の陳列棚前にしゃがみ込んでいたところ、近づいてきた男がズボンのチャックから下半身を露出していたもの。,35〜40歳位、身長170センチ位、明るめの茶髪、ボサボサ髪を後ろで結んでいる、長袖スウェット様、作業着様長ズボン、色黒,喜多郡内子町内子,喜多郡内子町内子,2,orange,38.0,愛媛県,エヒメケン,EHIME KEN,38422.0,喜多郡内子町,キタグンウチコチョウ,KITA GUN UCHIKO CHO,内子,ウチコ,UCHIKO,,33.551735,132.647879
303,松山東署管内,声かけ,令和3年4月14日(水)午後5時ころ,松山市和泉北一丁目路上,女子高校生が自転車で帰宅中、自転車に乗った男に後をつけられ、信号待ちをしているときに、「ちょっとお姉さんいいですか。」と声をかけられたもの。,25〜35歳位、黒髪、色白,松山市和泉北一丁目,松山市和泉北一丁目,1,green,38.0,愛媛県,エヒメケン,EHIME KEN,38201.0,松山市,マツヤマシ,MATSUYAMA SHI,和泉北一丁目,イズミキタ 1,IZUMIKITA 1,,33.823903,132.759925
304,宇和島署管内,不審者,令和3年4月14日(水)午後1時ころ,北宇和郡鬼北町大字奈良路上,車から降りてきた男が、女児小学生の近隣住民に対して、父親を偽って女児小学生の帰宅時間を聞いてきたもの。,40歳位、やせ型、身長170センチ位、黒色短髪、灰色無地半袖ポロシャツ、ベージュ色チノパン、自動車利用(黒色、セダン型)縁なし眼鏡着用、あご髭あり、色白、鼻が大きい,北宇和郡鬼北町大字奈良,北宇和郡鬼北町大字奈良,0,purple,38.0,愛媛県,エヒメケン,EHIME KEN,38488.0,北宇和郡鬼北町,キタウワグンキホクチョウ,KITAUWA GUN KIHOKU CHO,大字奈良,,,,33.248654,132.659859
305,四国中央署管内,声かけ,令和3年4月14日(水)午前11時30分ころ,四国中央市中之庄町歩道橋上,男児小学生が歩いていたところ、歩道橋上で男に名前や住所などを聞かれたもの。,60〜70歳位、中肉、白髪、ズボン(太もも部分に柄付き),四国中央市中之庄町歩道橋上,四国中央市中之庄町歩道橋上,0,green,,,,,,,,,,,,,,
306,松山南署管内,声かけ,令和3年4月13日(火)午後5時15分ころ,東温市見奈良路上,女子高校生が自転車で走行中、黒色様原付バイクに乗った男に「おーい、ライン教えて。」などと声をかけられたもの。,黒色長袖上衣、黒色ズボン、黒色フルフェイス着用,東温市見奈良,東温市見奈良,1,green,38.0,愛媛県,エヒメケン,EHIME KEN,38215.0,東温市,トウオンシ,TOON SHI,見奈良,ミナラ,MINARA,,33.792101,132.876856
307,四国中央署管内,声かけ,令和3年4月13日(火)午後3時20分ころ,四国中央市寒川町路上,男児小学生7名が歩いていたところ、白色軽四トラック(荷台にオレンジ色のカゴ積載)に乗った男に二度にわたって、「何年生、何組、何小。」などと話しかけられ、その後、運転席窓から手を伸ばした男とハイタッチをしたもの。,中年位の年齢、白髪混じり、青色様長袖Tシャツ、日焼け肌,四国中央市寒川町,四国中央市寒川町,4,green,38.0,愛媛県,エヒメケン,EHIME KEN,38213.0,四国中央市,シコクチュウオウシ,SHIKOKUCHUO SHI,寒川町,サンガワチョウ,SANGAWACHO,,33.952462,133.507717
308,四国中央署管内,声かけ,令和3年4月13日(火)午後3時20分ころ,四国中央市寒川町路上,男児小学生7名が歩いていたところ、白色軽四トラック(荷台にオレンジ色のカゴ積載)に乗った男に二度にわたって、「何年生、何組、何小。」などと話しかけられ、その後、運転席窓から手を伸ばした男とハイタッチをしたもの。,中年位の年齢、白髪混じり、青色様長袖Tシャツ、日焼け肌,四国中央市寒川町,四国中央市寒川町,4,green,38.0,愛媛県,エヒメケン,EHIME KEN,38213.0,四国中央市,シコクチュウオウシ,SHIKOKUCHUO SHI,寒川町,サンガワチョウ,SANGAWACHO,大門,33.967211,133.503062
309,松山東署管内,写真撮影,令和3年4月13日(火)午前8時40分ころ,松山市南江戸四丁目路上,男性が自転車で走行中、犬の散歩をしている男とすれ違った際にスマートフォンを向けられたもの。,30〜40歳位、中肉、身長160センチ位、ボサボサの黒色長髪、暗色の長袖チェックTシャツ、緑色長ズボン、白色マスク着用、眼鏡なし、スマートフォン(手帳型ケース入り)、白色小型犬を散歩させていた,松山市南江戸四丁目,松山市南江戸四丁目,1,lightred,38.0,愛媛県,エヒメケン,EHIME KEN,38201.0,松山市,マツヤマシ,MATSUYAMA SHI,南江戸四丁目,ミナミエド 4,MINAMIEDO 4,,33.837758,132.741668
310,松山西署管内,不審者,令和3年4月12日(月)午後10時ころ,松山市久万ノ台敷地内,女性がマンション1階設置の集合ポスト付近を徘徊する男を目撃したもの。,30〜40歳位、肥満、身長170センチ位、黒色短髪、半袖Tシャツ(白地に青色の模様入り)茶色様長ズボン,松山市久万ノ台敷地内,松山市久万ノ台敷地内,0,purple,,,,,,,,,,,,,,
311,松山東署管内,写真撮影,令和3年4月12日(月)午後4時15分ころ,松山市桑原四丁目屋外施設,女子小学生が屋外施設で遊んでいたところ、女からスマートフォンで顔付近を複数回写真撮影されたもの。,女性、徒歩,松山市桑原四丁目,松山市桑原四丁目,0,lightred,38.0,愛媛県,エヒメケン,EHIME KEN,38201.0,松山市,マツヤマシ,MATSUYAMA SHI,桑原四丁目,クワバラ 4,KUWABARA 4,,33.832031,132.794275
312,松山東署管内,写真撮影,令和3年4月9日(金)午後4時50分ころ,松山市東雲町屋外施設,女子小中学生3名が屋外施設で遊んでいたところ、自転車に乗った男にスマートフォンを向けられたもの。,20歳位、やせ型、身長170センチ位、短髪、青色の服(肩から腕にかけて灰色ライン入り)、自転車利用(赤色、スポーツタイプ)、サングラス・マスク着用,松山市東雲町,松山市東雲町,0,lightred,38.0,愛媛県,エヒメケン,EHIME KEN,38201.0,松山市,マツヤマシ,MATSUYAMA SHI,東雲町,シノノメチョウ,SHINONOMECHO,,33.845331,132.773986
313,松山東署管内,声かけ,令和3年4月8日(木)午後1時30分ころ,松山市余戸西六丁目路上,小学生男女4名が自転車で移動中、自転車に乗った男に向かって、ベルを鳴らし笑ったことで、「君達なんなん。」と声をかけられ、移動先でも声をかけられたもの。,40歳位、半袖Tシャツ、ピンクライン入りの黒色ズボン、帽子着用,松山市余戸西六丁目,松山市余戸西六丁目,0,green,38.0,愛媛県,エヒメケン,EHIME KEN,38201.0,松山市,マツヤマシ,MATSUYAMA SHI,余戸西六丁目,ヨウゴニシ 6,YOGONISHI 6,,33.817533,132.725001
314,松山西署管内,身体露出,令和3年4月5日(月)午後7時ころ,松山市高岡町路上,女性が車で信号待ちをしていたところ、ズボンを膝上まで脱ぎ、携帯電話を操作しながら自転車を運転する男を目撃したもの。,40〜60歳位、上下黒色様の服、自転車利用(黒色様、スポーツタイプ),松山市高岡町,松山市高岡町,2,orange,38.0,愛媛県,エヒメケン,EHIME KEN,38201.0,松山市,マツヤマシ,MATSUYAMA SHI,高岡町,タカオカマチ,TAKAOKAMACHI,,33.830862,132.720361
315,松山西署管内,声かけ,令和3年4月3日(土)午後7時ころ,松山市湊町七丁目から同市南斎院町までの路上,女性が歩いていたところ、男に後方をつきまとわれた後、卑わいな言葉をかけられたもの。,30歳位、中肉、身長170センチ位、黒髪で側頭部短髪の頭頂部ハゲ、黒又は灰色パーカー、黒色ズボン、自転車利用(黒色、ミニサイクル)白色マスク着用、眼鏡なし,松山市湊町七丁目から同市南斎院町までの,松山市湊町七丁目から同市南斎院町まで,0,green,,,,,,,,,,,,,,
316,松山東署管内,卑わいな言動,令和3年4月3日(土)午後6時50分ころ,松山市竹原三丁目路上,女性が路上にいたところ、自転車に乗った男が女性の目の前に現れ、ズボンの上から自身の股間を触り始めたもの。,40〜45歳位、中肉、薄毛黒髪、黒色様ウインドブレーカー、黒色ズボン、自転車利用(前カゴ及び荷台あり)、マスクなし、所持品なし,松山市竹原三丁目,松山市竹原三丁目,1,卑わいな言動,38.0,愛媛県,エヒメケン,EHIME KEN,38201.0,松山市,マツヤマシ,MATSUYAMA SHI,竹原三丁目,タケワラ 3,TAKEWARA 3,,33.831886,132.749554
317,松山東署管内,声かけ,令和3年4月3日(土)午後5時ころ,松山市中村一丁目河川敷,女子中学生2名が河川敷にいたところ、徒歩で近づいてきた男に「俺は、社長で、トランペットの先生もしている。」等と数分間話しかけられ、一度立ち去るも、再度現れ、「たまに来るから、これあげる。」と言って千円札を1枚ずつ渡されたもの。,50歳位、小肥、身長165センチ位、黒色短髪、上下黒色様スーツ、紫色柄シャツ、帽子・眼鏡・髭なし、スマートフォン所持,松山市中村一丁目,松山市中村一丁目,0,green,38.0,愛媛県,エヒメケン,EHIME KEN,38201.0,松山市,マツヤマシ,MATSUYAMA SHI,中村一丁目,ナカムラ 1,NAKAMURA 1,,33.834948,132.777786
318,四国中央署管内,不審者,令和3年4月3日(土)午前10時20分ころ,四国中央市上柏町路上,男性の自宅付近を男が車両で複数回走行し、さらに、男性方付近に停車するなどしたもの。男性が男に声掛けしたところ、小声で何か申し立て立ち去ったもの。,40歳位、中肉、身長170センチ位、黒色短髪、上衣:灰色セーター様、黒色チョッキ様、下衣:ジーパン、水色軽四自動車利用、眼鏡・帽子なし、青色手提げバッグ所持,四国中央市上柏町,四国中央市上柏町,0,purple,38.0,愛媛県,エヒメケン,EHIME KEN,38213.0,四国中央市,シコクチュウオウシ,SHIKOKUCHUO SHI,上柏町,カミガシワチョウ,KAMIGASHIWACHO,,33.967775,133.570638
319,松山東署管内,つきまとい,令和3年3月30日(火)午後5時10分ころ,松山市衣山二丁目路上,女児小学生が歩いていたところ、後方を男につきまとわれたもの。女児小学生が反転し、男とすれ違うと、男はじっと見てきた。,身長170センチ位、やせ型、黒色短髪、上下黒色ジャージ(サイドに白色のライン入り)、黒色サングラス着用,松山市衣山二丁目,松山市衣山二丁目,0,blue,38.0,愛媛県,エヒメケン,EHIME KEN,38201.0,松山市,マツヤマシ,MATSUYAMA SHI,衣山二丁目,キヌヤマ 2,KINUYAMA 2,,33.852792,132.743142
320,大洲署管内,つきまとい,令和3年3月30日(火)午前10時ころ,喜多郡内子町五十崎乙路上,女子中学生が歩いていたところ、男に約10メートルの間隔で後方をつきまとわれたもの。女子中学生がつきまといに気が付き電話をかけるふりをすると、男はUターンして立ち去った。,40歳位、身長160センチ位、中肉、黒色長袖上着、青色ジーパン、黒色ニット帽・白色マスク着用、スマートフォン所持,喜多郡内子町五十崎乙,喜多郡内子町五十崎,0,blue,38.0,愛媛県,エヒメケン,EHIME KEN,38422.0,喜多郡内子町,キタグンウチコチョウ,KITA GUN UCHIKO CHO,五十崎,イカザキ,IKAZAKI,,33.529722,132.643893
321,四国中央署管内,不審者,令和3年3月29日(月)午後6時20分ころ,四国中央市川之江町路上,路上に自転車を停めた男が閉館中の施設敷地内に入り、地面を探る様な行動をとった後、自転車に乗って叫びながら猛スピードで走り去ったもの。,身長170〜180センチ位、黒色様短髪、黒色様フード付きジャンパー,四国中央市川之江町,四国中央市川之江町,1,purple,38.0,愛媛県,エヒメケン,EHIME KEN,38213.0,四国中央市,シコクチュウオウシ,SHIKOKUCHUO SHI,川之江町,カワノエチョウ,KAWANOECHO,,34.014304,133.579682
322,四国中央署管内,不審者,令和3年3月29日(月)午後6時20分ころ,四国中央市川之江町路上,路上に自転車を停めた男が閉館中の施設敷地内に入り、地面を探る様な行動をとった後、自転車に乗って叫びながら猛スピードで走り去ったもの。,身長170〜180センチ位、黒色様短髪、黒色様フード付きジャンパー,四国中央市川之江町,四国中央市川之江町,1,purple,38.0,愛媛県,エヒメケン,EHIME KEN,38213.0,四国中央市,シコクチュウオウシ,SHIKOKUCHUO SHI,川之江町,カワノエチョウ,KAWANOECHO,横田,34.003925,133.565172
323,四国中央署管内,不審者,令和3年3月29日(月)午後6時20分ころ,四国中央市川之江町路上,路上に自転車を停めた男が閉館中の施設敷地内に入り、地面を探る様な行動をとった後、自転車に乗って叫びながら猛スピードで走り去ったもの。,身長170〜180センチ位、黒色様短髪、黒色様フード付きジャンパー,四国中央市川之江町,四国中央市川之江町,1,purple,38.0,愛媛県,エヒメケン,EHIME KEN,38213.0,四国中央市,シコクチュウオウシ,SHIKOKUCHUO SHI,川之江町,カワノエチョウ,KAWANOECHO,塚田,34.000158,133.566627
324,松山西署管内,つきまとい,令和3年3月29日(月)午後5時ころ,松山市別府町駐車場内,女児小学生らが歩いていたところ、後方を男につきまとわれたもの。男は駐車場に駐車していた車(クリーム色の普通車様)に乗って立ち去った。,やせ型、白色ジャケット、灰色長ズボン、白色キャップ帽着用、眼鏡・マスクなし,松山市別府町,松山市別府町,1,blue,38.0,愛媛県,エヒメケン,EHIME KEN,38201.0,松山市,マツヤマシ,MATSUYAMA SHI,別府町,ベフチョウ,BEFUCHO,,33.846241,132.720868
325,松山南署管内,つきまとい,令和3年3月27日(土)午後5時ころ,松山市朝生田町六丁目から同市和泉南一丁目路上までの間,男児小学生が自転車に乗って走行中、自転車に乗った男2名に幅寄せされながらつきまとわれたもの。男児小学生が停まると、男に「おい、お前、ちょっと来い。」と言われた。,A(14〜16歳位、身長165〜180センチ位、中肉、黒髪、白色様の服、ラジカセ様のもの所持)、B(14〜16歳位、中肉、黒色様の服),松山市朝生田町六丁目から同市和泉南一丁目,松山市朝生田町六丁目から同市和泉南一丁目,0,blue,,,,,,,,,,,,,,
326,松山南署管内,不審者,令和3年3月27日(土)午後4時10分ころ,伊予郡砥部町北川毛一般住宅玄関先,女児小学生が在宅中、玄関のガラス越しに何かを置く男の姿を目撃し、しばらくして玄関先を確認すると、小石が置かれていたもの。,中肉、身長160〜165センチ位、青色フード付き上衣,伊予郡砥部町北川毛,伊予郡砥部町北川毛,0,purple,38.0,愛媛県,エヒメケン,EHIME KEN,38402.0,伊予郡砥部町,イヨグントベチョウ,IYO GUN TOBE CHO,北川毛,キタカワゲ,KITAKAWAGE,,33.739711,132.784622
327,西条署管内,身体露出,令和3年3月27日(土)午後3時ころ,西条市喜多川路上,後方からゆっくり近づいてきた車(黒色)に乗った男が下半身を露出していたもの。,,西条市喜多川,西条市喜多川,2,orange,38.0,愛媛県,エヒメケン,EHIME KEN,38206.0,西条市,サイジョウシ,SAIJO SHI,喜多川,キタガワ,KITAGAWA,,33.922611,133.170114
328,松山東署管内,つきまとい,令和3年3月26日(金)午後8時20分ころ,松山市千舟町七丁目一般住宅,女性が帰宅のため、自転車を自宅駐輪場に置き、自宅につながる外階段を上がっていたところ、駐輪場に立っていた男が女性を見上げながら、階段を上がってきたもの。,20〜30歳位、中肉、上下黒色様の服、黒色リュックサック所持,松山市千舟町七丁目,松山市千舟町七丁目,0,blue,38.0,愛媛県,エヒメケン,EHIME KEN,38201.0,松山市,マツヤマシ,MATSUYAMA SHI,千舟町七丁目,チフネマチ 7,CHIFUNEMACHI 7,,33.837093,132.75672
329,松山西署管内,つきまとい,令和3年3月25日(木)午後3時30分ころ,松山市空港通六丁目店舗から同市空港通五丁目路上までの間,女性が店舗内で買い物中、後方から様子を窺うようにしていた男に、店外に出た後もつきまとうように後方をつきまとわれたもの。,30〜40歳位、小肥、身長160〜170センチ位、黒色でくせ毛の長髪、薄紫色Tシャツ、黒色ズボン、黒色サングラス着用、折り畳んだオレンジ色の服を所持),松山市空港通六丁目,松山市空港通六丁目,0,blue,38.0,愛媛県,エヒメケン,EHIME KEN,38201.0,松山市,マツヤマシ,MATSUYAMA SHI,空港通六丁目,クウコウドオリ 6,KUKODORI 6,,33.827811,132.730422
330,松山東署管内,声かけ,令和3年3月24日(水)午後4時30分ころ,松山市清水町二丁目路上,女子小学生2名が歩いていたところ、男2名に現金を手渡され、執拗に氏名や住所等を聞かれながらつきまとわれたもの。,A(20歳位、やせ型、身長170センチ位、上下黒色の服、眼鏡・黒色キャップ帽着用、マスク無し、スマートフォン所持、青色スポーツタイプ自転車利用)、B(20歳位、やせ型、身長170センチ位、黒色短髪、黒色上衣、灰色下衣、顔に赤色のにきび多数あり、眼鏡・マスクなし),松山市清水町二丁目,松山市清水町二丁目,0,green,38.0,愛媛県,エヒメケン,EHIME KEN,38201.0,松山市,マツヤマシ,MATSUYAMA SHI,清水町二丁目,シミズマチ 2,SHIMIZUMACHI 2,,33.850248,132.764059
331,松山東署管内,ちかん,令和3年3月21日(日)午後5時ころ,松山市湯の山店舗内,女子高校生が店内にいたところ、男に軽く臀部を触られ、店外に出た後も近づいてこられ、再度臀部を触られそうになったもの。男は、車に乗って立ち去った。,30〜40歳位、中肉、身長170センチ位、黒色短髪、黒色ロングTシャツ、黒色ジャージ、白色の普通乗用車利用、目が細い、マスク着用、レジ袋所持,松山市湯の山,松山市湯の山,0,gray,,,,,,,,,,,,,,
332,松山南署管内,声かけ,令和3年3月20日(土)午後0時40分ころ,松山市居相一丁目路上,男児小学生が徒歩で移動中、車(黒色、四角で小さい)に乗った男に「おい、お父さんが大変だ。」などと声をかけられた上、車から降りた男に追いかけられたもの。,30歳位、中肉、黒色短髪、黒色の上衣、黒色サングラス・ピアス着用,松山市居相一丁目,松山市居相一丁目,0,green,38.0,愛媛県,エヒメケン,EHIME KEN,38201.0,松山市,マツヤマシ,MATSUYAMA SHI,居相一丁目,イアイ 1,IAI 1,,33.810574,132.774073
333,松山東署管内,身体露出,令和3年3月20日(土)午前2時20分ころ,松山市平和通四丁目路上から同市平和通六丁目路上までの間,女性が歩いていたところ、男に先回りされたりしてつきまとわれた上、露出した下半身を見せつけられたもの。,20〜30歳位、身長160〜170センチ位、やせ型、黒色様短髪、上下灰色スウェット(背中に黒色で柄あり)、眼鏡・髭・マスクなし,松山市平和通四丁目,松山市平和通四丁目,0,orange,38.0,愛媛県,エヒメケン,EHIME KEN,38201.0,松山市,マツヤマシ,MATSUYAMA SHI,平和通四丁目,ヘイワドオリ 4,HEIWADORI 4,,33.84723,132.763343
334,松山東署管内,つきまとい,令和3年3月18日(木)午前11時15分ころ,松山市南江戸一丁目施設内,女子中学生が施設内にいたところ、居合わせた男に凝視されたもの。視線に気がついた女子中学生が席を替えても男がついてきた。,40〜50歳位、中肉、白髪混じり短髪、紺色ジャンパー、灰色長ズボン、灰色ネックウォーマー・眼鏡・白色マスク着用,松山市南江戸一丁目,松山市南江戸一丁目,1,blue,38.0,愛媛県,エヒメケン,EHIME KEN,38201.0,松山市,マツヤマシ,MATSUYAMA SHI,南江戸一丁目,ミナミエド 1,MINAMIEDO 1,,33.838208,132.75005
335,四国中央署管内,不審者,令和3年3月18日(木)午前0時45分ころ,四国中央市川之江町路上,隣家の敷地からフードを被った男が出てきたため、目撃者が声をかけるも、男は無視してそのまま立ち去ったもの。,中年、身長180センチ位、小肥、灰色パーカー、灰色スウェット、黒色トートバッグ所持,四国中央市川之江町,四国中央市川之江町,2,purple,38.0,愛媛県,エヒメケン,EHIME KEN,38213.0,四国中央市,シコクチュウオウシ,SHIKOKUCHUO SHI,川之江町,カワノエチョウ,KAWANOECHO,,34.014304,133.579682
336,四国中央署管内,不審者,令和3年3月18日(木)午前0時45分ころ,四国中央市川之江町路上,隣家の敷地からフードを被った男が出てきたため、目撃者が声をかけるも、男は無視してそのまま立ち去ったもの。,中年、身長180センチ位、小肥、灰色パーカー、灰色スウェット、黒色トートバッグ所持,四国中央市川之江町,四国中央市川之江町,2,purple,38.0,愛媛県,エヒメケン,EHIME KEN,38213.0,四国中央市,シコクチュウオウシ,SHIKOKUCHUO SHI,川之江町,カワノエチョウ,KAWANOECHO,横田,34.003925,133.565172
337,四国中央署管内,不審者,令和3年3月18日(木)午前0時45分ころ,四国中央市川之江町路上,隣家の敷地からフードを被った男が出てきたため、目撃者が声をかけるも、男は無視してそのまま立ち去ったもの。,中年、身長180センチ位、小肥、灰色パーカー、灰色スウェット、黒色トートバッグ所持,四国中央市川之江町,四国中央市川之江町,2,purple,38.0,愛媛県,エヒメケン,EHIME KEN,38213.0,四国中央市,シコクチュウオウシ,SHIKOKUCHUO SHI,川之江町,カワノエチョウ,KAWANOECHO,塚田,34.000158,133.566627
338,松山西署管内,声かけ,令和3年3月17日(水)午後5時ころ,松山市片山屋外施設,男児小学生らが屋外施設から歩いて帰宅しようとしたところ、入口に立っていた女に「何してくれてんだ。」などと怒鳴られたもの。,30〜40歳位、肥満、身長155センチ位、黒髪(長めの髪を後ろで結んでいる)、黒色様の服、黒色ズボン、白色キャップ帽・ピンク色サングラス着用,松山市片山,松山市片山,0,green,38.0,愛媛県,エヒメケン,EHIME KEN,38201.0,松山市,マツヤマシ,MATSUYAMA SHI,片山,カタヤマ,KATAYAMA,,33.949053,132.777825
339,松山西署管内,声かけ,令和3年3月17日(水)午後3時30分ころ,松山市堀江町路上,女子小学生が歩いていたところ、自転車(灰色、軽快兼用)に乗った男に近づかれ、「おい。」と声をかけられたもの。,40歳位、中肉、黒色短髪、灰色長袖Tシャツ、緑色長ズボン、マスク・眼鏡なし,松山市堀江町,松山市堀江町,1,green,38.0,愛媛県,エヒメケン,EHIME KEN,38201.0,松山市,マツヤマシ,MATSUYAMA SHI,堀江町,ホリエチョウ,HORIECHO,,33.908885,132.759138
340,松山東署管内,声かけ,令和3年3月12日(金)午後5時30分ころ,松山市保免西一丁目一般住宅玄関先,女児小学生が自宅に入ろうとしたところ、後方から近づいてきた男に「大人の人に渡しておいて。」と言いながら新品のハンドクリームを渡されたもの。,30〜40歳位、やせ型、黒髪、黒色様の服、黒色様ズボン,松山市保免西一丁目,松山市保免西一丁目,0,green,38.0,愛媛県,エヒメケン,EHIME KEN,38201.0,松山市,マツヤマシ,MATSUYAMA SHI,保免西一丁目,ホウメンニシ 1,HOMENNISHI 1,,33.817546,132.744424
341,松山東署管内,声かけ,令和3年3月11日(木)午後3時10分ころ,松山市朝日ヶ丘二丁目路上,女児小学生が歩行中、車に乗った男に怒鳴られたもの。,,松山市朝日ヶ丘二丁目,松山市朝日ヶ丘二丁目,0,green,,,,,,,,,,,,,,
342,松山東署管内,声かけ,令和3年3月10日(水)午後3時5分ころ,松山市美沢二丁目路上,女児小学生らが歩いて横断歩道を渡ろうとすると、車(赤色、軽四自動車)が来たため渡るのをやめたところ、車に乗った男に暴言を吐かれたもの。,30〜40歳位、やせ型、眼鏡なし,松山市美沢二丁目,松山市美沢二丁目,0,green,38.0,愛媛県,エヒメケン,EHIME KEN,38201.0,松山市,マツヤマシ,MATSUYAMA SHI,美沢二丁目,ミサワ 2,MISAWA 2,,33.849809,132.744542
343,四国中央署管内,写真撮影,令和3年3月9日(火)午後6時5分ころ,四国中央市中之庄町路上,女子中学生が歩いていたところ、男にスマートフォン(銀色)を向けられたもの。,60歳位、やせ型、身長170センチ位、白髪混じり短髪、上下黒色様作業着,四国中央市中之庄町,四国中央市中之庄町,0,lightred,38.0,愛媛県,エヒメケン,EHIME KEN,38213.0,四国中央市,シコクチュウオウシ,SHIKOKUCHUO SHI,中之庄町,ナカノショウチョウ,NAKANOSHOCHO,,33.963258,133.536488
344,松山西署管内,写真撮影,令和3年3月9日(火)午後6時ころ,松山市会津町店舗内,女児小学生が保護者と店内で買い物中、男にスマートフォンで容姿を撮影されたもの。保護者が男に「写真を撮っていましたか。消して。」と声をかけると、男は車(銀色、ステーションワゴン)に乗って逃走した。,35歳位、中肉、身長165センチ位、茶色短髪、紺色ジャンパー、茶色ベスト、紺色ジーパン、マスクなし,松山市会津町,松山市会津町,0,lightred,38.0,愛媛県,エヒメケン,EHIME KEN,38201.0,松山市,マツヤマシ,MATSUYAMA SHI,会津町,アイヅマチ,AIZUMACHI,,33.862186,132.726065
345,四国中央署管内,声かけ,令和3年3月7日(日)午後3時40分ころ,四国中央市土居町天満路上,小学生3名が公園で遊んでいたところ、自転車(カゴに手袋を積載)を押して通りかかった男が、下半身を触りながら、意味不明な言葉をかけてきたもの。,70歳位、中肉、身長165センチ位、上下黒色ジャージ、ニット帽着用,四国中央市土居町天満,四国中央市土居町天満,0,green,38.0,愛媛県,エヒメケン,EHIME KEN,38213.0,四国中央市,シコクチュウオウシ,SHIKOKUCHUO SHI,土居町天満,ドイチョウテンマ,DOICHO TEMMA,,33.978484,133.406257
346,四国中央署管内,つきまとい,令和3年3月5日(金)午後4時20分ころ,四国中央市中曽根町路上,女児小学生が歩いていたところ、男につきまとわれ、凝視されたもの。,40〜50歳位、やせ型、身長170センチ位、暗い茶髪、白色シャツ、青色上着、灰色ズボン、黒色スニーカー着用、黒色かばん・傘所持,四国中央市中曽根町,四国中央市中曽根町,0,blue,38.0,愛媛県,エヒメケン,EHIME KEN,38213.0,四国中央市,シコクチュウオウシ,SHIKOKUCHUO SHI,中曽根町,ナカゾネチョウ,NAKAZONECHO,,33.965099,133.549186
347,今治署管内,声かけ,令和3年3月4日(木)午後3時45分ころ,今治市黄金町三丁目路上,男児小学生が歩いていたところ、停車している車に乗った男に「僕、車に乗っていかん。」と声をかけられたもの。,80歳位、白髪、灰色の服、銀色の軽四自動車利用、白色マスク着用、眼鏡なし,今治市黄金町三丁目,今治市黄金町三丁目,0,green,38.0,愛媛県,エヒメケン,EHIME KEN,38202.0,今治市,イマバリシ,IMABARI SHI,黄金町三丁目,コガネチョウ 3,KOGANECHO 3,,34.062591,133.00491
348,松山東署管内,声かけ,令和3年3月4日(木)午後3時30分ころ,松山市衣山付近走行中の列車内,女児小学生が列車に乗っていたところ、車内に居合わせた男に「ここで降りるんだ。」と声をかけられたもの。数日前には、同一の男に「今何時。」と声をかけられている。,50〜60歳位、黒髪、灰色ジャケット、マスク着用、赤色バッグ所持,松山市衣山,松山市衣山,0,green,,,,,,,,,,,,,,
349,松山西署管内,写真撮影,令和3年3月4日(木)午前7時05分ころ,松山市東大栗町甲路上,男女児小学生3名が歩いていたところ、車に乗った男に近づかれ、車内からスマートフォンを向けられたもの。,30〜40歳位、黒色短髪、自動車利用(薄いメタリックブルー、普通車、コンパクトカー様)、眼鏡なし,松山市東大栗町甲,松山市東大栗町,0,lightred,38.0,愛媛県,エヒメケン,EHIME KEN,38201.0,松山市,マツヤマシ,MATSUYAMA SHI,東大栗町,ヒガシオオグリチョウ,HIGASHIOGURICHO,,33.904426,132.782986
350,松山東署管内,卑わいな言動,令和3年3月3日(水)午後7時30分ころ,松山市余戸中六丁目路上,女子高校生が自転車で走行中、交差点で一時停止したところ、軽四自動車(白色、箱形)に横付けされ、運転席に座っていた男に車内から卑わいな言葉をかけられたもの。,30歳位、中肉、黒色短髪、黒縁眼鏡着用,松山市余戸中六丁目,松山市余戸中六丁目,0,卑わいな言動,38.0,愛媛県,エヒメケン,EHIME KEN,38201.0,松山市,マツヤマシ,MATSUYAMA SHI,余戸中六丁目,ヨウゴナカ 6,YOGONAKA 6,,33.81758,132.733672
351,松山南署管内,写真撮影,令和3年3月2日(火)午後4時35分ころ,東温市北方路上,女子中学生2名が歩いていたところ、対向から歩いてきた男に、すれ違いざま、スマートフォンと黒色一眼レフ様カメラで容姿を撮影されたもの。その後、男はニヤっとした後、走り去った。,20歳位、やせ型、身長180センチ位、前髪が目にかかる程度の黒髪、カーキ色フード付きジャンパー、黒色長ズボン、斜め掛けリュック所持,東温市北方,東温市北方,2,lightred,38.0,愛媛県,エヒメケン,EHIME KEN,38215.0,東温市,トウオンシ,TOON SHI,北方,キタガタ,KITAGATA,,33.820826,132.91541
352,四国中央署管内,住居侵入,令和3年3月1日(月)午後4時ころ,四国中央市土居町北野一般住宅,住民らが庭先にいたところ、男が住宅の敷地に無断で立ち入り、郵便受けに記載された女子児童の名前を読み上げたもの。住民が声をかけるも、男は何も答えず路上に停めてあった自転車(黒色、通学用自転車、前カゴ付き)に乗って走り去った。,20〜25歳位、やせ型、身長160〜170センチ位、黒色短髪、上下黒色ジャージ(白色三本ライン入り)、黒縁眼鏡・黒色ヘルメット着用、ひげなし、黒色スポーツバッグ所持,四国中央市土居町北野,四国中央市土居町北野,0,darkred,38.0,愛媛県,エヒメケン,EHIME KEN,38213.0,四国中央市,シコクチュウオウシ,SHIKOKUCHUO SHI,土居町北野,ドイチョウキタノ,DOICHO KITANO,,33.959404,133.393946
353,松山東署管内,身体露出,令和3年2月27日(土)午後5時10分ころ,松山市南江戸二丁目路上,自転車に跨って、露出した下半身を触っている男の姿が目撃されたもの。,30〜40歳位、中肉、身長170センチ位、天然パーマ様の黒色短髪、上衣:緑色ベスト、黒色長ズボン、黒色自転車利用、黒色スマートフォン所持,松山市南江戸二丁目,松山市南江戸二丁目,0,orange,38.0,愛媛県,エヒメケン,EHIME KEN,38201.0,松山市,マツヤマシ,MATSUYAMA SHI,南江戸二丁目,ミナミエド 2,MINAMIEDO 2,,33.837105,132.747599
354,松山西署管内,不審者,令和3年2月25日(木)午後5時40分ころ,松山市別府町公園,女児小学生2名が公園で遊んでいたところ、バイク(銀色スクーター型、前カゴ付)を駐輪し、煙草を吸っている男に凝視されたもの。,60〜70歳位、小肥、白髪混じり天然パーマ様の巻髪、えんじ色のジャンパー、青色様ジーンズ、黒色手袋様・銀色フルフェイス型ヘルメット着用,松山市別府町,松山市別府町,2,purple,38.0,愛媛県,エヒメケン,EHIME KEN,38201.0,松山市,マツヤマシ,MATSUYAMA SHI,別府町,ベフチョウ,BEFUCHO,,33.846241,132.720868
355,松山東署管内,身体露出,令和3年2月25日(木)午後4時30分ころ,松山市桑原二丁目路上,ズボンを下げ、女性用下着を身に着けた男が自転車を立ちこぎしながら、路上を往復したもの。,50歳位、中肉、身長165〜170センチ位、黒色短髪、黒色様の上衣、ジーパン、女性用ショーツ、自転車利用(銀色、ママチャリ)、マスク着用、髭なし、つり目,松山市桑原二丁目,松山市桑原二丁目,0,orange,38.0,愛媛県,エヒメケン,EHIME KEN,38201.0,松山市,マツヤマシ,MATSUYAMA SHI,桑原二丁目,クワバラ 2,KUWABARA 2,,33.835795,132.791822
356,松山東署管内,卑わいな言動,令和3年2月25日(木)午後0時20分ころ,松山市姫原公園,女子高校生が自転車で走行中、自転車(銀色、前カゴ付き)に乗った男に後方をつきまとわれ、逃げ込んだ公園内で卑わいな言葉をかけられたもの。,30〜40歳位、中肉、黒色短髪、黒色ジャンパー、灰色作業ズボン様、白色マスク着用,松山市姫原,松山市姫原,0,卑わいな言動,,,,,,,,,,,,,,
357,松山東署管内,声かけ,令和3年2月23日(火)午後6時10分ころ,松山市松末一丁目路上から同市三町三丁目路上までの間,女性が自転車で走行中、自転車(軽快兼用、前カゴ付き)に乗った男に並走され、「こんにちは、素敵な出会いですね、どこか行きましょう。」と声をかけられたもの。,30〜35歳位、やせ型、坊主頭、ベージュ色セーター、丸型の眼鏡着用、マスクなし,松山市松末一丁目,松山市松末一丁目,0,green,38.0,愛媛県,エヒメケン,EHIME KEN,38201.0,松山市,マツヤマシ,MATSUYAMA SHI,松末一丁目,マツスエ 1,MATSUSUE 1,,33.826837,132.790334
358,松山東署管内,声かけ,令和3年2月22日(月)午後2時10分ころ,松山市畑寺三丁目から四丁目までの路上,女児小学生が徒歩で移動中、自転車に乗った男に何かボソボソと声をかけられ、ニヤつかれたもの。,30〜40歳位、中肉、灰色スウェット、マスク着用,松山市畑寺三丁目から四丁目までの,松山市畑寺三丁目から四丁目まで,0,green,,,,,,,,,,,,,,
359,新居浜署管内,写真撮影,令和3年2月22日(月)午前8時ころ,新居浜市瀬戸町路上から同市岸の上町一丁目路上までの間,男児小学生が歩いていたところ、車に乗った男に複数回にわたってスマートフォンを向けられ、つきまとわれたもの。,60歳位、灰色自動車利用、スマートフォン所持,新居浜市瀬戸町,新居浜市瀬戸町,0,lightred,38.0,愛媛県,エヒメケン,EHIME KEN,38205.0,新居浜市,ニイハマシ,NIIHAMA SHI,瀬戸町,セトチョウ,SETOCHO,,33.944717,133.3005
360,四国中央署管内,声かけ,令和3年2月21日(日)午後5時20分ころ,四国中央市土居町入野路上,女性が農作業中、男にトイレの場所を尋ねられたが無視していると、他の通行人には声をかけず立ち去ったもの。なお、数か月前にも同じ行為者から同様の声かけをされている。,20〜30歳位、やせ型、身長170センチ位、黒色短髪、黒色長袖上衣、緑色スウェットズボン、黒縁眼鏡着用、黒色リュックサック所持,四国中央市土居町入野,四国中央市土居町入野,0,green,38.0,愛媛県,エヒメケン,EHIME KEN,38213.0,四国中央市,シコクチュウオウシ,SHIKOKUCHUO SHI,土居町入野,ドイチョウイリノ,DOICHO IRINO,,33.950339,133.421129
361,松山西署管内,声かけ,令和3年2月21日(日)午後2時30分ころ,松山市西垣生町公園,女児小学生4名が公園で遊んでいたところ、男に「名前なんて言うんぞ。」「何年生ぞ。」「なんでマスクつけとるんぞ。」などと声をかけられたもの。,75〜80歳位、中肉、身長160センチ位、白髪混じりの短髪、白色長袖シャツ、肌色ベスト(ケチャップ様の汚れが付着している)、長ズボン、黒色スニーカー・黒色キャップ帽・銀縁眼鏡着用、目の下にほくろがある,松山市西垣生町,松山市西垣生町,1,green,38.0,愛媛県,エヒメケン,EHIME KEN,38201.0,松山市,マツヤマシ,MATSUYAMA SHI,西垣生町,ニシハブマチ,NISHIHABUMACHI,,33.813675,132.701207
362,大洲署管内,声かけ,令和3年2月20日(土)午前10時ころ,喜多郡内子町大瀬中央路上,女児小学生が自転車で走行中、男に「望遠鏡を見せてあげる。」と声をかけられたもの。,60〜70歳位、中肉、身長170センチ位、白髪、黒色上衣、望遠鏡所持、マスクなし,喜多郡内子町大瀬中央,喜多郡内子町大瀬中央,0,green,38.0,愛媛県,エヒメケン,EHIME KEN,38422.0,喜多郡内子町,キタグンウチコチョウ,KITA GUN UCHIKO CHO,大瀬中央,オオセチュウオウ,OSECHUO(UKAWA.OKUBO.OTSUNARI.NAKANO,,33.600222,132.734117
363,四国中央署管内,のぞき・盗撮,令和3年2月18日(木)午後11時ころ,四国中央市金生町下分一般住宅敷地内,女性が脱衣所にいたところ、男に脱衣所の窓から覗かれたもの。,若い男、やせ型、顔が小さめ,四国中央市金生町下分,四国中央市金生町下分,1,pink,38.0,愛媛県,エヒメケン,EHIME KEN,38213.0,四国中央市,シコクチュウオウシ,SHIKOKUCHUO SHI,金生町下分,キンセイチョウシモブン,KINSEICHO SHIMOBUN,,34.00079,133.582415
364,松山南署管内,不審者,令和3年2月18日(木)午後8時ころ,松山市福音寺町店舗駐車場内,営業中の店舗周辺を徘徊しながら、店舗内を覗き込む男がいたもの。男は、店舗従業員が声かけするも、無視して徘徊を続けた後、立ち去った。,60〜70歳位、中肉、身長160センチ位、黒色ダウンジャケット、黒色ズボン、黒色ニット帽着用,松山市福音寺町,松山市福音寺町,2,purple,38.0,愛媛県,エヒメケン,EHIME KEN,38201.0,松山市,マツヤマシ,MATSUYAMA SHI,福音寺町,フクオンジマチ,FUKUONJIMACHI,,33.821822,132.790842
365,松山東署管内,不審者,令和3年2月18日(木)午前7時20分ころ,松山市辻町路上,男児小学生が歩いていたところ、前方から歩いてきた男とすれ違った後、反転した男に近づかれ、凝視されたもの。,40歳位、中肉、身長175センチ位、短髪、黒色ダウンジャケット、黒色ズボン、黒色キャップ帽・黒色マスク着用、目が細い,松山市辻町,松山市辻町,0,purple,38.0,愛媛県,エヒメケン,EHIME KEN,38201.0,松山市,マツヤマシ,MATSUYAMA SHI,辻町,ツジマチ,TSUJIMACHI,,33.84332,132.748952
366,松山東署管内,声かけ,令和3年2月16日(火)午後5時ころ,松山市宮西二丁目路上,女子高校生が自転車で走行中、信号待ちで停車していると、付近に立っていた男に「後ろに乗せてくれん。」と声をかけられたもの。女子高校生がこれを断ると、男は「あっそ。」と言い、立ち去った。,20〜30歳位、黒色様の上衣、白色様帽子・白色マスク着用,松山市宮西二丁目,松山市宮西二丁目,0,green,38.0,愛媛県,エヒメケン,EHIME KEN,38201.0,松山市,マツヤマシ,MATSUYAMA SHI,宮西二丁目,ミヤニシ 2,MIYANISHI 2,,33.848687,132.752838
367,宇和島署管内,声かけ,令和3年2月16日(火)午後4時40分ころ,宇和島市伊吹町路上,女児小学生が徒歩で移動中、前方から近づいてきた男にお辞儀をしたところ、「一緒に家に行かない。」と声をかけられたもの。,50〜60歳位、肥満、身長165センチ位、白髪混じりで頭頂部がはげ、黒色パーカー(胸元に白色の英語文字入り)、ズボン、黒色マスク着用、眼鏡なし,宇和島市伊吹町,宇和島市伊吹町,1,green,38.0,愛媛県,エヒメケン,EHIME KEN,38203.0,宇和島市,ウワジマシ,UWAJIMA SHI,伊吹町,イブキチョウ,IBUKICHO,,33.234583,132.579287
